~Version
 VERS              .         2.0                           : CWLS LOG ASCII STANDARD - VERSION 2.0
 WRAP              .         NO                            : ONE LINE PER DEPTH STEP
 DLM               .         SPACE                         : DELIMITING CHARACTER(SPACE TAB OR COMMA)
~Well Information
#_______________________________________________________________________________
#
#PARAMETER_NAME    .UNIT     VALUE                         : DESCRIPTION
#_______________________________________________________________________________
STRT               .m        2574.0000                     : First reference value
STOP               .m        4550.0000                     : Last reference value
STEP               .m        0.1000                        : Step increment
NULL               .         -9999                         : Missing value
COMP               .                                       : Company
WELL               .         Well-D                        : Well name
~Parameter Information Block
#_______________________________________________________________________________
#
#PARAMETER_NAME    .UNIT     VALUE                         : DESCRIPTION
#_______________________________________________________________________________
SET                .         Data_Output                   : 
TLFamily_BS        .         Bit Size                      : 
TLFamily_CALI      .         Caliper                       : 
TLFamily_DENS      .         Bulk Density                  : 
TLFamily_DT        .         Compressional Slowness        : 
TLFamily_DTS       .         Shear Slowness                : 
TLFamily_GR        .         Gamma Ray                     : 
TLFamily_MD        .         Measured Depth                : 
TLFamily_NPHI      .         Thermal Neutron Porosity      : 
TLFamily_RS        .         Resistivity - Phase Shift     : 
TLFamily_RT        .         Resistivity - True Formation  : 
~Curve Information
#_______________________________________________________________________________
#
#LOGNAME           .UNIT     LOG_ID                        : DESCRIPTION
#_______________________________________________________________________________
MD                 .m                                      :  
BS                 .inches                                 :  
CALI               .inches                                 :  
DENS               .g/cm3                                  :  
DT                 .us/ft                                  :  
DTS                .us/ft                                  :  
GR                 .API                                    :  
NPHI               .v/v                                    :  
RS                 .ohm.m                                  :  
RT                 .ohm.m                                  :  
~Ascii
# ...
3355.1000  8.5000     8.7030     2.5050     70.3430    126.4260   10.1820    0.1330     2.1850     2.5080    
3355.2000  8.5000     8.7500     2.5050     70.4640    126.9250   9.6860     0.1300     2.1780     2.4990    
3355.3000  8.5000     8.7500     2.5060     70.5470    127.4530   9.3920     0.1310     2.1740     2.4860    
3355.4000  8.5000     8.7500     2.5070     70.6050    127.9810   9.9910     0.1320     2.1670     2.4660    
3355.5000  8.5000     8.7500     2.5090     70.6740    128.3140   10.3050    0.1340     2.1640     2.4710    
3355.6000  8.5000     8.7500     2.5100     70.6860    128.4610   10.2220    0.1360     2.1510     2.4520    
3355.7000  8.5000     8.7500     2.5090     70.6540    128.4540   10.0920    0.1380     2.1400     2.4390    
3355.8000  8.5000     8.7030     2.5070     70.6170    128.1560   10.4080    0.1420     2.1390     2.4430    
3355.9000  8.5000     8.7030     2.5070     70.5970    127.5750   10.0120    0.1440     2.1340     2.4350    
3356.0000  8.5000     8.7030     2.5080     70.5940    126.7300   10.9940    0.1450     2.1180     2.4180    
3356.1000  8.5000     8.7030     2.5080     70.6080    126.7950   11.2690    0.1460     2.1100     2.4200    
3356.2000  8.5000     8.7270     2.5070     70.6720    126.5220   11.5560    0.1430     2.1090     2.4300    
3356.3000  8.5000     8.7500     2.5060     70.7920    125.8700   11.5390    0.1440     2.1000     2.4260    
3356.4000  8.5000     8.7500     2.5040     70.9370    126.6140   11.4260    0.1440     2.1000     2.4260    
3356.5000  8.5000     8.7500     2.5040     71.0720    127.4510   11.7230    0.1450     2.0930     2.4290    
3356.6000  8.5000     8.7500     2.5050     71.1940    128.3060   12.5170    0.1460     2.0880     2.4110    
3356.7000  8.5000     8.7030     2.5080     71.3100    129.1080   13.1290    0.1500     2.0830     2.4130    
3356.8000  8.5000     8.7030     2.5100     71.3870    129.9160   12.9150    0.1500     2.0790     2.4110    
3356.9000  8.5000     8.7030     2.5070     71.4010    130.7430   14.0520    0.1510     2.0730     2.4030    
3357.0000  8.5000     8.7030     2.5010     71.4790    131.1410   14.9810    0.1510     2.0650     2.3990    
3357.1000  8.5000     8.7500     2.4950     71.5750    131.4830   13.9730    0.1500     2.0590     2.3880    
3357.2000  8.5000     8.7500     2.4920     71.6840    131.8640   14.1200    0.1500     2.0580     2.3890    
3357.3000  8.5000     8.7810     2.4890     71.7440    132.0900   13.2590    0.1480     2.0540     2.3990    
3357.4000  8.5000     8.7500     2.4870     71.7930    132.2670   12.8090    0.1490     2.0500     2.3970    
3357.5000  8.5000     8.7500     2.4850     71.8450    132.4120   12.8560    0.1460     2.0450     2.3920    
3357.6000  8.5000     8.7380     2.4850     71.7140    132.2600   12.6840    0.1440     2.0420     2.3830    
3357.7000  8.5000     8.7150     2.4870     71.5270    131.8840   13.0330    0.1420     2.0440     2.3900    
3357.8000  8.5000     8.7030     2.4890     71.3480    131.0850   12.9960    0.1450     2.0520     2.4320    
3357.9000  8.5000     8.7030     2.4910     71.1040    130.1390   11.5740    0.1450     2.0680     2.4910    
3358.0000  8.5000     8.7340     2.4930     70.8390    129.2430   11.9730    0.1410     2.0730     2.4920    
3358.1000  8.5000     8.7500     2.4930     70.6070    128.8480   11.4600    0.1400     2.0990     2.5910    
3358.2000  8.5000     8.7500     2.4930     70.4590    128.3340   10.8220    0.1390     2.1240     2.6800    
3358.3000  8.5000     8.7600     2.4920     70.3720    127.8910   11.2610    0.1360     2.1230     2.6830    
3358.4000  8.5000     8.7810     2.4910     70.3940    128.2960   11.0500    0.1350     2.1130     2.6350    
3358.5000  8.5000     8.7810     2.4920     70.3900    128.6390   10.7240    0.1340     2.1060     2.5640    
3358.6000  8.5000     8.7660     2.4940     70.3770    128.9650   10.2650    0.1340     2.1030     2.5270    
3358.7000  8.5000     8.7660     2.4960     70.4510    129.5060   9.8040     0.1310     2.1040     2.4800    
3358.8000  8.5000     8.7190     2.4980     70.4670    129.7980   10.0530    0.1360     2.1080     2.4890    
3358.9000  8.5000     8.7030     2.5000     70.4380    129.8950   9.9660     0.1350     2.1100     2.4950    
3359.0000  8.5000     8.7500     2.5030     70.4380    129.9500   9.8160     0.1330     2.1100     2.5100    
3359.1000  8.5000     8.7500     2.5060     70.4170    130.0700   9.5590     0.1330     2.1210     2.5450    
3359.2000  8.5000     8.7500     2.5080     70.3770    130.2520   10.2050    0.1340     2.1240     2.5400    
3359.3000  8.5000     8.7660     2.5080     70.3640    130.0510   10.7240    0.1330     2.1230     2.5210    
3359.4000  8.5000     8.7810     2.5050     70.3590    129.7720   11.3010    0.1340     2.1260     2.5170    
3359.5000  8.5000     8.7810     2.5020     70.3610    129.4060   10.9780    0.1330     2.1250     2.4890    
3359.6000  8.5000     8.7500     2.5010     70.3860    129.3680   9.5820     0.1340     2.1210     2.4840    
3359.7000  8.5000     8.7660     2.5030     70.4070    129.3560   9.2980     0.1330     2.1240     2.4810    
3359.8000  8.5000     8.7270     2.5050     70.4200    129.3530   9.7540     0.1350     2.1280     2.4830    
3359.9000  8.5000     8.7030     2.5070     70.4690    129.5390   10.0540    0.1340     2.1300     2.4840    
3360.0000  8.5000     8.7030     2.5090     70.5360    129.5950   10.2060    0.1330     2.1290     2.4760    
3360.1000  8.5000     8.7030     2.5110     70.6260    129.3950   10.6400    0.1330     2.1340     2.4840    
3360.2000  8.5000     8.7270     2.5120     70.8160    129.2200   10.4160    0.1340     2.1420     2.4960    
3360.3000  8.5000     8.7500     2.5130     70.9840    129.0550   10.3340    0.1330     2.1500     2.5030    
3360.4000  8.5000     8.7500     2.5120     71.0680    128.9020   10.6850    0.1340     2.1490     2.5020    
3360.5000  8.5000     8.7810     2.5110     71.0650    128.9260   10.7570    0.1320     2.1500     2.4930    
3360.6000  8.5000     8.7660     2.5110     71.0400    128.9280   11.0350    0.1340     2.1510     2.4940    
3360.7000  8.5000     8.7500     2.5100     71.0150    128.7580   12.2100    0.1340     2.1560     2.4970    
3360.8000  8.5000     8.7500     2.5100     71.0450    128.6400   12.1820    0.1370     2.1700     2.5060    
3360.9000  8.5000     8.7270     2.5090     71.1030    128.5900   12.3240    0.1420     2.1690     2.5120    
3361.0000  8.5000     8.7030     2.5080     71.2000    128.7150   12.3790    0.1430     2.1700     2.5180    
3361.1000  8.5000     8.7030     2.5070     71.3290    129.1240   12.4780    0.1420     2.1790     2.5230    
3361.2000  8.5000     8.7270     2.5060     71.4320    129.7080   12.9580    0.1390     2.1740     2.5140    
3361.3000  8.5000     8.7500     2.5060     71.3510    130.5410   12.8120    0.1400     2.1730     2.4970    
3361.4000  8.5000     8.7500     2.5070     71.3390    131.1820   12.7980    0.1420     2.1660     2.4990    
3361.5000  8.5000     8.7810     2.5090     71.3410    131.6860   13.2510    0.1430     2.1620     2.4960    
3361.6000  8.5000     8.7810     2.5110     71.2090    131.9680   13.9370    0.1440     2.1620     2.4910    
3361.7000  8.5000     8.7660     2.5120     71.0190    132.2060   14.7380    0.1440     2.1590     2.4870    
3361.8000  8.5000     8.7500     2.5120     70.7940    132.4260   14.3700    0.1430     2.1540     2.4930    
3361.9000  8.5000     8.7500     2.5100     70.5830    132.7730   13.3960    0.1410     2.1560     2.5120    
3362.0000  8.5000     8.7500     2.5080     70.4570    133.0960   13.0640    0.1410     2.1570     2.5260    
3362.1000  8.5000     8.7500     2.5050     70.4010    133.4010   12.8040    0.1410     2.1510     2.5440    
3362.2000  8.5000     8.7810     2.5020     70.3780    133.6770   12.9890    0.1400     2.1480     2.5330    
3362.3000  8.5000     8.7810     2.4990     70.5460    133.9040   13.8960    0.1390     2.1420     2.5240    
