~Version
 VERS              .         2.0                           : CWLS LOG ASCII STANDARD - VERSION 2.0
 WRAP              .         NO                            : ONE LINE PER DEPTH STEP
 DLM               .         SPACE                         : DELIMITING CHARACTER(SPACE TAB OR COMMA)
~Well Information
#_______________________________________________________________________________
#
#PARAMETER_NAME    .UNIT     VALUE                         : DESCRIPTION
#_______________________________________________________________________________
STRT               .m        2574.0000                     : First reference value
STOP               .m        4550.0000                     : Last reference value
STEP               .m        0.1000                        : Step increment
NULL               .         -9999                         : Missing value
COMP               .                                       : Company
WELL               .         Well-D                        : Well name
~Parameter Information Block
#_______________________________________________________________________________
#
#PARAMETER_NAME    .UNIT     VALUE                         : DESCRIPTION
#_______________________________________________________________________________
SET                .         Data_Output                   : 
TLFamily_BS        .         Bit Size                      : 
TLFamily_CALI      .         Caliper                       : 
TLFamily_DENS      .         Bulk Density                  : 
TLFamily_DT        .         Compressional Slowness        : 
TLFamily_DTS       .         Shear Slowness                : 
TLFamily_GR        .         Gamma Ray                     : 
TLFamily_MD        .         Measured Depth                : 
TLFamily_NPHI      .         Thermal Neutron Porosity      : 
TLFamily_RS        .         Resistivity - Phase Shift     : 
TLFamily_RT        .         Resistivity - True Formation  : 
~Curve Information
#_______________________________________________________________________________
#
#LOGNAME           .UNIT     LOG_ID                        : DESCRIPTION
#_______________________________________________________________________________
MD                 .m                                      :  
BS                 .inches                                 :  
CALI               .inches                                 :  
DENS               .g/cm3                                  :  
DT                 .us/ft                                  :  
DTS                .us/ft                                  :  
GR                 .API                                    :  
NPHI               .v/v                                    :  
RS                 .ohm.m                                  :  
RT                 .ohm.m                                  :  
~Ascii
# ...
3223.7000  8.5000     8.6720     2.6310     61.0810    115.1460   9.1100     0.0610     6.2290     6.8100    
3223.8000  8.5000     8.6720     2.6320     61.2640    114.5790   8.9390     0.0600     6.2590     6.8330    
3223.9000  8.5000     8.6720     2.6310     61.4430    113.7410   9.4990     0.0600     6.2690     6.8380    
3224.0000  8.5000     8.6720     2.6300     61.5890    112.2280   9.0340     0.0600     6.3030     6.8780    
3224.1000  8.5000     8.6720     2.6290     61.6340    112.2900   8.9140     0.0600     6.3230     6.9040    
3224.2000  8.5000     8.6720     2.6280     61.6220    112.5470   8.6370     0.0600     6.3570     6.9100    
3224.3000  8.5000     8.6720     2.6270     61.5300    112.0690   8.5770     0.0610     6.3470     6.8860    
3224.4000  8.5000     8.6720     2.6280     61.4920    111.9930   8.4330     0.0620     6.3640     6.8860    
3224.5000  8.5000     8.6720     2.6280     61.4700    111.9740   7.4390     0.0620     6.3780     6.8940    
3224.6000  8.5000     8.6720     2.6270     61.4360    111.6020   8.5280     0.0620     6.3780     6.8990    
3224.7000  8.5000     8.6720     2.6250     61.4580    111.1680   8.8220     0.0610     6.3990     6.8830    
3224.8000  8.5000     8.6720     2.6230     61.4620    110.8220   8.0490     0.0610     6.3950     6.8610    
3224.9000  8.5000     8.6720     2.6210     61.2370    111.0930   8.4400     0.0610     6.3780     6.8750    
3225.0000  8.5000     8.6480     2.6190     61.0590    111.3680   8.2980     0.0610     6.4060     6.8990    
3225.1000  8.5000     8.6250     2.6170     60.8910    111.5150   7.7980     0.0640     6.4340     6.9340    
3225.2000  8.5000     8.6250     2.6160     60.5880    110.6140   7.7460     0.0640     6.4690     6.9740    
3225.3000  8.5000     8.6250     2.6160     60.4200    111.3280   7.3440     0.0640     6.4660     6.9890    
3225.4000  8.5000     8.6250     2.6170     60.3720    113.1110   7.5370     0.0640     6.4620     6.9790    
3225.5000  8.5000     8.6250     2.6170     60.6810    113.9330   8.1500     0.0630     6.4760     6.9790    
3225.6000  8.5000     8.6720     2.6180     61.0190    114.5940   7.9360     0.0610     6.4620     6.9800    
3225.7000  8.5000     8.6720     2.6190     61.3830    115.1250   7.6010     0.0620     6.4830     6.9960    
3225.8000  8.5000     8.6720     2.6200     61.8460    116.2770   8.0290     0.0640     6.5050     7.0040    
3225.9000  8.5000     8.6720     2.6220     62.2890    117.1920   7.9010     0.0650     6.5120     7.0200    
3226.0000  8.5000     8.6720     2.6240     62.7100    117.8630   8.1300     0.0650     6.4900     7.0340    
3226.1000  8.5000     8.6720     2.6260     62.9810    118.6690   9.2780     0.0640     6.5050     7.0480    
3226.2000  8.5000     8.6720     2.6280     63.0370    119.3470   11.0610    0.0640     6.5370     7.0340    
3226.3000  8.5000     8.6720     2.6280     62.8290    119.8560   11.1000    0.0640     6.5480     7.0370    
3226.4000  8.5000     8.6720     2.6270     62.3340    119.4810   10.8010    0.0640     6.5600     7.0640    
3226.5000  8.5000     8.6720     2.6270     61.9980    118.8660   10.9990    0.0660     6.5720     7.0900    
3226.6000  8.5000     8.6720     2.6260     61.9430    118.0060   11.1960    0.0670     6.5840     7.1170    
3226.7000  8.5000     8.6720     2.6280     61.9620    116.3150   10.9140    0.0680     6.6020     7.1640    
3226.8000  8.5000     8.6720     2.6310     61.9490    114.8790   10.6250    0.0680     6.6350     7.2190    
3226.9000  8.5000     8.7030     2.6330     61.8520    114.1540   11.0740    0.0660     6.6430     7.2130    
3227.0000  8.5000     8.7030     2.6330     61.8100    114.3040   11.5400    0.0660     6.6280     7.1850    
3227.1000  8.5000     8.7030     2.6310     61.7730    114.7300   11.7050    0.0670     6.6320     7.2160    
3227.2000  8.5000     8.6720     2.6280     61.7180    115.3610   11.7370    0.0660     6.7590     7.3790    
3227.3000  8.5000     8.6720     2.6250     61.6660    115.0340   11.8920    0.0650     6.7490     7.3630    
3227.4000  8.5000     8.6720     2.6220     61.5930    114.2830   12.8790    0.0630     6.7380     7.3080    
3227.5000  8.5000     8.6250     2.6210     61.4530    113.0950   11.3420    0.0640     6.7400     7.3290    
3227.6000  8.5000     8.6250     2.6230     61.3480    112.5000   10.5920    0.0620     6.7670     7.3380    
3227.7000  8.5000     8.6480     2.6260     61.2420    112.0530   10.2290    0.0580     6.7930     7.3840    
3227.8000  8.5000     8.6720     2.6280     61.0810    111.3190   10.3460    0.0580     6.8160     7.4360    
3227.9000  8.5000     8.6720     2.6280     60.9910    111.8430   10.5300    0.0580     6.8780     7.5100    
3228.0000  8.5000     8.6720     2.6260     60.9400    112.6790   11.9310    0.0580     6.9220     7.5870    
3228.1000  8.5000     8.6720     2.6220     60.9230    111.9760   12.0200    0.0570     6.9410     7.5950    
3228.2000  8.5000     8.6720     2.6170     60.9510    112.4220   11.5080    0.0570     6.9490     7.5730    
3228.3000  8.5000     8.6720     2.6170     60.9920    113.3310   10.5340    0.0570     6.9250     7.5590    
3228.4000  8.5000     8.6720     2.6190     60.9260    112.5210   10.9440    0.0560     6.9810     7.6030    
3228.5000  8.5000     8.6720     2.6230     60.8610    112.3410   10.6900    0.0560     7.0250     7.6510    
3228.6000  8.5000     8.6720     2.6270     60.7940    112.5080   10.3310    0.0540     7.0530     7.7000    
3228.7000  8.5000     8.6720     2.6290     60.6800    111.0140   10.0360    0.0530     7.0370     7.7110    
3228.8000  8.5000     8.6720     2.6320     60.5350    110.0080   10.2900    0.0510     7.0820     7.7100    
3228.9000  8.5000     8.6720     2.6340     60.3640    109.4280   8.7350     0.0500     7.1110     7.7290    
3229.0000  8.5000     8.6720     2.6360     60.1400    108.9790   8.5250     0.0490     7.1230     7.7730    
3229.1000  8.5000     8.6720     2.6360     59.9790    108.9160   8.5920     0.0490     7.1690     7.8180    
3229.2000  8.5000     8.6720     2.6390     59.8850    109.2610   9.0660     0.0490     7.2190     7.8740    
3229.3000  8.5000     8.6720     2.6430     59.9140    110.6140   8.5060     0.0500     7.2610     7.9370    
3229.4000  8.5000     8.6720     2.6460     60.0090    111.3150   8.1650     0.0510     7.2700     7.9740    
3229.5000  8.5000     8.6720     2.6470     60.1830    111.1320   7.8090     0.0520     7.3300     7.9960    
3229.6000  8.5000     8.6720     2.6450     60.4270    110.4490   7.8370     0.0520     7.3560     8.0520    
3229.7000  8.5000     8.7030     2.6410     60.6020    109.7810   8.1940     0.0490     7.4340     8.1090    
3229.8000  8.5000     8.7030     2.6380     60.6610    109.2090   8.3050     0.0470     7.4520     8.1630    
3229.9000  8.5000     8.6720     2.6360     60.6220    108.0700   7.4050     0.0470     7.5060     8.1920    
3230.0000  8.5000     8.6720     2.6360     60.5250    107.2990   7.5720     0.0460     7.5780     8.2580    
3230.1000  8.5000     8.6720     2.6370     60.3480    107.4010   8.0200     0.0460     7.6190     8.3410    
3230.2000  8.5000     8.6720     2.6390     60.2200    107.8780   7.2240     0.0470     7.6330     8.4040    
3230.3000  8.5000     8.6720     2.6410     60.1230    108.1970   7.7010     0.0480     7.6980     8.4240    
3230.4000  8.5000     8.6720     2.6400     60.0720    107.9370   8.2820     0.0490     7.7350     8.4820    
3230.5000  8.5000     8.6720     2.6390     60.0370    107.7700   9.1870     0.0500     7.7730     8.4960    
3230.6000  8.5000     8.6880     2.6370     60.0170    107.5540   9.4020     0.0480     7.7630     8.5320    
3230.7000  8.5000     8.7030     2.6370     60.0240    107.1060   9.2330     0.0480     7.8350     8.5840    
3230.8000  8.5000     8.6870     2.6370     60.0380    107.4840   8.7270     0.0490     7.8590     8.6400    
3230.9000  8.5000     8.6720     2.6380     60.0410    108.1730   8.8500     0.0490     7.9470     8.7070    
