~Version
 VERS              .         2.0                           : CWLS LOG ASCII STANDARD - VERSION 2.0
 WRAP              .         NO                            : ONE LINE PER DEPTH STEP
 DLM               .         SPACE                         : DELIMITING CHARACTER(SPACE TAB OR COMMA)
~Well Information
#_______________________________________________________________________________
#
#PARAMETER_NAME    .UNIT     VALUE                         : DESCRIPTION
#_______________________________________________________________________________
STRT               .m        2605.0000                     : First reference value
STOP               .m        3625.0000                     : Last reference value
STEP               .m        0.1000                        : Step increment
NULL               .         -9999                         : Missing value
COMP               .                                       : Company
WELL               .         Well-A                        : Well name
~Parameter Information Block
#_______________________________________________________________________________
#
#PARAMETER_NAME    .UNIT     VALUE                         : DESCRIPTION
#_______________________________________________________________________________
SET                .         Data_Output                   : 
TLFamily_BS        .         Bit Size                      : 
TLFamily_CALI      .         Caliper                       : 
TLFamily_DENS      .         Bulk Density                  : 
TLFamily_DT        .         Compressional Slowness        : 
TLFamily_GR        .         Gamma Ray                     : 
TLFamily_MD        .         Measured Depth                : 
TLFamily_NPHI      .         Thermal Neutron Porosity      : 
TLFamily_RS        .         Resistivity - Phase Shift     : 
TLFamily_RT        .         Resistivity - True Formation  : 
~Curve Information
#_______________________________________________________________________________
#
#LOGNAME           .UNIT     LOG_ID                        : DESCRIPTION
#_______________________________________________________________________________
MD                 .m                                      :  
BS                 .inches                                 :  
CALI               .inches                                 :  
DENS               .g/cm3                                  :  
DT                 .us/ft                                  :  
GR                 .API                                    :  
NPHI               .v/v                                    :  
RS                 .ohm.m                                  :  
RT                 .ohm.m                                  :  
~Ascii
# ...
3074.8000  8.5000     8.5781     2.5769     61.8591    7.8916     0.0669     5.9287     6.4194    
3074.9000  8.5000     8.5781     2.5814     62.0475    7.7281     0.0706     6.0753     6.7266    
3075.0000  8.5000     8.5781     2.5826     62.2031    7.3128     0.0743     6.1143     6.7570    
3075.1000  8.5000     8.5781     2.5780     62.2415    8.0541     0.0769     6.1141     6.6922    
3075.2000  8.5000     8.5781     2.5694     62.1486    8.2832     0.0778     5.9820     6.4550    
3075.3000  8.5000     8.5781     2.5613     62.0040    9.0252     0.0772     5.8176     6.1677    
3075.4000  8.5000     8.5781     2.5572     61.8507    8.8321     0.0760     5.7518     5.9926    
3075.5000  8.5000     8.5781     2.5563     61.7582    8.5975     0.0752     5.7339     5.8879    
3075.6000  8.5000     8.5781     2.5562     61.7186    7.7058     0.0751     5.6988     5.8721    
3075.7000  8.5000     8.5781     2.5562     61.8119    7.0622     0.0755     5.6754     5.8299    
3075.8000  8.5000     8.5781     2.5573     62.0061    6.8777     0.0755     5.6293     5.7555    
3075.9000  8.5000     8.5781     2.5600     62.2681    7.2317     0.0751     5.5756     5.6515    
3076.0000  8.5000     8.5781     2.5623     62.6031    7.4907     0.0746     5.6067     5.7088    
3076.1000  8.5000     8.5781     2.5629     63.0297    8.0283     0.0740     5.6697     5.8689    
3076.2000  8.5000     8.5781     2.5612     63.5349    6.6717     0.0733     5.6696     5.8588    
3076.3000  8.5000     8.5781     2.5574     64.2453    7.0245     0.0725     5.6350     5.8377    
3076.4000  8.5000     8.5781     2.5541     65.0964    7.1561     0.0720     5.5782     5.7882    
3076.5000  8.5000     8.5781     2.5543     66.0681    6.2800     0.0723     5.5141     5.7169    
3076.6000  8.5000     8.5781     2.5584     66.8531    7.0111     0.0735     5.4783     5.6364    
3076.7000  8.5000     8.5781     2.5642     67.3601    8.6340     0.0754     5.4028     5.4889    
3076.8000  8.5000     8.5781     2.5682     67.5728    9.3980     0.0776     5.3685     5.3822    
3076.9000  8.5000     8.5781     2.5688     67.3127    10.4931    0.0796     5.3975     5.4495    
3077.0000  8.5000     8.5781     2.5670     66.8798    11.7209    0.0821     5.4028     5.4414    
3077.1000  8.5000     8.5781     2.5646     66.2494    13.1417    0.0864     5.3395     5.3466    
3077.2000  8.5000     8.5781     2.5621     65.3248    15.0641    0.0941     5.3343     5.3864    
3077.3000  8.5000     8.5781     2.5581     64.1666    17.5661    0.1044     5.3547     5.4904    
3077.4000  8.5000     8.6250     2.5515     62.6878    22.2952    0.1113     5.0924     5.1328    
3077.5000  8.5000     8.5781     2.5435     61.6824    26.5944    0.1190     4.4722     3.9883    
3077.6000  8.5000     8.5781     2.5372     60.8685    27.5167    0.1155     4.1250     3.2614    
3077.7000  8.5000     8.5781     2.5355     60.2822    25.1486    0.1045     4.3115     3.6093    
3077.8000  8.5000     8.5781     2.5382     60.2272    22.2493    0.0907     4.7290     4.4356    
3077.9000  8.5000     8.5781     2.5432     60.3275    17.2432    0.0784     5.0471     4.9440    
3078.0000  8.5000     8.5781     2.5491     60.5173    13.4021    0.0712     5.2829     5.4304    
3078.1000  8.5000     8.5781     2.5555     60.8213    10.1225    0.0687     5.4764     5.7427    
3078.2000  8.5000     8.5781     2.5606     61.1518    8.5334     0.0690     5.5167     5.9282    
3078.3000  8.5000     8.5781     2.5625     61.4586    7.8484     0.0701     5.4241     5.7770    
3078.4000  8.5000     8.5781     2.5612     61.7742    7.1790     0.0712     5.3005     5.5333    
3078.5000  8.5000     8.5781     2.5586     62.1021    7.1476     0.0717     5.2520     5.4536    
3078.6000  8.5000     8.5781     2.5565     62.4655    6.9110     0.0719     5.2928     5.5872    
3078.7000  8.5000     8.5781     2.5555     62.8107    6.8306     0.0723     5.3031     5.6076    
3078.8000  8.5000     8.5781     2.5557     63.1434    7.5534     0.0729     5.3109     5.5829    
3078.9000  8.5000     8.5781     2.5566     63.4548    7.3615     0.0739     5.3032     5.5892    
3079.0000  8.5000     8.5781     2.5581     63.7173    6.6296     0.0751     5.3762     5.6399    
3079.1000  8.5000     8.5781     2.5593     63.9261    7.1377     0.0764     5.3394     5.6303    
3079.2000  8.5000     8.5781     2.5593     63.9235    8.3473     0.0776     5.2672     5.5021    
3079.3000  8.5000     8.5781     2.5570     63.8114    9.3746     0.0785     5.2620     5.4533    
3079.4000  8.5000     8.5781     2.5531     63.6129    10.1780    0.0791     5.2290     5.3850    
3079.5000  8.5000     8.5781     2.5494     63.2964    10.9057    0.0795     5.1519     5.2223    
3079.6000  8.5000     8.5781     2.5479     63.0744    10.6003    0.0799     5.1421     5.1930    
3079.7000  8.5000     8.5781     2.5488     62.9370    10.8207    0.0803     5.1520     5.2133    
3079.8000  8.5000     8.5781     2.5499     62.8589    9.9596     0.0805     5.2015     5.2577    
3079.9000  8.5000     8.5781     2.5487     62.8843    9.8130     0.0803     5.2214     5.2594    
3080.0000  8.5000     8.5781     2.5460     63.0201    8.5007     0.0801     5.1642     5.1784    
3080.1000  8.5000     8.5781     2.5434     63.1738    8.3152     0.0803     5.1177     5.0795    
3080.2000  8.5000     8.5781     2.5422     63.3007    7.9274     0.0809     5.1322     5.0426    
3080.3000  8.5000     8.5781     2.5422     63.3919    7.4394     0.0811     5.0984     5.0096    
3080.4000  8.5000     8.5781     2.5421     63.4596    7.8903     0.0808     5.1350     5.0572    
3080.5000  8.5000     8.5781     2.5412     63.5224    8.4856     0.0804     5.2215     5.1603    
3080.6000  8.5000     8.5781     2.5385     63.5809    8.1842     0.0803     5.2367     5.1893    
3080.7000  8.5000     8.5781     2.5353     63.6202    8.3587     0.0803     5.2267     5.2077    
3080.8000  8.5000     8.5781     2.5340     63.6844    9.2029     0.0797     5.2673     5.2348    
3080.9000  8.5000     8.5781     2.5358     63.8029    9.5234     0.0784     5.3083     5.3408    
3081.0000  8.5000     8.5781     2.5397     63.8124    8.7678     0.0771     5.3318     5.4123    
3081.1000  8.5000     8.5781     2.5438     63.7436    9.3608     0.0757     5.3658     5.4753    
3081.2000  8.5000     8.5781     2.5471     63.5449    10.2363    0.0744     5.3950     5.5211    
3081.3000  8.5000     8.5781     2.5521     63.2982    10.1768    0.0730     5.4732     5.7151    
3081.4000  8.5000     8.5781     2.5597     63.0924    10.6215    0.0714     5.5585     5.8399    
3081.5000  8.5000     8.5781     2.5695     63.0597    11.8649    0.0699     5.5004     5.7729    
3081.6000  8.5000     8.5781     2.5781     63.1065    11.6889    0.0686     5.4894     5.7374    
3081.7000  8.5000     8.5781     2.5827     63.1926    11.2117    0.0678     5.5058     5.7535    
3081.8000  8.5000     8.5781     2.5822     63.3113    10.6621    0.0671     5.4675     5.7374    
3081.9000  8.5000     8.5781     2.5784     63.4006    10.2687    0.0664     5.4403     5.6617    
3082.0000  8.5000     8.5781     2.5736     63.4738    9.7384     0.0664     5.4027     5.5532    
3082.1000  8.5000     8.5781     2.5698     63.5388    8.3675     0.0674     5.3187     5.4691    
3082.2000  8.5000     8.5781     2.5675     63.6089    8.2744     0.0692     5.2927     5.4160    
3082.3000  8.5000     8.5781     2.5668     63.6780    9.3948     0.0712     5.2415     5.3196    
3082.4000  8.5000     8.5781     2.5671     63.7101    9.9223     0.0726     5.1420     5.1857    
3082.5000  8.5000     8.5781     2.5677     63.6856    9.3326     0.0731     5.1128     5.1294    
3082.6000  8.5000     8.5781     2.5680     63.6166    9.4068     0.0733     5.0599     5.0653    
3082.7000  8.5000     8.5781     2.5672     63.4996    9.4216     0.0739     4.9846     4.9495    
3082.8000  8.5000     8.5781     2.5652     63.3944    8.8468     0.0750     4.9523     4.8719    
