~Version
 VERS              .         2.0                           : CWLS LOG ASCII STANDARD - VERSION 2.0
 WRAP              .         NO                            : ONE LINE PER DEPTH STEP
 DLM               .         SPACE                         : DELIMITING CHARACTER(SPACE TAB OR COMMA)
~Well Information
#_______________________________________________________________________________
#
#PARAMETER_NAME    .UNIT     VALUE                         : DESCRIPTION
#_______________________________________________________________________________
STRT               .m        2605.0000                     : First reference value
STOP               .m        3625.0000                     : Last reference value
STEP               .m        0.1000                        : Step increment
NULL               .         -9999                         : Missing value
COMP               .                                       : Company
WELL               .         Well-A                        : Well name
~Parameter Information Block
#_______________________________________________________________________________
#
#PARAMETER_NAME    .UNIT     VALUE                         : DESCRIPTION
#_______________________________________________________________________________
SET                .         Data_Output                   : 
TLFamily_BS        .         Bit Size                      : 
TLFamily_CALI      .         Caliper                       : 
TLFamily_DENS      .         Bulk Density                  : 
TLFamily_DT        .         Compressional Slowness        : 
TLFamily_GR        .         Gamma Ray                     : 
TLFamily_MD        .         Measured Depth                : 
TLFamily_NPHI      .         Thermal Neutron Porosity      : 
TLFamily_RS        .         Resistivity - Phase Shift     : 
TLFamily_RT        .         Resistivity - True Formation  : 
~Curve Information
#_______________________________________________________________________________
#
#LOGNAME           .UNIT     LOG_ID                        : DESCRIPTION
#_______________________________________________________________________________
MD                 .m                                      :  
BS                 .inches                                 :  
CALI               .inches                                 :  
DENS               .g/cm3                                  :  
DT                 .us/ft                                  :  
GR                 .API                                    :  
NPHI               .v/v                                    :  
RS                 .ohm.m                                  :  
RT                 .ohm.m                                  :  
~Ascii
# ...
3406.9000  8.5000     8.6719     2.5008     72.0379    55.5044    0.1234     1.9152     2.3618    
3407.0000  8.5000     8.6484     2.5126     71.7812    56.9706    0.1215     2.0524     2.6985    
3407.1000  8.5000     8.6250     2.5418     71.4606    56.9582    0.1182     2.0845     2.6266    
3407.2000  8.5000     8.6250     2.5829     71.0672    59.7506    0.1176     1.9954     2.3228    
3407.3000  8.5000     8.6250     2.6176     70.7930    61.9211    0.1204     1.9164     2.1220    
3407.4000  8.5000     8.6719     2.6310     70.6966    61.3365    0.1226     1.8422     1.9726    
3407.5000  8.5000     8.6719     2.6210     70.8471    60.0489    0.1286     1.8048     1.9112    
3407.6000  8.5000     8.6719     2.5990     71.2453    59.3749    0.1333     1.7365     1.7745    
3407.7000  8.5000     8.6250     2.5792     71.6033    58.9381    0.1391     1.6378     1.5778    
3407.8000  8.5000     8.6719     2.5666     71.8305    56.5234    0.1364     1.5897     1.5070    
3407.9000  8.5000     8.6250     2.5566     72.0312    54.5162    0.1370     1.6171     1.5871    
3408.0000  8.5000     8.6250     2.5492     72.2131    53.1304    0.1333     1.6641     1.6906    
3408.1000  8.5000     8.6250     2.5461     72.3647    54.0394    0.1303     1.7090     1.7369    
3408.2000  8.5000     8.6250     2.5477     72.4575    54.1575    0.1293     1.7540     1.8286    
3408.3000  8.5000     8.6250     2.5519     72.5011    54.5991    0.1298     1.7843     1.9245    
3408.4000  8.5000     8.6250     2.5580     72.4520    56.6545    0.1296     1.7845     1.9407    
3408.5000  8.5000     8.6719     2.5639     72.3811    57.8089    0.1252     1.7536     1.8923    
3408.6000  8.5000     8.6719     2.5664     72.3082    59.0353    0.1247     1.6595     1.7014    
3408.7000  8.5000     8.6719     2.5630     72.2563    62.0649    0.1273     1.5882     1.5014    
3408.8000  8.5000     8.6719     2.5541     72.3674    63.9558    0.1334     1.5694     1.4554    
3408.9000  8.5000     8.6719     2.5427     72.5559    64.4664    0.1389     1.5879     1.5016    
3409.0000  8.5000     8.6250     2.5345     72.7650    59.8407    0.1399     1.6381     1.6470    
3409.1000  8.5000     8.6484     2.5322     72.8943    56.3889    0.1381     1.7074     1.8189    
3409.2000  8.5000     8.6719     2.5377     72.9843    53.4403    0.1267     1.7530     1.9290    
3409.3000  8.5000     8.6719     2.5489     73.1114    50.3043    0.1178     1.7289     1.8859    
3409.4000  8.5000     8.6719     2.5585     73.1484    49.1599    0.1113     1.6834     1.7676    
3409.5000  8.5000     8.6719     2.5604     73.1155    48.6460    0.1122     1.6071     1.6082    
3409.6000  8.5000     8.6484     2.5546     72.9745    50.7302    0.1124     1.5011     1.4101    
3409.7000  8.5000     8.6719     2.5451     72.7828    54.8295    0.1199     1.4399     1.3044    
3409.8000  8.5000     8.6719     2.5348     72.5534    58.5691    0.1292     1.4291     1.2728    
3409.9000  8.5000     8.6719     2.5231     72.5077    59.3008    0.1392     1.4464     1.3113    
3410.0000  8.5000     8.6250     2.5104     72.4851    57.9610    0.1405     1.5206     1.4877    
3410.1000  8.5000     8.6719     2.5031     72.4859    56.4929    0.1323     1.6439     1.8254    
3410.2000  8.5000     8.6484     2.5105     72.3703    54.2207    0.1266     1.7617     2.1610    
3410.3000  8.5000     8.6719     2.5375     72.3299    51.8975    0.1162     1.8098     2.2988    
3410.4000  8.5000     8.6484     2.5794     72.3853    53.3523    0.1141     1.7920     2.2585    
3410.5000  8.5000     8.6250     2.6196     72.7739    54.3398    0.1218     1.6895     1.9080    
3410.6000  8.5000     8.6250     2.6393     73.3434    56.3883    0.1311     1.5483     1.5863    
3410.7000  8.5000     8.6484     2.6311     74.1419    57.0300    0.1378     1.4892     1.5410    
3410.8000  8.5000     8.6250     2.6022     74.7886    55.6451    0.1476     1.4258     1.5171    
3410.9000  8.5000     8.6250     2.5682     75.2297    55.2854    0.1519     1.3103     1.3406    
3411.0000  8.5000     8.6250     2.5435     75.3348    55.4994    0.1559     1.2106     1.1517    
3411.1000  8.5000     8.6484     2.5300     75.0479    55.1421    0.1604     1.1459     1.0225    
3411.2000  8.5000     8.6719     2.5195     74.5256    54.7194    0.1601     1.1072     0.9520    
3411.3000  8.5000     8.6719     2.5040     73.6519    53.3823    0.1622     1.1153     0.9577    
3411.4000  8.5000     8.6484     2.4843     72.6897    51.4265    0.1546     1.1721     1.0502    
3411.5000  8.5000     8.6250     2.4693     71.7425    44.9230    0.1502     1.3191     1.3839    
3411.6000  8.5000     8.6484     2.4667     70.9094    37.6765    0.1368     1.5692     1.9791    
3411.7000  8.5000     8.6719     2.4819     70.3122    32.2992    0.1239     1.6870     2.2640    
3411.8000  8.5000     8.6250     2.5160     69.9014    31.8083    0.1139     1.7144     2.2907    
3411.9000  8.5000     8.6719     2.5601     69.8694    36.1772    0.1023     1.6975     2.2002    
3412.0000  8.5000     8.6719     2.5984     70.0601    43.8705    0.1002     1.6660     2.0801    
3412.1000  8.5000     8.6719     2.6167     70.4060    46.9164    0.1028     1.6242     1.9819    
3412.2000  8.5000     8.6484     2.6118     71.0269    46.0417    0.1095     1.5909     1.9203    
3412.3000  8.5000     8.6484     2.5961     71.8339    42.8205    0.1082     1.5799     1.9951    
3412.4000  8.5000     8.6719     2.5856     72.7506    41.3748    0.1078     1.5312     1.9274    
3412.5000  8.5000     8.6719     2.5855     73.7008    43.7495    0.1086     1.4300     1.6945    
3412.6000  8.5000     8.6719     2.5855     74.4570    46.3121    0.1142     1.3013     1.3309    
3412.7000  8.5000     8.6250     2.5735     75.0359    47.5559    0.1282     1.2161     1.1171    
3412.8000  8.5000     8.6250     2.5480     75.0220    51.6602    0.1407     1.2013     1.1094    
3412.9000  8.5000     8.6250     2.5194     74.6550    55.1647    0.1506     1.2199     1.1762    
3413.0000  8.5000     8.6250     2.5030     73.9929    57.9085    0.1563     1.2425     1.2200    
3413.1000  8.5000     8.6719     2.5009     73.4898    58.7238    0.1552     1.2610     1.2484    
3413.2000  8.5000     8.6484     2.5060     73.0164    58.7178    0.1574     1.2733     1.2471    
3413.3000  8.5000     8.6719     2.5113     72.5735    59.0022    0.1516     1.2966     1.2809    
3413.4000  8.5000     8.6719     2.5152     72.3730    59.1090    0.1475     1.3349     1.3378    
3413.5000  8.5000     8.6719     2.5198     72.1052    58.9092    0.1432     1.3965     1.4154    
3413.6000  8.5000     8.6719     2.5261     71.7451    59.9896    0.1382     1.4815     1.5049    
3413.7000  8.5000     8.6719     2.5351     71.3127    58.9505    0.1322     1.5568     1.5984    
3413.8000  8.5000     8.6250     2.5480     70.9293    54.0151    0.1277     1.6601     1.7983    
3413.9000  8.5000     8.6250     2.5620     70.6293    47.5590    0.1201     1.7682     2.0115    
3414.0000  8.5000     8.6250     2.5709     70.3837    42.4791    0.1102     1.8317     2.1089    
3414.1000  8.5000     8.6719     2.5713     70.2191    38.8981    0.1055     1.9127     2.1784    
3414.2000  8.5000     8.6719     2.5675     70.1900    38.9788    0.1028     2.0232     2.3087    
3414.3000  8.5000     8.6719     2.5679     70.4214    42.1603    0.1020     2.0714     2.3574    
3414.4000  8.5000     8.6719     2.5744     70.8347    44.8533    0.1030     2.0930     2.4475    
3414.5000  8.5000     8.6719     2.5834     71.5412    50.1840    0.1057     2.0779     2.4513    
3414.6000  8.5000     8.6250     2.5919     72.4768    51.2381    0.1124     2.0248     2.3085    
3414.7000  8.5000     8.6250     2.5988     73.4337    51.6474    0.1158     1.9326     2.0449    
3414.8000  8.5000     8.6250     2.6023     74.2614    53.8219    0.1172     1.7820     1.7302    
3414.9000  8.5000     8.6250     2.5980     74.8778    49.9958    0.1129     1.7183     1.6547    
