~Version
 VERS              .         2.0                           : CWLS LOG ASCII STANDARD - VERSION 2.0
 WRAP              .         NO                            : ONE LINE PER DEPTH STEP
 DLM               .         SPACE                         : DELIMITING CHARACTER(SPACE TAB OR COMMA)
~Well Information
#_______________________________________________________________________________
#
#PARAMETER_NAME    .UNIT     VALUE                         : DESCRIPTION
#_______________________________________________________________________________
STRT               .m        2605.0000                     : First reference value
STOP               .m        3625.0000                     : Last reference value
STEP               .m        0.1000                        : Step increment
NULL               .         -9999                         : Missing value
COMP               .                                       : Company
WELL               .         Well-A                        : Well name
~Parameter Information Block
#_______________________________________________________________________________
#
#PARAMETER_NAME    .UNIT     VALUE                         : DESCRIPTION
#_______________________________________________________________________________
SET                .         Data_Output                   : 
TLFamily_BS        .         Bit Size                      : 
TLFamily_CALI      .         Caliper                       : 
TLFamily_DENS      .         Bulk Density                  : 
TLFamily_DT        .         Compressional Slowness        : 
TLFamily_GR        .         Gamma Ray                     : 
TLFamily_MD        .         Measured Depth                : 
TLFamily_NPHI      .         Thermal Neutron Porosity      : 
TLFamily_RS        .         Resistivity - Phase Shift     : 
TLFamily_RT        .         Resistivity - True Formation  : 
~Curve Information
#_______________________________________________________________________________
#
#LOGNAME           .UNIT     LOG_ID                        : DESCRIPTION
#_______________________________________________________________________________
MD                 .m                                      :  
BS                 .inches                                 :  
CALI               .inches                                 :  
DENS               .g/cm3                                  :  
DT                 .us/ft                                  :  
GR                 .API                                    :  
NPHI               .v/v                                    :  
RS                 .ohm.m                                  :  
RT                 .ohm.m                                  :  
~Ascii
# ...
3544.6000  8.5000     8.6250     2.6137     75.2659    95.5797    0.2047     2.2587     2.2684    
3544.7000  8.5000     8.6250     2.6086     75.5742    91.6508    0.2086     2.1729     2.0888    
3544.8000  8.5000     8.6250     2.6060     75.8525    84.9701    0.2059     2.1087     1.9653    
3544.9000  8.5000     8.6250     2.6047     75.9857    84.7317    0.2020     2.0796     1.9177    
3545.0000  8.5000     8.6250     2.6038     76.0738    90.3662    0.1996     2.0647     1.9427    
3545.1000  8.5000     8.6250     2.6033     76.1653    95.8642    0.1978     2.0565     1.9297    
3545.2000  8.5000     8.6250     2.6028     76.1843    101.9564   0.1961     2.0576     1.9432    
3545.3000  8.5000     8.6250     2.6025     76.3057    106.9735   0.1944     2.0697     1.9820    
3545.4000  8.5000     8.6250     2.6025     76.9999    107.0847   0.1923     2.0691     1.9718    
3545.5000  8.5000     8.6250     2.6027     76.4315    105.1696   0.1885     2.0598     1.9545    
3545.6000  8.5000     8.6250     2.6026     75.4115    105.9124   0.1807     2.0865     2.0325    
3545.7000  8.5000     8.6250     2.6024     75.5835    110.0992   0.1680     2.1237     2.0979    
3545.8000  8.5000     8.6250     2.6043     75.0469    113.0499   0.1525     2.1323     2.1095    
3545.9000  8.5000     8.6250     2.6085     74.1583    113.4328   0.1375     2.1422     2.0950    
3546.0000  8.5000     8.6250     2.6139     74.2003    109.6538   0.1278     2.1670     2.1327    
3546.1000  8.5000     8.6250     2.6188     73.9368    98.5032    0.1254     2.2203     2.2441    
3546.2000  8.5000     8.6250     2.6220     73.4549    87.9538    0.1295     2.2704     2.3729    
3546.3000  8.5000     8.6250     2.6225     73.3186    77.8398    0.1361     2.3007     2.4683    
3546.4000  8.5000     8.6484     2.6187     73.2659    72.7132    0.1412     2.3157     2.4993    
3546.5000  8.5000     8.6927     2.6112     73.2914    76.7485    0.1380     2.2686     2.3355    
3546.6000  8.5000     8.7266     2.6013     73.5299    82.5499    0.1372     2.2042     2.1674    
3546.7000  8.5000     8.6719     2.5916     73.8230    83.5044    0.1388     2.2049     2.1555    
3546.8000  8.5000     8.6250     2.5854     74.1762    86.5498    0.1445     2.2666     2.2826    
3546.9000  8.5000     8.6250     2.5835     74.7884    89.9834    0.1515     2.3332     2.4294    
3547.0000  8.5000     8.6250     2.5850     75.3961    90.1312    0.1626     2.4461     2.7404    
3547.1000  8.5000     8.6250     2.5876     75.9771    91.5654    0.1754     2.5435     3.0186    
3547.2000  8.5000     8.6250     2.5904     75.9371    93.9903    0.1875     2.5705     3.0950    
3547.3000  8.5000     8.6250     2.5934     75.3990    97.7579    0.1971     2.5838     3.0309    
3547.4000  8.5000     8.6250     2.5963     74.1462    104.2987   0.2034     2.5681     2.8991    
3547.5000  8.5000     8.6250     2.5983     72.8435    110.2893   0.2067     2.5666     2.8571    
3547.6000  8.5000     8.6250     2.5986     71.5842    113.3757   0.2080     2.5728     2.8419    
3547.7000  8.5000     8.6250     2.5986     70.4331    117.4279   0.2089     2.5634     2.7968    
3547.8000  8.5000     8.6250     2.5997     69.5146    120.2659   0.2099     2.5588     2.7617    
3547.9000  8.5000     8.6250     2.6022     68.6755    124.8051   0.2101     2.5588     2.7435    
3548.0000  8.5000     8.6250     2.6052     67.8937    122.9165   0.2080     2.5572     2.7060    
3548.1000  8.5000     8.6250     2.6072     67.6183    120.3754   0.2033     2.5503     2.6457    
3548.2000  8.5000     8.6250     2.6078     67.7227    117.9825   0.1972     2.5572     2.6379    
3548.3000  8.5000     8.6250     2.6069     68.5435    113.6325   0.1920     2.5350     2.5581    
3548.4000  8.5000     8.6250     2.6057     69.5590    110.0196   0.1883     2.4774     2.4232    
3548.5000  8.5000     8.6250     2.6049     70.6030    106.8511   0.1853     2.4670     2.4336    
3548.6000  8.5000     8.6250     2.6049     71.4112    105.2519   0.1818     2.4282     2.3599    
3548.7000  8.5000     8.6250     2.6054     72.1711    105.8627   0.1801     2.3805     2.2592    
3548.8000  8.5000     8.6250     2.6055     72.9095    105.1743   0.1822     2.3757     2.2573    
3548.9000  8.5000     8.6250     2.6052     73.6698    101.2549   0.1875     2.3847     2.3080    
3549.0000  8.5000     8.6250     2.6051     74.4423    101.2155   0.1927     2.3777     2.2975    
3549.1000  8.5000     8.6250     2.6044     75.2171    99.2657    0.1953     2.3317     2.1952    
3549.2000  8.5000     8.6250     2.6031     75.9350    97.8807    0.1958     2.2871     2.1202    
3549.3000  8.5000     8.6250     2.6015     76.4613    100.4678   0.1956     2.2916     2.1464    
3549.4000  8.5000     8.6250     2.6006     76.8360    99.9955    0.1959     2.3105     2.2276    
3549.5000  8.5000     8.6250     2.6009     77.1530    95.3592    0.1973     2.2884     2.2276    
3549.6000  8.5000     8.6250     2.6011     77.3785    99.1116    0.1991     2.2678     2.2112    
3549.7000  8.5000     8.6250     2.6001     77.5190    101.4412   0.2006     2.2601     2.2252    
3549.8000  8.5000     8.6250     2.5976     77.6832    100.8210   0.2009     2.2474     2.2203    
3549.9000  8.5000     8.6250     2.5951     77.8234    102.6304   0.1998     2.1903     2.1142    
3550.0000  8.5000     8.6250     2.5938     77.9343    106.4158   0.1973     2.1283     2.0186    
3550.1000  8.5000     8.6250     2.5940     77.9530    108.7454   0.1934     2.1020     1.9997    
3550.2000  8.5000     8.6250     2.5952     78.0952    110.1274   0.1889     2.0758     1.9945    
3550.3000  8.5000     8.6406     2.5969     78.4173    113.2884   0.1828     2.0586     1.9857    
3550.4000  8.5000     8.6250     2.5997     78.9889    114.8286   0.1862     2.0285     1.9649    
3550.5000  8.5000     8.6250     2.6034     79.3459    112.8443   0.1911     2.0073     1.9609    
3550.6000  8.5000     8.6250     2.6072     79.2882    110.5247   0.1995     2.0215     2.0373    
3550.7000  8.5000     8.6250     2.6093     79.1525    104.4099   0.2090     2.0252     2.0867    
3550.8000  8.5000     8.6250     2.6089     79.0196    102.7966   0.2161     2.0009     2.0517    
3550.9000  8.5000     8.6250     2.6066     78.9228    103.6118   0.2185     1.9584     1.9856    
3551.0000  8.5000     8.6250     2.6032     79.1835    106.2303   0.2163     1.9074     1.9290    
3551.1000  8.5000     8.6250     2.5999     79.5350    108.6107   0.2113     1.8419     1.7956    
3551.2000  8.5000     8.6563     2.5970     79.8867    110.3543   0.2026     1.8027     1.7051    
3551.3000  8.5000     8.6250     2.5950     80.1848    111.3124   0.2003     1.8009     1.7193    
3551.4000  8.5000     8.6250     2.5947     80.4182    112.8007   0.1955     1.8009     1.7472    
3551.5000  8.5000     8.6250     2.5967     80.4914    114.2893   0.1920     1.8183     1.7853    
3551.6000  8.5000     8.6250     2.5999     80.4696    112.1229   0.1903     1.8414     1.8388    
3551.7000  8.5000     8.6250     2.6018     80.3945    106.7532   0.1911     1.8562     1.8649    
3551.8000  8.5000     8.6250     2.6007     80.2592    107.3066   0.1930     1.8773     1.9075    
3551.9000  8.5000     8.6250     2.5975     79.9825    108.1072   0.1943     1.8940     1.9422    
3552.0000  8.5000     8.6250     2.5943     79.6368    107.2462   0.1944     1.9021     1.9424    
3552.1000  8.5000     8.6250     2.5919     79.3310    105.9391   0.1942     1.8988     1.9318    
3552.2000  8.5000     8.6250     2.5897     79.0131    106.5723   0.1940     1.8921     1.8911    
3552.3000  8.5000     8.6484     2.5880     78.6977    110.2305   0.1906     1.8921     1.8759    
3552.4000  8.5000     8.6719     2.5875     78.4960    107.6582   0.1901     1.9036     1.8980    
3552.5000  8.5000     8.6484     2.5877     78.1097    106.5309   0.1933     1.9255     1.9256    
3552.6000  8.5000     8.6250     2.5863     77.5800    108.1822   0.1940     1.9469     1.9650    
