~Version
 VERS              .         2.0                           : CWLS LOG ASCII STANDARD - VERSION 2.0
 WRAP              .         NO                            : ONE LINE PER DEPTH STEP
 DLM               .         SPACE                         : DELIMITING CHARACTER(SPACE TAB OR COMMA)
~Well Information
#_______________________________________________________________________________
#
#PARAMETER_NAME    .UNIT     VALUE                         : DESCRIPTION
#_______________________________________________________________________________
STRT               .m        2605.0000                     : First reference value
STOP               .m        3625.0000                     : Last reference value
STEP               .m        0.1000                        : Step increment
NULL               .         -9999                         : Missing value
COMP               .                                       : Company
WELL               .         Well-A                        : Well name
~Parameter Information Block
#_______________________________________________________________________________
#
#PARAMETER_NAME    .UNIT     VALUE                         : DESCRIPTION
#_______________________________________________________________________________
SET                .         Data_Output                   : 
TLFamily_BS        .         Bit Size                      : 
TLFamily_CALI      .         Caliper                       : 
TLFamily_DENS      .         Bulk Density                  : 
TLFamily_DT        .         Compressional Slowness        : 
TLFamily_GR        .         Gamma Ray                     : 
TLFamily_MD        .         Measured Depth                : 
TLFamily_NPHI      .         Thermal Neutron Porosity      : 
TLFamily_RS        .         Resistivity - Phase Shift     : 
TLFamily_RT        .         Resistivity - True Formation  : 
~Curve Information
#_______________________________________________________________________________
#
#LOGNAME           .UNIT     LOG_ID                        : DESCRIPTION
#_______________________________________________________________________________
MD                 .m                                      :  
BS                 .inches                                 :  
CALI               .inches                                 :  
DENS               .g/cm3                                  :  
DT                 .us/ft                                  :  
GR                 .API                                    :  
NPHI               .v/v                                    :  
RS                 .ohm.m                                  :  
RT                 .ohm.m                                  :  
~Ascii
# ...
3139.6000  8.5000     8.5781     2.5980     71.8913    27.8337    0.1012     3.5879     3.7493    
3139.7000  8.5000     8.5781     2.5991     71.6958    27.3419    0.0998     3.5463     3.6472    
3139.8000  8.5000     8.5781     2.6000     71.5177    27.3878    0.0977     3.6148     3.7625    
3139.9000  8.5000     8.5781     2.6004     71.3596    28.9528    0.0966     3.7023     3.9917    
3140.0000  8.5000     8.5781     2.6001     71.4044    29.7519    0.0974     3.7415     4.1019    
3140.1000  8.5000     8.5781     2.5988     71.4903    29.4414    0.1000     3.6386     3.7708    
3140.2000  8.5000     8.5781     2.5979     71.6168    31.6469    0.1031     3.4863     3.4790    
3140.3000  8.5000     8.5781     2.5986     71.8144    32.6768    0.1067     3.4313     3.4059    
3140.4000  8.5000     8.5781     2.6007     72.0068    32.6561    0.1109     3.4660     3.4604    
3140.5000  8.5000     8.5781     2.6017     72.1907    32.1364    0.1148     3.5230     3.5486    
3140.6000  8.5000     8.5781     2.6000     72.2291    30.2999    0.1167     3.5268     3.5739    
3140.7000  8.5000     8.5781     2.5959     72.1441    29.4942    0.1155     3.5321     3.5501    
3140.8000  8.5000     8.5781     2.5911     71.8947    29.2766    0.1117     3.5605     3.5815    
3140.9000  8.5000     8.5781     2.5888     71.2862    29.4839    0.1065     3.5811     3.6477    
3141.0000  8.5000     8.5781     2.5914     70.5718    29.9120    0.1015     3.6831     3.8941    
3141.1000  8.5000     8.5781     2.5983     69.7542    29.1033    0.0981     3.8573     4.2050    
3141.2000  8.5000     8.5781     2.6062     69.0622    30.0624    0.0972     3.8491     4.1053    
3141.3000  8.5000     8.5781     2.6102     68.3908    30.9706    0.0985     3.6804     3.7602    
3141.4000  8.5000     8.5781     2.6081     67.7091    32.4728    0.1009     3.5816     3.4389    
3141.5000  8.5000     8.5781     2.6019     66.9544    31.1998    0.1035     3.6365     3.4527    
3141.6000  8.5000     8.5781     2.5960     66.1691    31.0627    0.1060     3.7983     3.7567    
3141.7000  8.5000     8.5781     2.5927     65.3541    31.4797    0.1081     3.8763     3.8919    
3141.8000  8.5000     8.5781     2.5923     64.8614    32.2174    0.1094     3.8110     3.6549    
3141.9000  8.5000     8.5781     2.5932     64.5331    30.9328    0.1097     3.7647     3.5455    
3142.0000  8.5000     8.5781     2.5939     64.3876    30.6310    0.1097     3.8863     3.7368    
3142.1000  8.5000     8.5781     2.5944     64.4248    30.1775    0.1095     4.0718     4.0155    
3142.2000  8.5000     8.5781     2.5960     64.4994    28.1037    0.1083     4.1653     4.1423    
3142.3000  8.5000     8.5781     2.5985     64.3519    26.4312    0.1056     4.1758     4.0509    
3142.4000  8.5000     8.5781     2.6011     64.3866    26.0752    0.1020     4.2666     4.1708    
3142.5000  8.5000     8.5781     2.6038     64.5546    25.0692    0.0978     4.4360     4.5066    
3142.6000  8.5000     8.5781     2.6071     64.9586    23.5355    0.0928     4.5522     4.7166    
3142.7000  8.5000     8.5781     2.6111     65.4576    20.8633    0.0868     4.6602     4.8902    
3142.8000  8.5000     8.5781     2.6154     66.0100    20.1779    0.0801     4.8712     5.2957    
3142.9000  8.5000     8.5781     2.6189     66.4130    20.4932    0.0738     5.0271     5.5955    
3143.0000  8.5000     8.5781     2.6213     66.6880    19.5280    0.0691     5.2040     5.7396    
3143.1000  8.5000     8.5781     2.6219     66.8491    19.0099    0.0660     5.2216     5.7299    
3143.2000  8.5000     8.5781     2.6207     66.7013    19.5664    0.0640     5.2677     5.7379    
3143.3000  8.5000     8.5781     2.6199     66.6249    18.6927    0.0628     5.4083     5.9061    
3143.4000  8.5000     8.5781     2.6211     66.6203    17.8080    0.0620     5.4704     6.0372    
3143.5000  8.5000     8.5781     2.6231     66.6348    18.0494    0.0616     5.5503     6.1487    
3143.6000  8.5000     8.5781     2.6241     66.6753    18.1498    0.0619     5.6124     6.2021    
3143.7000  8.5000     8.5781     2.6243     66.7474    17.3829    0.0630     5.6639     6.2266    
3143.8000  8.5000     8.5781     2.6248     66.8223    17.5819    0.0644     5.6755     6.1936    
3143.9000  8.5000     8.5781     2.6259     66.9195    17.4632    0.0653     5.6872     6.1777    
3144.0000  8.5000     8.5781     2.6272     67.0495    17.8187    0.0652     5.7222     6.2022    
3144.1000  8.5000     8.5781     2.6283     67.2435    17.0672    0.0646     5.7429     6.2328    
3144.2000  8.5000     8.5781     2.6290     67.4770    17.3217    0.0647     5.7221     6.1726    
3144.3000  8.5000     8.5781     2.6296     67.7663    17.3038    0.0658     5.6495     6.0381    
3144.4000  8.5000     8.5781     2.6304     68.0843    19.8755    0.0676     5.6294     5.9743    
3144.5000  8.5000     8.5781     2.6321     68.4221    19.9787    0.0691     5.6180     5.9972    
3144.6000  8.5000     8.5781     2.6342     68.7915    19.7459    0.0696     5.5951     5.9468    
3144.7000  8.5000     8.5781     2.6357     69.1467    19.6001    0.0691     5.5447     5.9195    
3144.8000  8.5000     8.5781     2.6352     69.5199    19.2253    0.0682     5.5252     5.9048    
3144.9000  8.5000     8.5781     2.6324     69.9567    19.2031    0.0673     5.5114     5.9196    
3145.0000  8.5000     8.5781     2.6291     70.5009    18.7355    0.0667     5.5113     5.9730    
3145.1000  8.5000     8.5781     2.6267     71.1001    18.9429    0.0666     5.4402     5.9123    
3145.2000  8.5000     8.5781     2.6260     71.7605    18.4227    0.0672     5.3211     5.6858    
3145.3000  8.5000     8.5781     2.6264     72.3687    18.2223    0.0686     5.1815     5.4970    
3145.4000  8.5000     8.5781     2.6266     72.9066    20.1485    0.0705     5.1055     5.4307    
3145.5000  8.5000     8.5781     2.6257     73.2044    22.3514    0.0727     5.0220     5.3770    
3145.6000  8.5000     8.5781     2.6239     73.4170    23.5035    0.0749     4.9409     5.2829    
3145.7000  8.5000     8.5781     2.6218     73.5664    23.7418    0.0768     4.8232     5.1565    
3145.8000  8.5000     8.5781     2.6204     73.6023    23.1514    0.0789     4.7410     5.0777    
3145.9000  8.5000     8.5781     2.6196     73.6268    24.0461    0.0817     4.6572     4.9965    
3146.0000  8.5000     8.5781     2.6205     73.6432    25.8914    0.0856     4.5556     4.9050    
3146.1000  8.5000     8.5781     2.6232     73.6563    26.3804    0.0900     4.4096     4.6415    
3146.2000  8.5000     8.5781     2.6262     73.7035    27.4009    0.0941     4.2273     4.3587    
3146.3000  8.5000     8.5781     2.6261     73.7816    29.7584    0.0982     4.1012     4.2142    
3146.4000  8.5000     8.5781     2.6222     73.9590    32.2488    0.1030     4.0261     4.1876    
3146.5000  8.5000     8.5781     2.6155     74.2090    33.9493    0.1088     4.0035     4.2548    
3146.6000  8.5000     8.5781     2.6084     74.5333    36.3611    0.1152     3.9193     4.2150    
3146.7000  8.5000     8.6250     2.6020     74.7479    38.6039    0.1186     3.7329     3.9587    
3146.8000  8.5000     8.5781     2.5974     74.9798    39.6297    0.1272     3.5563     3.6090    
3146.9000  8.5000     8.5781     2.5937     75.2377    41.6466    0.1308     3.3513     3.2032    
3147.0000  8.5000     8.6250     2.5896     75.6588    42.0732    0.1283     3.1958     3.0128    
3147.1000  8.5000     8.6250     2.5848     76.1235    39.8499    0.1260     3.1553     3.0263    
3147.2000  8.5000     8.6250     2.5803     76.6327    36.8305    0.1250     3.1640     3.1514    
3147.3000  8.5000     8.5781     2.5771     76.9368    35.1982    0.1211     3.1553     3.2432    
3147.4000  8.5000     8.6250     2.5747     77.2110    33.6414    0.1154     3.1360     3.2834    
3147.5000  8.5000     8.5781     2.5714     77.4845    31.7036    0.1178     3.0929     3.2924    
3147.6000  8.5000     8.5781     2.5681     77.7179    30.2921    0.1194     3.0264     3.2719    
