~Version
 VERS              .         2.0                           : CWLS LOG ASCII STANDARD - VERSION 2.0
 WRAP              .         NO                            : ONE LINE PER DEPTH STEP
 DLM               .         SPACE                         : DELIMITING CHARACTER(SPACE TAB OR COMMA)
~Well Information
#_______________________________________________________________________________
#
#PARAMETER_NAME    .UNIT     VALUE                         : DESCRIPTION
#_______________________________________________________________________________
STRT               .m        2574.0000                     : First reference value
STOP               .m        4550.0000                     : Last reference value
STEP               .m        0.1000                        : Step increment
NULL               .         -9999                         : Missing value
COMP               .                                       : Company
WELL               .         Well-D                        : Well name
~Parameter Information Block
#_______________________________________________________________________________
#
#PARAMETER_NAME    .UNIT     VALUE                         : DESCRIPTION
#_______________________________________________________________________________
SET                .         Data_Output                   : 
TLFamily_BS        .         Bit Size                      : 
TLFamily_CALI      .         Caliper                       : 
TLFamily_DENS      .         Bulk Density                  : 
TLFamily_DT        .         Compressional Slowness        : 
TLFamily_DTS       .         Shear Slowness                : 
TLFamily_GR        .         Gamma Ray                     : 
TLFamily_MD        .         Measured Depth                : 
TLFamily_NPHI      .         Thermal Neutron Porosity      : 
TLFamily_RS        .         Resistivity - Phase Shift     : 
TLFamily_RT        .         Resistivity - True Formation  : 
~Curve Information
#_______________________________________________________________________________
#
#LOGNAME           .UNIT     LOG_ID                        : DESCRIPTION
#_______________________________________________________________________________
MD                 .m                                      :  
BS                 .inches                                 :  
CALI               .inches                                 :  
DENS               .g/cm3                                  :  
DT                 .us/ft                                  :  
DTS                .us/ft                                  :  
GR                 .API                                    :  
NPHI               .v/v                                    :  
RS                 .ohm.m                                  :  
RT                 .ohm.m                                  :  
~Ascii
# ...
3880.7000  8.5000     8.7030     2.5780     65.6690    113.4270   11.0700    0.0730     6.4270     6.9490    
3880.8000  8.5000     8.7030     2.5750     65.9500    114.1920   11.3630    0.0750     6.4270     6.9610    
3880.9000  8.5000     8.7030     2.5720     66.1630    114.9760   11.9730    0.0760     6.4510     6.9800    
3881.0000  8.5000     8.7030     2.5710     66.2430    115.7610   12.8290    0.0770     6.4550     7.0040    
3881.1000  8.5000     8.7030     2.5730     66.2690    116.1220   13.6150    0.0780     6.4200     6.9510    
3881.2000  8.5000     8.7030     2.5780     66.2460    116.2790   13.6770    0.0780     6.4130     6.8800    
3881.3000  8.5000     8.7030     2.5810     66.1340    116.1730   14.6770    0.0780     6.4060     6.8460    
3881.4000  8.5000     8.7030     2.5830     65.9290    116.0690   13.5690    0.0790     6.4130     6.8620    
3881.5000  8.5000     8.7030     2.5830     65.6780    116.1820   13.9260    0.0800     6.4090     6.8720    
3881.6000  8.5000     8.7120     2.5820     65.3750    116.9660   14.0890    0.0820     6.4200     6.8700    
3881.7000  8.5000     8.7030     2.5790     65.0630    118.0900   16.0470    0.0820     6.4300     6.8820    
3881.8000  8.5000     8.7030     2.5750     64.7820    119.3770   17.0460    0.0810     6.4270     6.8800    
3881.9000  8.5000     8.7030     2.5730     64.6450    120.7900   15.9150    0.0800     6.4550     6.9260    
3882.0000  8.5000     8.7030     2.5760     64.5200    121.0960   14.9520    0.0780     6.4550     6.8880    
3882.1000  8.5000     8.7030     2.5820     64.4120    120.7520   14.0870    0.0780     6.4410     6.8540    
3882.2000  8.5000     8.7030     2.5860     64.3600    119.7980   15.2390    0.0780     6.4900     6.8670    
3882.3000  8.5000     8.7030     2.5860     64.1320    118.1230   16.3110    0.0780     6.4900     6.8960    
3882.4000  8.5000     8.7030     2.5850     63.8060    116.0460   16.3790    0.0780     6.4620     6.8720    
3882.5000  8.5000     8.7030     2.5850     63.5750    114.2760   16.4770    0.0780     6.4800     6.8700    
3882.6000  8.5000     8.7030     2.5860     63.4110    112.9450   15.5640    0.0780     6.5190     6.9120    
3882.7000  8.5000     8.7030     2.5870     63.3170    111.9690   14.8650    0.0770     6.5300     6.9420    
3882.8000  8.5000     8.7270     2.5860     63.5970    111.5740   15.1230    0.0740     6.5480     6.9260    
3882.9000  8.5000     8.7270     2.5840     63.9030    111.3840   14.7100    0.0760     6.5410     6.9190    
3883.0000  8.5000     8.7030     2.5810     64.2320    111.3770   15.2930    0.0760     6.5690     6.8940    
3883.1000  8.5000     8.7030     2.5780     64.6830    111.5270   16.4900    0.0760     6.5700     6.9230    
3883.2000  8.5000     8.7030     2.5760     65.1950    111.8030   17.0620    0.0770     6.5840     6.9260    
3883.3000  8.5000     8.7030     2.5770     65.7730    112.2160   17.3450    0.0770     6.5770     6.9120    
3883.4000  8.5000     8.7030     2.5770     66.3390    113.2740   18.3840    0.0780     6.5770     6.8800    
3883.5000  8.5000     8.7030     2.5780     66.7270    114.0460   18.6990    0.0800     6.5950     6.8770    
3883.6000  8.5000     8.7030     2.5760     66.8790    114.3990   17.6320    0.0820     6.6350     6.9020    
3883.7000  8.5000     8.7030     2.5740     66.7450    114.6600   17.2690    0.0830     6.6430     6.9060    
3883.8000  8.5000     8.7030     2.5720     66.5560    114.9500   16.9250    0.0830     6.6800     6.9100    
3883.9000  8.5000     8.7030     2.5710     66.3270    115.3020   18.7670    0.0820     6.6760     6.9200    
3884.0000  8.5000     8.7030     2.5720     66.1050    116.0270   19.1980    0.0810     6.6870     6.9230    
3884.1000  8.5000     8.6720     2.5720     65.8940    116.8720   19.8510    0.0830     6.6020     6.6890    
3884.2000  8.5000     8.6720     2.5710     65.7020    117.8370   19.6560    0.0820     6.5400     6.5490    
3884.3000  8.5000     8.6720     2.5700     65.3360    118.2110   18.7440    0.0820     6.5260     6.5140    
3884.4000  8.5000     8.6720     2.5690     65.0470    118.3220   18.3890    0.0820     6.5910     6.5350    
3884.5000  8.5000     8.6720     2.5690     65.0550    118.1190   16.9080    0.0810     6.7210     6.8070    
3884.6000  8.5000     8.6720     2.5680     65.0500    118.0050   15.1960    0.0790     6.8860     7.0200    
3884.7000  8.5000     8.6720     2.5660     65.1300    117.9730   14.5970    0.0780     6.8630     6.9820    
3884.8000  8.5000     8.6720     2.5620     65.4980    118.1190   14.0060    0.0780     6.8470     6.8960    
3884.9000  8.5000     8.6720     2.5600     65.7270    118.0040   14.4100    0.0770     6.8510     6.8510    
3885.0000  8.5000     8.7030     2.5600     65.8850    117.6860   14.1170    0.0790     6.8470     6.8170    
3885.1000  8.5000     8.7030     2.5600     65.9780    116.9550   13.2280    0.0790     6.9290     6.8730    
3885.2000  8.5000     8.7030     2.5610     66.0450    117.3820   12.8960    0.0790     6.9970     6.9340    
3885.3000  8.5000     8.7030     2.5600     66.1230    118.1990   11.9090    0.0770     7.0370     6.9770    
3885.4000  8.5000     8.7030     2.5600     66.3450    117.8820   12.6520    0.0760     7.0700     7.0590    
3885.5000  8.5000     8.6870     2.5620     66.6700    117.5530   12.1390    0.0780     7.1110     7.1060    
3885.6000  8.5000     8.6720     2.5670     67.0220    117.4260   12.0910    0.0770     7.1770     7.1450    
3885.7000  8.5000     8.6720     2.5720     67.0460    119.2680   12.0430    0.0770     7.2100     7.1930    
3885.8000  8.5000     8.6720     2.5730     66.9200    121.1600   13.8580    0.0780     7.2110     7.2190    
3885.9000  8.5000     8.6720     2.5720     66.6680    123.1090   14.8150    0.0780     7.2610     7.2250    
3886.0000  8.5000     8.6720     2.5710     66.1820    125.4670   16.2320    0.0800     7.2830     7.2590    
3886.1000  8.5000     8.6720     2.5710     65.7120    126.2210   17.8410    0.0810     7.3640     7.3350    
3886.2000  8.5000     8.7030     2.5730     65.2580    125.5090   19.6210    0.0800     7.5280     7.5760    
3886.3000  8.5000     8.7030     2.5760     64.7350    122.2550   20.0770    0.0800     7.6510     7.8510    
3886.4000  8.5000     8.7030     2.5790     64.3880    119.5060   19.7210    0.0800     7.7260     7.9100    
3886.5000  8.5000     8.7030     2.5810     64.2400    117.3210   20.1790    0.0780     7.7540     7.9000    
3886.6000  8.5000     8.7030     2.5820     64.0530    116.4930   20.2130    0.0760     7.8110     8.0510    
3886.7000  8.5000     8.7030     2.5810     63.8830    116.0370   19.6530    0.0740     7.7820     8.0730    
3886.8000  8.5000     8.7030     2.5800     63.7390    115.9840   19.6550    0.0720     7.7160     7.9140    
3886.9000  8.5000     8.7030     2.5780     63.5810    115.9370   18.9330    0.0710     7.5780     7.7230    
3887.0000  8.5000     8.7030     2.5770     63.4030    115.5500   17.0420    0.0710     7.6240     7.8380    
3887.1000  8.5000     8.7030     2.5780     63.1940    114.6100   17.0390    0.0710     7.6930     7.9910    
3887.2000  8.5000     8.7030     2.5810     62.9330    114.4150   15.4030    0.0700     7.6790     8.0150    
3887.3000  8.5000     8.7030     2.5850     62.7580    114.3690   14.2440    0.0690     7.6880     7.9990    
3887.4000  8.5000     8.7030     2.5870     62.7770    114.3660   14.8370    0.0680     7.6790     8.0280    
3887.5000  8.5000     8.7030     2.5870     62.6710    114.4320   15.5420    0.0660     7.6980     8.0350    
3887.6000  8.5000     8.7030     2.5860     62.5300    114.1040   15.8970    0.0650     7.7400     8.1010    
3887.7000  8.5000     8.7030     2.5830     62.3790    112.7430   16.6980    0.0650     7.7450     8.1630    
3887.8000  8.5000     8.7030     2.5820     62.4010    112.6270   16.7780    0.0650     7.7540     8.1830    
3887.9000  8.5000     8.7030     2.5820     62.4080    112.5120   17.5150    0.0650     7.7820     8.1930    
