~Version
 VERS              .         2.0                           : CWLS LOG ASCII STANDARD - VERSION 2.0
 WRAP              .         NO                            : ONE LINE PER DEPTH STEP
 DLM               .         SPACE                         : DELIMITING CHARACTER(SPACE TAB OR COMMA)
~Well Information
#_______________________________________________________________________________
#
#PARAMETER_NAME    .UNIT     VALUE                         : DESCRIPTION
#_______________________________________________________________________________
STRT               .m        2605.0000                     : First reference value
STOP               .m        3675.0000                     : Last reference value
STEP               .m        0.1000                        : Step increment
NULL               .         -9999                         : Missing value
COMP               .                                       : Company
WELL               .         Well-B                        : Well name
~Parameter Information Block
#_______________________________________________________________________________
#
#PARAMETER_NAME    .UNIT     VALUE                         : DESCRIPTION
#_______________________________________________________________________________
SET                .         Data_Output                   : 
TLFamily_BS        .         Bit Size                      : 
TLFamily_CALI      .         Caliper                       : 
TLFamily_DENS      .         Bulk Density                  : 
TLFamily_DT        .         Compressional Slowness        : 
TLFamily_DTS       .         Shear Slowness                : 
TLFamily_GR        .         Gamma Ray                     : 
TLFamily_MD        .         Measured Depth                : 
TLFamily_NPHI      .         Thermal Neutron Porosity      : 
TLFamily_RS        .         Resistivity - Phase Shift     : 
TLFamily_RT        .         Resistivity - True Formation  : 
~Curve Information
#_______________________________________________________________________________
#
#LOGNAME           .UNIT     LOG_ID                        : DESCRIPTION
#_______________________________________________________________________________
MD                 .m                                      :  
BS                 .inches                                 :  
CALI               .inches                                 :  
DENS               .g/cm3                                  :  
DT                 .us/ft                                  :  
DTS                .us/ft                                  :  
GR                 .API                                    :  
NPHI               .v/v                                    :  
RS                 .ohm.m                                  :  
RT                 .ohm.m                                  :  
~Ascii
# ...
3517.5000  8.5000     8.6719     2.4847     67.3718    117.7418   55.7445    0.1353     1.9492     2.5590    
3517.6000  8.5000     8.6718     2.4830     68.3734    118.0708   52.2422    0.1303     2.0921     3.2913    
3517.7000  8.5000     8.6250     2.4848     69.3587    118.3998   51.1802    0.1295     2.2306     4.1451    
3517.8000  8.5000     8.6251     2.4924     69.8742    118.7265   48.1430    0.1271     2.2349     3.8706    
3517.9000  8.5000     8.6719     2.5055     70.3896    119.0532   44.0221    0.1230     2.1834     3.5329    
3518.0000  8.5000     8.6719     2.5202     70.9035    119.3813   42.1816    0.1223     2.1253     3.3084    
3518.1000  8.5000     8.6720     2.5318     70.7654    120.3245   40.2911    0.1214     2.0808     3.1777    
3518.2000  8.5000     8.7031     2.5370     70.3620    121.1900   39.3952    0.1186     2.0122     2.9584    
3518.3000  8.5000     8.7030     2.5398     71.0109    120.1094   39.9443    0.1187     1.9341     2.6484    
3518.4000  8.5000     8.6719     2.5440     71.9867    118.6209   41.8038    0.1232     1.8628     2.3875    
3518.5000  8.5000     8.6875     2.5498     72.3712    119.7365   44.9218    0.1264     1.7708     2.0692    
3518.6000  8.5000     8.7032     2.5528     72.5357    120.5014   47.3193    0.1323     1.7135     1.8430    
3518.7000  8.5000     8.7265     2.5492     72.7464    121.4697   49.5163    0.1338     1.7252     1.7999    
3518.8000  8.5000     8.7031     2.5403     72.9584    122.4435   51.0307    0.1388     1.8036     1.8777    
3518.9000  8.5000     8.7031     2.5315     73.1547    123.4232   51.4463    0.1392     1.9872     2.2657    
3519.0000  8.5000     8.7031     2.5271     73.3373    124.4080   51.4693    0.1385     2.1064     2.6415    
3519.1000  8.5000     8.7031     2.5291     73.5154    125.3941   51.7884    0.1364     2.0749     2.5048    
3519.2000  8.5000     8.7031     2.5351     73.6426    126.2550   52.8990    0.1324     2.0239     2.1846    
3519.3000  8.5000     8.7031     2.5413     73.6803    126.8952   55.1419    0.1278     1.9489     1.8475    
3519.4000  8.5000     8.7031     2.5478     73.6627    127.3992   56.2251    0.1257     1.9914     1.8995    
3519.5000  8.5000     8.7031     2.5555     73.6179    127.8344   58.7485    0.1284     2.1903     2.3761    
3519.6000  8.5000     8.7031     2.5629     73.4300    127.9052   59.4542    0.1356     2.3021     2.6707    
3519.7000  8.5000     8.7031     2.5659     73.0959    127.6038   58.5722    0.1455     2.2653     2.5595    
3519.8000  8.5000     8.7031     2.5620     72.7615    127.3018   58.1854    0.1557     2.2132     2.3938    
3519.9000  8.5000     8.7031     2.5514     72.3419    126.7316   59.5307    0.1652     2.1973     2.3866    
3520.0000  8.5000     8.6875     2.5358     71.8192    125.8375   60.9898    0.1727     2.2151     2.4792    
3520.1000  8.5000     8.7031     2.5194     71.2690    124.8565   62.1313    0.1683     2.2366     2.6536    
3520.2000  8.5000     8.6875     2.5074     70.7427    123.8815   60.5702    0.1559     2.2640     3.0373    
3520.3000  8.5000     8.7031     2.5032     70.2635    122.9180   59.4424    0.1325     2.2143     3.0088    
3520.4000  8.5000     8.6875     2.5075     69.8172    121.9627   55.9182    0.1087     2.1491     2.8292    
3520.5000  8.5000     8.6719     2.5186     69.4048    121.0440   52.9287    0.0947     2.1090     2.6279    
3520.6000  8.5000     8.6875     2.5345     69.1246    120.2682   50.6571    0.0787     2.0037     2.2311    
3520.7000  8.5000     8.6719     2.5533     69.0365    119.7003   49.8249    0.0890     1.9045     1.9354    
3520.8000  8.5000     8.6875     2.5739     68.9486    119.1328   51.3034    0.0892     1.8870     1.8773    
3520.9000  8.5000     8.6719     2.5951     68.9360    118.7339   54.2835    0.0948     1.9431     1.9830    
3521.0000  8.5000     8.6719     2.6145     69.0752    118.6741   56.4107    0.0980     1.9945     2.0530    
3521.1000  8.5000     8.6719     2.6307     69.2390    118.6693   61.4623    0.0996     2.1016     2.3342    
3521.2000  8.5000     8.6719     2.6409     69.4307    118.7278   66.2065    0.0996     2.3967     2.9923    
3521.3000  8.5000     8.6719     2.6437     69.7034    118.9678   70.0271    0.0984     2.5598     3.1153    
3521.4000  8.5000     8.6719     2.6364     70.0288    119.3264   73.7324    0.0972     2.6508     3.1896    
3521.5000  8.5000     8.6719     2.6208     70.3528    119.6871   74.8454    0.0966     2.6337     3.2376    
3521.6000  8.5000     8.6719     2.6043     70.6707    120.0568   73.2648    0.0974     2.6162     3.1253    
3521.7000  8.5000     8.6719     2.5946     70.9781    120.4421   67.1575    0.0995     2.6512     3.1903    
3521.8000  8.5000     8.6719     2.5956     71.2835    120.8249   56.2602    0.1026     2.6530     3.1084    
3521.9000  8.5000     8.6719     2.6034     71.5544    121.1655   45.0384    0.1059     2.5831     2.7487    
3522.0000  8.5000     8.6719     2.6096     71.6551    121.2973   39.6498    0.1093     2.5844     2.6875    
3522.1000  8.5000     8.6719     2.6070     71.7470    121.4181   38.3104    0.1130     2.5091     2.5204    
3522.2000  8.5000     8.6719     2.5941     71.8128    121.5119   37.1124    0.1168     2.4636     2.4071    
3522.3000  8.5000     8.6718     2.5788     71.7064    121.4263   36.1559    0.1237     2.4431     2.3378    
3522.4000  8.5000     8.6250     2.5680     71.5116    121.2483   37.1223    0.1272     2.4348     2.3231    
3522.5000  8.5000     8.6251     2.5633     71.3110    121.0743   36.5029    0.1266     2.4263     2.3080    
3522.6000  8.5000     8.6719     2.5620     71.0470    120.9451   36.1992    0.1277     2.4133     2.2736    
3522.7000  8.5000     8.6719     2.5609     70.6767    120.8908   36.7225    0.1287     2.4036     2.2454    
3522.8000  8.5000     8.6719     2.5592     70.3076    120.8386   36.4291    0.1311     2.3959     2.2210    
3522.9000  8.5000     8.6719     2.5592     69.9565    120.8263   35.7937    0.1350     2.4082     2.2836    
3523.0000  8.5000     8.6719     2.5659     69.8646    121.3859   36.4320    0.1397     2.4300     2.4068    
3523.1000  8.5000     8.6718     2.5812     69.7729    121.9455   36.9548    0.1431     2.4691     2.6390    
3523.2000  8.5000     8.6251     2.6010     69.6820    122.5067   37.9908    0.1428     2.4725     2.7828    
3523.3000  8.5000     8.6719     2.6219     69.9685    123.7256   39.5021    0.1375     2.4552     2.8854    
3523.4000  8.5000     8.6719     2.6426     70.3948    125.1878   43.1405    0.1264     2.3657     2.9234    
3523.5000  8.5000     8.6719     2.6587     70.8264    126.6588   45.3181    0.1116     2.2629     2.8550    
3523.6000  8.5000     8.6719     2.6611     71.5350    128.4884   46.2741    0.0972     2.1433     2.6524    
3523.7000  8.5000     8.6719     2.6463     72.6130    130.7960   51.3984    0.0875     2.0887     2.6533    
3523.8000  8.5000     8.6719     2.6155     73.7237    133.1456   53.4981    0.0847     2.0477     2.7263    
3523.9000  8.5000     8.6718     2.5696     74.8873    135.5021   56.5493    0.0881     1.9954     2.9082    
3524.0000  8.5000     8.6250     2.5157     76.3817    137.9014   60.4152    0.1005     1.8540     2.6303    
3524.1000  8.5000     8.6249     2.4644     77.9265    140.3071   62.4399    0.1183     1.6987     2.1921    
3524.2000  8.5000     8.5781     2.4261     79.4705    142.7123   64.3181    0.1374     1.5732     1.8880    
3524.3000  8.5000     8.5782     2.4032     80.6465    144.8588   63.6913    0.1567     1.4036     1.5438    
3524.4000  8.5000     8.6250     2.3918     81.6842    146.9081   64.0277    0.1697     1.2043     1.3054    
3524.5000  8.5000     8.6250     2.3880     82.6973    148.9390   66.1551    0.1805     1.0763     1.0847    
3524.6000  8.5000     8.6250     2.3895     83.3895    150.3040   66.0507    0.1886     0.9950     0.9545    
3524.7000  8.5000     8.6250     2.3940     83.7282    150.9355   59.2142    0.1956     0.9317     0.8402    
