~Version
 VERS              .         2.0                           : CWLS LOG ASCII STANDARD - VERSION 2.0
 WRAP              .         NO                            : ONE LINE PER DEPTH STEP
 DLM               .         SPACE                         : DELIMITING CHARACTER(SPACE TAB OR COMMA)
~Well Information
#_______________________________________________________________________________
#
#PARAMETER_NAME    .UNIT     VALUE                         : DESCRIPTION
#_______________________________________________________________________________
STRT               .m        2574.0000                     : First reference value
STOP               .m        4550.0000                     : Last reference value
STEP               .m        0.1000                        : Step increment
NULL               .         -9999                         : Missing value
COMP               .                                       : Company
WELL               .         Well-D                        : Well name
~Parameter Information Block
#_______________________________________________________________________________
#
#PARAMETER_NAME    .UNIT     VALUE                         : DESCRIPTION
#_______________________________________________________________________________
SET                .         Data_Output                   : 
TLFamily_BS        .         Bit Size                      : 
TLFamily_CALI      .         Caliper                       : 
TLFamily_DENS      .         Bulk Density                  : 
TLFamily_DT        .         Compressional Slowness        : 
TLFamily_DTS       .         Shear Slowness                : 
TLFamily_GR        .         Gamma Ray                     : 
TLFamily_MD        .         Measured Depth                : 
TLFamily_NPHI      .         Thermal Neutron Porosity      : 
TLFamily_RS        .         Resistivity - Phase Shift     : 
TLFamily_RT        .         Resistivity - True Formation  : 
~Curve Information
#_______________________________________________________________________________
#
#LOGNAME           .UNIT     LOG_ID                        : DESCRIPTION
#_______________________________________________________________________________
MD                 .m                                      :  
BS                 .inches                                 :  
CALI               .inches                                 :  
DENS               .g/cm3                                  :  
DT                 .us/ft                                  :  
DTS                .us/ft                                  :  
GR                 .API                                    :  
NPHI               .v/v                                    :  
RS                 .ohm.m                                  :  
RT                 .ohm.m                                  :  
~Ascii
# ...
3617.9000  8.5000     8.6720     2.5950     62.5700    100.3880   15.5770    0.0660     7.4260     8.0320    
3618.0000  8.5000     8.7030     2.5930     62.8400    100.5470   15.1940    0.0670     7.4170     7.9840    
3618.1000  8.5000     8.7030     2.5900     63.0960    101.1110   16.2870    0.0680     7.4170     7.9840    
3618.2000  8.5000     8.7030     2.5860     63.2750    102.1850   16.8700    0.0690     7.3990     7.9840    
3618.3000  8.5000     8.6720     2.5830     63.4630    103.6450   18.0540    0.0720     7.3910     7.9910    
3618.4000  8.5000     8.6720     2.5830     63.8240    105.8770   18.3030    0.0730     7.3910     7.9980    
3618.5000  8.5000     8.6720     2.5830     64.0720    107.9110   16.9310    0.0740     7.3990     7.9910    
3618.6000  8.5000     8.6720     2.5840     64.3200    109.6850   16.0780    0.0730     7.4260     8.0420    
3618.7000  8.5000     8.6720     2.5860     64.9020    110.4900   16.6600    0.0720     7.3900     8.0230    
3618.8000  8.5000     8.6720     2.5860     65.1860    110.4200   18.3620    0.0720     7.3640     8.0250    
3618.9000  8.5000     8.6720     2.5850     65.3040    109.7590   16.6900    0.0710     7.3640     8.0320    
3619.0000  8.5000     8.6720     2.5840     65.5870    108.6170   16.4000    0.0710     7.3820     8.0320    
3619.1000  8.5000     8.6720     2.5840     65.7070    107.6390   15.9570    0.0710     7.3820     8.0350    
3619.2000  8.5000     8.6720     2.5860     65.7160    106.8250   15.9290    0.0710     7.3640     8.0460    
3619.3000  8.5000     8.6720     2.5900     65.9760    106.8160   16.2280    0.0720     7.3900     8.0730    
3619.4000  8.5000     8.6720     2.5920     66.1410    107.1470   15.9390    0.0720     7.3380     8.0610    
3619.5000  8.5000     8.6720     2.5930     66.2200    107.7910   14.9400    0.0700     7.3380     8.0320    
3619.6000  8.5000     8.6720     2.5940     66.2570    108.5880   14.8310    0.0690     7.3560     8.0900    
3619.7000  8.5000     8.6720     2.5970     66.1790    109.0420   16.3550    0.0680     7.3730     8.1390    
3619.8000  8.5000     8.6720     2.6010     65.9700    109.1150   16.2330    0.0680     7.3900     8.1560    
3619.9000  8.5000     8.6720     2.6040     65.4780    108.9150   15.9840    0.0680     7.3640     8.1620    
3620.0000  8.5000     8.6720     2.6030     65.1910    108.8170   16.7440    0.0670     7.3640     8.1560    
3620.1000  8.5000     8.6720     2.6010     65.1980    108.8750   15.5240    0.0660     7.3640     8.1490    
3620.2000  8.5000     8.6720     2.5970     65.2090    109.6390   15.3330    0.0660     7.3470     8.1010    
3620.3000  8.5000     8.6720     2.5940     65.2130    110.3620   15.1690    0.0670     7.3300     8.0490    
3620.4000  8.5000     8.6720     2.5900     65.2060    110.8920   14.3570    0.0690     7.2950     8.0250    
3620.5000  8.5000     8.6250     2.5860     65.3190    111.2720   13.5790    0.0660     7.3040     8.0080    
3620.6000  8.5000     8.6720     2.5820     65.3340    111.5950   13.6790    0.0650     7.3040     7.9810    
3620.7000  8.5000     8.6720     2.5790     65.1070    111.8530   13.5360    0.0630     7.3120     7.9610    
3620.8000  8.5000     8.7030     2.5780     65.0200    112.3380   13.2760    0.0640     7.2700     7.9370    
3620.9000  8.5000     8.7030     2.5780     64.8810    113.0440   13.2330    0.0640     7.2530     7.9000    
3621.0000  8.5000     8.7030     2.5780     64.5220    114.1660   13.8190    0.0660     7.2190     7.8670    
3621.1000  8.5000     8.7030     2.5800     64.4820    114.9960   12.4410    0.0670     7.2110     7.8180    
3621.2000  8.5000     8.7030     2.5820     64.4800    115.8100   12.1420    0.0670     7.2270     7.8470    
3621.3000  8.5000     8.7030     2.5840     64.2670    116.8700   11.8260    0.0690     7.2190     7.8050    
3621.4000  8.5000     8.6720     2.5850     64.1030    117.5150   11.3990    0.0680     7.1770     7.7890    
3621.5000  8.5000     8.6720     2.5840     63.9830    117.8450   12.6740    0.0660     7.1890     7.7840    
3621.6000  8.5000     8.7030     2.5820     63.9640    117.5410   13.2500    0.0660     7.1520     7.7530    
3621.7000  8.5000     8.7030     2.5810     64.0010    116.4220   11.3190    0.0670     7.1770     7.7340    
3621.8000  8.5000     8.7030     2.5800     64.0800    114.8180   10.7200    0.0690     7.1770     7.7280    
3621.9000  8.5000     8.7030     2.5820     64.2460    112.7760   11.3130    0.0710     7.1690     7.7340    
3622.0000  8.5000     8.6720     2.5850     64.3750    111.2230   11.3100    0.0740     7.1690     7.7240    
3622.1000  8.5000     8.6720     2.5870     64.4820    110.0740   10.1470    0.0730     7.1520     7.6860    
3622.2000  8.5000     8.7030     2.5870     64.6050    109.8740   10.6040    0.0700     7.1600     7.6760    
3622.3000  8.5000     8.7030     2.5880     64.8090    110.1380   11.4370    0.0680     7.1690     7.6540    
3622.4000  8.5000     8.7030     2.5900     65.0780    110.7360   11.6770    0.0660     7.1400     7.6310    
3622.5000  8.5000     8.7030     2.5930     65.4210    110.9180   11.3060    0.0660     7.1600     7.5950    
3622.6000  8.5000     8.7030     2.5930     65.8200    110.7910   11.7670    0.0660     7.1600     7.5760    
3622.7000  8.5000     8.7030     2.5910     66.2740    110.3760   13.1590    0.0670     7.1770     7.5760    
3622.8000  8.5000     8.6720     2.5870     66.3860    109.5560   12.9930    0.0700     7.1940     7.5890    
3622.9000  8.5000     8.6720     2.5850     66.4120    108.9140   12.8160    0.0720     7.1600     7.6040    
3623.0000  8.5000     8.6720     2.5860     66.3410    108.4760   12.8790    0.0740     7.2020     7.6890    
3623.1000  8.5000     8.6720     2.5900     66.2110    108.7480   12.1890    0.0750     7.2270     7.6960    
3623.2000  8.5000     8.6720     2.5920     66.0810    109.4040   12.7880    0.0760     7.2780     7.6920    
3623.3000  8.5000     8.6720     2.5920     65.9540    110.5260   13.4230    0.0750     7.2870     7.7020    
3623.4000  8.5000     8.6720     2.5880     65.9930    111.5140   12.8230    0.0730     7.2870     7.7180    
3623.5000  8.5000     8.6720     2.5840     66.1090    112.3510   13.5850    0.0700     7.3300     7.7240    
3623.6000  8.5000     8.7030     2.5800     66.3210    112.9620   14.7560    0.0690     7.3380     7.7470    
3623.7000  8.5000     8.7030     2.5800     66.6970    112.7850   13.8940    0.0690     7.3820     7.7600    
3623.8000  8.5000     8.7030     2.5800     67.2140    112.6020   12.4120    0.0720     7.3820     7.7860    
3623.9000  8.5000     8.6720     2.5820     67.9600    112.6870   12.1080    0.0730     7.3910     7.8210    
3624.0000  8.5000     8.6720     2.5860     68.5690    112.4220   12.6200    0.0730     7.4430     7.8760    
3624.1000  8.5000     8.6720     2.5910     69.1210    111.7480   12.5190    0.0730     7.4970     7.8970    
3624.2000  8.5000     8.6720     2.5920     69.6140    110.2420   12.8600    0.0730     7.4970     7.8970    
3624.3000  8.5000     8.6720     2.5890     69.8760    108.6050   13.6300    0.0730     7.5150     7.9240    
3624.4000  8.5000     8.6720     2.5850     69.9690    107.0830   13.9350    0.0750     7.5420     7.9350    
3624.5000  8.5000     8.6720     2.5850     69.7550    106.0850   14.3300    0.0760     7.5630     7.9430    
3624.6000  8.5000     8.6720     2.5890     69.3670    105.5830   15.1280    0.0770     7.5240     7.9000    
3624.7000  8.5000     8.7030     2.5920     68.8910    105.4220   15.2480    0.0750     7.5420     7.9100    
3624.8000  8.5000     8.7030     2.5930     68.3420    105.8560   14.7530    0.0750     7.5420     7.9440    
3624.9000  8.5000     8.7030     2.5920     68.0340    106.4230   14.9210    0.0750     7.5870     7.9670    
3625.0000  8.5000     8.6720     2.5910     67.8460    107.1720   14.6220    0.0780     7.6050     8.0080    
3625.1000  8.5000     8.6720     2.5910     67.6350    108.6430   14.9920    0.0780     7.6140     8.0110    
