~Version
 VERS              .         2.0                           : CWLS LOG ASCII STANDARD - VERSION 2.0
 WRAP              .         NO                            : ONE LINE PER DEPTH STEP
 DLM               .         SPACE                         : DELIMITING CHARACTER(SPACE TAB OR COMMA)
~Well Information
#_______________________________________________________________________________
#
#PARAMETER_NAME    .UNIT     VALUE                         : DESCRIPTION
#_______________________________________________________________________________
STRT               .m        2605.0000                     : First reference value
STOP               .m        3625.0000                     : Last reference value
STEP               .m        0.1000                        : Step increment
NULL               .         -9999                         : Missing value
COMP               .                                       : Company
WELL               .         Well-A                        : Well name
~Parameter Information Block
#_______________________________________________________________________________
#
#PARAMETER_NAME    .UNIT     VALUE                         : DESCRIPTION
#_______________________________________________________________________________
SET                .         Data_Output                   : 
TLFamily_BS        .         Bit Size                      : 
TLFamily_CALI      .         Caliper                       : 
TLFamily_DENS      .         Bulk Density                  : 
TLFamily_DT        .         Compressional Slowness        : 
TLFamily_GR        .         Gamma Ray                     : 
TLFamily_MD        .         Measured Depth                : 
TLFamily_NPHI      .         Thermal Neutron Porosity      : 
TLFamily_RS        .         Resistivity - Phase Shift     : 
TLFamily_RT        .         Resistivity - True Formation  : 
~Curve Information
#_______________________________________________________________________________
#
#LOGNAME           .UNIT     LOG_ID                        : DESCRIPTION
#_______________________________________________________________________________
MD                 .m                                      :  
BS                 .inches                                 :  
CALI               .inches                                 :  
DENS               .g/cm3                                  :  
DT                 .us/ft                                  :  
GR                 .API                                    :  
NPHI               .v/v                                    :  
RS                 .ohm.m                                  :  
RT                 .ohm.m                                  :  
~Ascii
# ...
3277.3000  8.5000     8.5781     2.2524     110.5800   211.6495   0.4437     2.4331     2.3266    
3277.4000  8.5000     8.5781     2.2516     110.7965   213.3879   0.4572     2.4028     2.2403    
3277.5000  8.5000     8.5781     2.2520     110.8349   217.2335   0.4646     2.4022     2.2289    
3277.6000  8.5000     8.5781     2.2530     110.4471   221.6148   0.4641     2.4824     2.4341    
3277.7000  8.5000     8.6016     2.2538     109.9050   220.8354   0.4556     2.5941     2.6388    
3277.8000  8.5000     8.6250     2.2548     109.1988   219.3117   0.4461     2.5845     2.6291    
3277.9000  8.5000     8.6250     2.2569     109.2260   221.6879   0.4347     2.5100     2.4871    
3278.0000  8.5000     8.6250     2.2597     109.4581   219.1483   0.4212     2.4396     2.3489    
3278.1000  8.5000     8.6016     2.2621     109.7620   217.4430   0.4097     2.4491     2.3262    
3278.2000  8.5000     8.5781     2.2633     109.6928   215.8927   0.4003     2.5095     2.4574    
3278.3000  8.5000     8.5781     2.2633     109.6523   216.8615   0.3974     2.5815     2.6033    
3278.4000  8.5000     8.6016     2.2640     110.0938   221.0881   0.4015     2.6003     2.5890    
3278.5000  8.5000     8.5781     2.2669     110.9282   224.7188   0.4104     2.5388     2.4562    
3278.6000  8.5000     8.5781     2.2714     111.9778   229.4436   0.4197     2.5398     2.4225    
3278.7000  8.5000     8.6250     2.2747     113.2646   233.5799   0.4234     2.6254     2.5576    
3278.8000  8.5000     8.6250     2.2734     114.0988   234.4017   0.4242     2.6541     2.6524    
3278.9000  8.5000     8.6250     2.2681     114.6389   232.7880   0.4227     2.5554     2.3845    
3279.0000  8.5000     8.6250     2.2629     114.7858   230.9530   0.4226     2.4540     2.1992    
3279.1000  8.5000     8.6250     2.2603     114.7911   229.3815   0.4268     2.4805     2.2471    
3279.2000  8.5000     8.5781     2.2597     114.6966   227.7339   0.4360     2.5682     2.3622    
3279.3000  8.5000     8.5781     2.2591     114.4960   234.1474   0.4384     2.7582     2.6765    
3279.4000  8.5000     8.6016     2.2586     114.2443   238.2045   0.4407     2.9184     2.9879    
3279.5000  8.5000     8.6250     2.2610     113.9408   241.5378   0.4341     2.9758     3.0708    
3279.6000  8.5000     8.6250     2.2666     113.3564   243.6638   0.4282     2.9476     2.9530    
3279.7000  8.5000     8.6250     2.2716     112.8047   241.2916   0.4220     2.9143     2.8775    
3279.8000  8.5000     8.6250     2.2694     112.2808   239.1587   0.4167     2.9420     2.8958    
3279.9000  8.5000     8.6250     2.2578     111.9393   238.7543   0.4136     3.0178     3.0282    
3280.0000  8.5000     8.6016     2.2412     111.8373   237.5667   0.4190     3.1118     3.2499    
3280.1000  8.5000     8.6016     2.2272     112.0083   224.0192   0.4294     3.0951     3.2511    
3280.2000  8.5000     8.6016     2.2215     113.0269   216.1341   0.4406     3.0743     3.2144    
3280.3000  8.5000     8.6250     2.2244     113.9313   210.5548   0.4494     3.0640     3.1997    
3280.4000  8.5000     8.6250     2.2310     114.6124   208.3600   0.4503     3.0485     3.1694    
3280.5000  8.5000     8.6250     2.2367     114.4432   210.7779   0.4455     2.9336     2.9075    
3280.6000  8.5000     8.6250     2.2381     113.8900   207.3991   0.4394     2.8049     2.6547    
3280.7000  8.5000     8.6250     2.2348     112.8562   202.3352   0.4344     2.8575     2.7367    
3280.8000  8.5000     8.6016     2.2283     111.6396   199.0010   0.4326     2.9133     2.8968    
3280.9000  8.5000     8.6016     2.2208     110.8902   196.2606   0.4262     2.9275     2.9520    
3281.0000  8.5000     8.5781     2.2143     111.1706   196.6182   0.4248     2.9097     2.9429    
3281.1000  8.5000     8.6016     2.2108     111.4806   197.8921   0.4211     3.0134     3.1525    
3281.2000  8.5000     8.6250     2.2108     111.7160   198.4695   0.4217     2.8978     2.9228    
3281.3000  8.5000     8.6250     2.2125     111.7387   199.4558   0.4216     2.7467     2.6252    
3281.4000  8.5000     8.6250     2.2150     111.3974   200.7543   0.4180     2.6975     2.4777    
3281.5000  8.5000     8.6250     2.2185     110.9925   200.9689   0.4136     2.7761     2.6137    
3281.6000  8.5000     8.6250     2.2243     110.7726   200.2794   0.4131     2.9062     2.9068    
3281.7000  8.5000     8.6250     2.2330     110.9958   206.6173   0.4177     2.9124     2.8319    
3281.8000  8.5000     8.5781     2.2431     111.5127   219.7651   0.4255     2.8767     2.7539    
3281.9000  8.5000     8.6250     2.2523     112.5174   229.2840   0.4236     2.8908     2.7592    
3282.0000  8.5000     8.6250     2.2587     112.9575   233.7235   0.4176     2.9315     2.8157    
3282.1000  8.5000     8.6250     2.2611     112.9965   232.2308   0.4098     2.9642     2.8734    
3282.2000  8.5000     8.6250     2.2599     112.3435   228.8509   0.4053     3.0055     2.9692    
3282.3000  8.5000     8.6250     2.2564     111.6615   221.2496   0.4060     3.0154     2.9917    
3282.4000  8.5000     8.6250     2.2516     110.9741   210.9850   0.4101     2.9925     2.9473    
3282.5000  8.5000     8.6250     2.2450     110.4274   199.4569   0.4147     2.9516     2.8663    
3282.6000  8.5000     8.6250     2.2364     110.1130   191.1153   0.4153     2.9433     2.7965    
3282.7000  8.5000     8.6250     2.2273     109.9912   186.0906   0.4110     3.1213     3.1068    
3282.8000  8.5000     8.6250     2.2195     110.1546   185.6687   0.4082     3.2523     3.4329    
3282.9000  8.5000     8.6250     2.2140     110.4535   185.3655   0.4122     3.2521     3.3661    
3283.0000  8.5000     8.6250     2.2117     110.8843   189.6370   0.4202     3.1415     3.1274    
3283.1000  8.5000     8.6016     2.2137     111.2790   194.3696   0.4242     3.0878     3.0273    
3283.2000  8.5000     8.6250     2.2199     111.5947   203.7622   0.4195     3.0775     2.9729    
3283.3000  8.5000     8.5781     2.2270     111.8153   215.5564   0.4145     3.1342     3.0299    
3283.4000  8.5000     8.5781     2.2309     112.0685   223.8524   0.4112     3.2483     3.2260    
3283.5000  8.5000     8.5781     2.2310     111.9736   224.8918   0.4144     3.3467     3.4704    
3283.6000  8.5000     8.5781     2.2287     111.3921   218.7751   0.4196     3.2311     3.1461    
3283.7000  8.5000     8.5781     2.2271     110.7491   208.7537   0.4195     3.0039     2.7030    
3283.8000  8.5000     8.6016     2.2275     110.3848   200.3573   0.4189     3.0388     2.7694    
3283.9000  8.5000     8.6016     2.2307     110.5063   196.7930   0.4098     3.1503     2.9245    
3284.0000  8.5000     8.5781     2.2374     110.6733   199.8205   0.4024     3.2021     3.0068    
3284.1000  8.5000     8.5781     2.2481     110.9100   208.8457   0.3941     3.2055     2.9470    
3284.2000  8.5000     8.5781     2.2603     111.2755   216.6187   0.3910     3.2433     2.9725    
3284.3000  8.5000     8.5781     2.2709     111.5670   219.1383   0.3942     3.2933     3.0516    
3284.4000  8.5000     8.5781     2.2777     111.8577   228.5055   0.4041     3.3447     3.1287    
3284.5000  8.5000     8.5781     2.2799     112.1957   246.5660   0.4186     3.4132     3.2131    
3284.6000  8.5000     8.6016     2.2777     112.5067   259.3681   0.4308     3.5375     3.3587    
3284.7000  8.5000     8.5781     2.2724     112.7966   263.3657   0.4417     3.6419     3.5268    
3284.8000  8.5000     8.5781     2.2662     113.0453   260.5278   0.4419     3.6993     3.6146    
3284.9000  8.5000     8.5781     2.2598     113.2627   256.6818   0.4369     3.6566     3.4911    
3285.0000  8.5000     8.5781     2.2535     113.5081   250.1257   0.4324     3.5803     3.3103    
3285.1000  8.5000     8.5781     2.2466     113.9425   242.7585   0.4309     3.6139     3.4240    
3285.2000  8.5000     8.5781     2.2396     114.3653   239.9002   0.4350     3.8136     3.6858    
3285.3000  8.5000     8.5781     2.2331     114.7781   243.5033   0.4438     3.9564     3.8889    
