~Version
 VERS              .         2.0                           : CWLS LOG ASCII STANDARD - VERSION 2.0
 WRAP              .         NO                            : ONE LINE PER DEPTH STEP
 DLM               .         SPACE                         : DELIMITING CHARACTER(SPACE TAB OR COMMA)
~Well Information
#_______________________________________________________________________________
#
#PARAMETER_NAME    .UNIT     VALUE                         : DESCRIPTION
#_______________________________________________________________________________
STRT               .m        2605.0000                     : First reference value
STOP               .m        3625.0000                     : Last reference value
STEP               .m        0.1000                        : Step increment
NULL               .         -9999                         : Missing value
COMP               .                                       : Company
WELL               .         Well-A                        : Well name
~Parameter Information Block
#_______________________________________________________________________________
#
#PARAMETER_NAME    .UNIT     VALUE                         : DESCRIPTION
#_______________________________________________________________________________
SET                .         Data_Output                   : 
TLFamily_BS        .         Bit Size                      : 
TLFamily_CALI      .         Caliper                       : 
TLFamily_DENS      .         Bulk Density                  : 
TLFamily_DT        .         Compressional Slowness        : 
TLFamily_GR        .         Gamma Ray                     : 
TLFamily_MD        .         Measured Depth                : 
TLFamily_NPHI      .         Thermal Neutron Porosity      : 
TLFamily_RS        .         Resistivity - Phase Shift     : 
TLFamily_RT        .         Resistivity - True Formation  : 
~Curve Information
#_______________________________________________________________________________
#
#LOGNAME           .UNIT     LOG_ID                        : DESCRIPTION
#_______________________________________________________________________________
MD                 .m                                      :  
BS                 .inches                                 :  
CALI               .inches                                 :  
DENS               .g/cm3                                  :  
DT                 .us/ft                                  :  
GR                 .API                                    :  
NPHI               .v/v                                    :  
RS                 .ohm.m                                  :  
RT                 .ohm.m                                  :  
~Ascii
# ...
2669.8000  8.5000     8.5469     2.2587     105.7335   62.2594    0.3162     0.5492     0.5532    
2669.9000  8.5000     8.5469     2.2734     105.8869   67.1087    0.3146     0.5782     0.6029    
2670.0000  8.5000     8.5469     2.2822     106.0543   70.0356    0.3145     0.5970     0.6286    
2670.1000  8.5000     8.5469     2.2835     106.2096   70.8287    0.3207     0.5982     0.6186    
2670.2000  8.5000     8.5000     2.2785     106.3546   66.4961    0.3279     0.5955     0.5881    
2670.3000  8.5000     8.5000     2.2722     106.5547   62.6833    0.3323     0.5867     0.5652    
2670.4000  8.5000     8.5469     2.2695     106.7950   62.1676    0.3338     0.5935     0.5794    
2670.5000  8.5000     8.5469     2.2714     107.0787   63.8915    0.3291     0.6011     0.6137    
2670.6000  8.5000     8.5469     2.2748     107.2547   63.0628    0.3196     0.6009     0.6391    
2670.7000  8.5000     8.5469     2.2739     107.4442   61.1026    0.3090     0.5887     0.6362    
2670.8000  8.5000     8.5469     2.2640     107.6606   57.5956    0.3047     0.5605     0.5971    
2670.9000  8.5000     8.5000     2.2446     108.0040   51.8410    0.3033     0.4866     0.5058    
2671.0000  8.5000     8.5000     2.2209     108.4522   47.9751    0.3063     0.4025     0.3774    
2671.1000  8.5000     8.5000     2.2006     109.0509   46.2483    0.3114     0.3816     0.3352    
2671.2000  8.5000     8.5234     2.1895     109.4419   48.8940    0.3127     0.3913     0.3535    
2671.3000  8.5000     8.5469     2.1876     109.7115   50.1412    0.3134     0.4165     0.4071    
2671.4000  8.5000     8.5469     2.1898     109.8059   50.8224    0.3109     0.4259     0.4459    
2671.5000  8.5000     8.5469     2.1893     109.6527   48.3179    0.3074     0.4095     0.4228    
2671.6000  8.5000     8.5000     2.1823     109.2877   44.6530    0.3076     0.3704     0.3664    
2671.7000  8.5000     8.5469     2.1700     108.5318   42.9905    0.3049     0.3133     0.3024    
2671.8000  8.5000     8.5469     2.1567     107.5394   41.7479    0.3085     0.2942     0.2917    
2671.9000  8.5000     8.5000     2.1489     106.2453   41.4882    0.3200     0.3461     0.3593    
2672.0000  8.5000     8.5000     2.1504     104.2011   43.5302    0.3332     0.3993     0.3890    
2672.1000  8.5000     8.5469     2.1600     101.1565   43.7824    0.3448     0.4399     0.4021    
2672.2000  8.5000     8.5469     2.1734     97.7383    47.0856    0.3527     0.4604     0.3781    
2672.3000  8.5000     8.5469     2.1909     94.5110    49.1519    0.3471     0.4885     0.3923    
2672.4000  8.5000     8.5469     2.2173     91.6184    53.4878    0.3243     0.5537     0.5207    
2672.5000  8.5000     8.5781     2.2541     88.9942    59.7872    0.2890     0.6770     0.7583    
2672.6000  8.5000     8.5469     2.2958     86.9783    61.7451    0.2580     0.7930     1.0013    
2672.7000  8.5000     8.5469     2.3339     85.9062    59.5020    0.2342     0.9842     1.4180    
2672.8000  8.5000     8.5781     2.3624     85.4721    54.8030    0.2196     1.2577     1.9611    
2672.9000  8.5000     8.5469     2.3822     85.4096    49.6648    0.2172     1.4301     2.1028    
2673.0000  8.5000     8.5781     2.3977     85.5186    48.4651    0.2216     1.5023     2.0524    
2673.1000  8.5000     8.5469     2.4128     85.6485    45.0828    0.2383     1.5709     2.0993    
2673.2000  8.5000     8.5469     2.4239     83.0310    43.1654    0.2672     1.6177     2.2989    
2673.3000  8.5000     8.5469     2.4211     80.1583    46.4106    0.3027     1.5915     2.3432    
2673.4000  8.5000     8.5469     2.4008     77.0128    53.1794    0.3309     1.4331     1.8466    
2673.5000  8.5000     8.5469     2.3711     73.0616    58.5776    0.3382     1.2968     1.8488    
2673.6000  8.5000     8.5469     2.3450     69.8021    62.3984    0.3199     1.1768     1.6114    
2673.7000  8.5000     8.5781     2.3314     67.3801    63.8800    0.2902     1.1011     1.3291    
2673.8000  8.5000     8.5781     2.3302     65.9704    63.6863    0.2648     1.0229     1.2356    
2673.9000  8.5000     8.5469     2.3365     65.1201    60.2388    0.2513     0.9652     1.2252    
2674.0000  8.5000     8.5469     2.3449     64.9611    56.7919    0.2549     0.9193     1.2976    
2674.1000  8.5000     8.5781     2.3491     65.2436    56.3353    0.2790     0.8895     1.6426    
2674.2000  8.5000     8.5469     2.3430     65.6190    59.2023    0.3078     0.7449     1.1588    
2674.3000  8.5000     8.5469     2.3206     66.0631    61.2858    0.3328     0.6085     0.7241    
2674.4000  8.5000     8.5469     2.2982     66.2589    63.3719    0.3578     0.5138     0.4519    
2674.5000  8.5000     8.5000     2.2709     66.3075    66.7945    0.3644     0.4907     0.4088    
2674.6000  8.5000     8.5000     2.2509     66.1422    66.0790    0.3577     0.4975     0.4449    
2674.7000  8.5000     8.5469     2.2415     65.9177    66.1705    0.3485     0.5103     0.4832    
2674.8000  8.5000     8.5469     2.2393     65.8328    65.9318    0.3434     0.5134     0.5289    
2674.9000  8.5000     8.5000     2.2387     66.1573    62.1252    0.3415     0.5193     0.5500    
2675.0000  8.5000     8.5234     2.2355     67.1032    58.1304    0.3430     0.4998     0.4846    
2675.1000  8.5000     8.5117     2.2296     68.4168    55.9677    0.3540     0.4684     0.4359    
2675.2000  8.5000     8.5000     2.2245     70.2777    55.8365    0.3618     0.4475     0.4279    
2675.3000  8.5000     8.5469     2.2241     71.7360    59.6524    0.3709     0.4435     0.4332    
2675.4000  8.5000     8.5469     2.2281     72.8369    65.4712    0.3758     0.4585     0.4638    
2675.5000  8.5000     8.5469     2.2326     73.0798    67.1193    0.3743     0.4687     0.5036    
2675.6000  8.5000     8.5469     2.2340     72.6853    65.1554    0.3677     0.4616     0.4934    
2675.7000  8.5000     8.5000     2.2318     71.9357    63.7767    0.3608     0.4542     0.4781    
2675.8000  8.5000     8.5469     2.2280     71.0658    63.5296    0.3484     0.4421     0.4661    
2675.9000  8.5000     8.5469     2.2243     70.7914    62.3500    0.3398     0.4362     0.4570    
2676.0000  8.5000     8.5000     2.2198     70.9923    60.5451    0.3368     0.4315     0.4537    
2676.1000  8.5000     8.5000     2.2143     72.1736    56.9029    0.3334     0.4254     0.4550    
2676.2000  8.5000     8.5000     2.2098     74.0540    54.7973    0.3294     0.4219     0.4570    
2676.3000  8.5000     8.5000     2.2081     76.4631    52.5758    0.3236     0.4223     0.4669    
2676.4000  8.5000     8.5000     2.2095     78.2117    51.6165    0.3171     0.4304     0.4931    
2676.5000  8.5000     8.5000     2.2119     81.4310    53.2740    0.3110     0.4409     0.5193    
2676.6000  8.5000     8.5000     2.2114     86.0578    53.1855    0.3028     0.4393     0.5186    
2676.7000  8.5000     8.5469     2.2056     88.1576    53.7139    0.2883     0.4277     0.4852    
2676.8000  8.5000     8.5469     2.1965     89.8558    53.3591    0.2768     0.3999     0.4109    
2676.9000  8.5000     8.5000     2.1886     91.1288    49.1183    0.2727     0.3770     0.3525    
2677.0000  8.5000     8.5000     2.1848     92.4630    42.7995    0.2699     0.3882     0.3830    
2677.1000  8.5000     8.5000     2.1831     94.0492    41.3883    0.2686     0.3869     0.3798    
2677.2000  8.5000     8.5000     2.1800     95.9845    40.2374    0.2676     0.3811     0.3755    
2677.3000  8.5000     8.5000     2.1755     97.1883    38.1601    0.2685     0.3732     0.3677    
2677.4000  8.5000     8.5000     2.1718     98.3193    38.9166    0.2715     0.3626     0.3575    
2677.5000  8.5000     8.4688     2.1701     99.4795    38.8606    0.2758     0.3547     0.3517    
2677.6000  8.5000     8.4688     2.1691     100.0312   35.8274    0.2793     0.3461     0.3425    
2677.7000  8.5000     8.4688     2.1674     100.4171   34.7863    0.2805     0.3398     0.3381    
2677.8000  8.5000     8.4688     2.1648     100.6919   35.5834    0.2794     0.3360     0.3346    
