~Version
 VERS              .         2.0                           : CWLS LOG ASCII STANDARD - VERSION 2.0
 WRAP              .         NO                            : ONE LINE PER DEPTH STEP
 DLM               .         SPACE                         : DELIMITING CHARACTER(SPACE TAB OR COMMA)
~Well Information
#_______________________________________________________________________________
#
#PARAMETER_NAME    .UNIT     VALUE                         : DESCRIPTION
#_______________________________________________________________________________
STRT               .m        2574.0000                     : First reference value
STOP               .m        4550.0000                     : Last reference value
STEP               .m        0.1000                        : Step increment
NULL               .         -9999                         : Missing value
COMP               .                                       : Company
WELL               .         Well-D                        : Well name
~Parameter Information Block
#_______________________________________________________________________________
#
#PARAMETER_NAME    .UNIT     VALUE                         : DESCRIPTION
#_______________________________________________________________________________
SET                .         Data_Output                   : 
TLFamily_BS        .         Bit Size                      : 
TLFamily_CALI      .         Caliper                       : 
TLFamily_DENS      .         Bulk Density                  : 
TLFamily_DT        .         Compressional Slowness        : 
TLFamily_DTS       .         Shear Slowness                : 
TLFamily_GR        .         Gamma Ray                     : 
TLFamily_MD        .         Measured Depth                : 
TLFamily_NPHI      .         Thermal Neutron Porosity      : 
TLFamily_RS        .         Resistivity - Phase Shift     : 
TLFamily_RT        .         Resistivity - True Formation  : 
~Curve Information
#_______________________________________________________________________________
#
#LOGNAME           .UNIT     LOG_ID                        : DESCRIPTION
#_______________________________________________________________________________
MD                 .m                                      :  
BS                 .inches                                 :  
CALI               .inches                                 :  
DENS               .g/cm3                                  :  
DT                 .us/ft                                  :  
DTS                .us/ft                                  :  
GR                 .API                                    :  
NPHI               .v/v                                    :  
RS                 .ohm.m                                  :  
RT                 .ohm.m                                  :  
~Ascii
# ...
2705.4000  8.5000     8.6250     2.1370     104.0660   202.2510   25.7210    0.2910     0.3850     0.3480    
2705.5000  8.5000     8.6250     2.1390     104.0840   201.9400   25.6660    0.2960     0.3860     0.3500    
2705.6000  8.5000     8.6250     2.1400     104.0600   201.6720   26.3840    0.2970     0.3860     0.3470    
2705.7000  8.5000     8.6250     2.1400     103.9820   201.4930   27.7820    0.2940     0.3860     0.3540    
2705.8000  8.5000     8.6250     2.1380     103.9540   201.8130   27.9160    0.2880     0.3860     0.3520    
2705.9000  8.5000     8.6250     2.1370     103.9770   202.1520   27.4770    0.2810     0.3860     0.3520    
2706.0000  8.5000     8.6020     2.1360     104.0760   202.4360   27.7660    0.2780     0.3860     0.3530    
2706.1000  8.5000     8.5780     2.1370     104.1330   202.8040   27.3180    0.2750     0.3870     0.3550    
2706.2000  8.5000     8.5780     2.1400     104.1640   203.2040   24.3750    0.2740     0.3880     0.3550    
2706.3000  8.5000     8.6250     2.1430     104.1580   203.6400   25.4780    0.2800     0.3870     0.3540    
2706.4000  8.5000     8.6250     2.1440     104.0670   203.9780   28.9320    0.2850     0.3860     0.3490    
2706.5000  8.5000     8.6250     2.1420     103.9720   204.1970   29.0450    0.2830     0.3850     0.3450    
2706.6000  8.5000     8.6250     2.1380     103.9170   204.1740   29.1130    0.2760     0.3840     0.3450    
2706.7000  8.5000     8.6250     2.1350     103.8210   203.7310   27.7150    0.2700     0.3850     0.3410    
2706.8000  8.5000     8.6250     2.1340     103.6620   203.0270   29.0410    0.2690     0.3860     0.3440    
2706.9000  8.5000     8.6250     2.1350     103.3370   201.9100   28.1570    0.2730     0.3870     0.3470    
2707.0000  8.5000     8.6250     2.1370     103.0980   200.5780   27.1730    0.2810     0.3870     0.3510    
2707.1000  8.5000     8.6250     2.1370     102.9060   199.1650   27.1040    0.2880     0.3890     0.3540    
2707.2000  8.5000     8.6250     2.1360     102.7660   197.7780   26.5900    0.2930     0.3880     0.3490    
2707.3000  8.5000     8.6250     2.1350     102.6490   196.6490   26.0110    0.2950     0.3870     0.3530    
2707.4000  8.5000     8.6250     2.1350     102.5520   195.7320   25.1590    0.2920     0.3870     0.3520    
2707.5000  8.5000     8.6250     2.1360     102.5050   195.3090   26.1910    0.2880     0.3860     0.3510    
2707.6000  8.5000     8.6250     2.1380     102.4540   195.3490   24.2290    0.2830     0.3850     0.3450    
2707.7000  8.5000     8.6250     2.1390     102.4120   195.7640   24.6550    0.2780     0.3880     0.3560    
2707.8000  8.5000     8.6250     2.1400     102.4790   197.0280   25.1320    0.2720     0.3890     0.3570    
2707.9000  8.5000     8.6250     2.1400     102.5060   198.7090   25.9120    0.2680     0.3910     0.3580    
2708.0000  8.5000     8.6250     2.1400     102.5020   200.7190   26.4230    0.2690     0.3920     0.3590    
2708.1000  8.5000     8.6250     2.1390     102.4780   202.9800   26.4770    0.2750     0.3950     0.3550    
2708.2000  8.5000     8.6250     2.1380     102.4340   204.9550   27.3850    0.2810     0.3950     0.3550    
2708.3000  8.5000     8.6250     2.1370     102.3730   206.6730   27.8940    0.2850     0.3960     0.3570    
2708.4000  8.5000     8.6250     2.1370     102.3660   207.6140   26.7770    0.2820     0.3960     0.3570    
2708.5000  8.5000     8.6250     2.1400     102.3830   208.2770   25.2140    0.2770     0.3970     0.3540    
2708.6000  8.5000     8.6250     2.1440     102.4290   208.6210   25.6270    0.2730     0.3980     0.3570    
2708.7000  8.5000     8.6250     2.1470     102.5620   208.7220   24.4110    0.2710     0.3980     0.3560    
2708.8000  8.5000     8.6250     2.1470     102.6290   208.7540   25.6080    0.2720     0.4000     0.3540    
2708.9000  8.5000     8.6250     2.1450     102.5970   208.7110   25.7560    0.2760     0.4000     0.3580    
2709.0000  8.5000     8.6250     2.1450     102.5400   208.4240   24.9510    0.2790     0.4000     0.3600    
2709.1000  8.5000     8.6250     2.1450     102.4690   207.9720   24.1330    0.2810     0.3990     0.3620    
2709.2000  8.5000     8.6250     2.1450     102.3790   207.2900   23.7420    0.2810     0.4010     0.3670    
2709.3000  8.5000     8.6250     2.1420     102.4930   206.3240   25.1840    0.2810     0.4010     0.3610    
2709.4000  8.5000     8.6250     2.1380     102.6070   205.1790   24.7280    0.2810     0.4010     0.3640    
2709.5000  8.5000     8.6250     2.1350     102.6420   203.7690   26.6360    0.2820     0.3990     0.3650    
2709.6000  8.5000     8.6250     2.1330     102.5020   203.0240   26.9910    0.2830     0.3980     0.3590    
2709.7000  8.5000     8.6250     2.1340     102.2790   202.9520   26.7630    0.2830     0.3960     0.3550    
2709.8000  8.5000     8.6250     2.1370     101.9550   204.1950   25.7460    0.2800     0.3950     0.3560    
2709.9000  8.5000     8.5780     2.1400     101.6730   206.0170   25.8260    0.2810     0.3950     0.3550    
2710.0000  8.5000     8.6020     2.1400     101.4010   207.7410   25.3660    0.2800     0.3950     0.3540    
2710.1000  8.5000     8.6250     2.1390     101.1240   208.5090   25.4950    0.2830     0.3950     0.3530    
2710.2000  8.5000     8.6250     2.1360     101.3710   208.3330   25.9600    0.2850     0.3960     0.3560    
2710.3000  8.5000     8.6250     2.1340     101.8370   207.4770   26.1060    0.2860     0.3950     0.3550    
2710.4000  8.5000     8.6250     2.1330     102.3040   205.3370   27.0240    0.2850     0.3920     0.3560    
2710.5000  8.5000     8.6250     2.1340     102.4210   203.8040   26.8720    0.2820     0.3900     0.3540    
2710.6000  8.5000     8.6250     2.1360     102.3250   202.7680   27.7160    0.2760     0.3880     0.3530    
2710.7000  8.5000     8.6250     2.1390     102.0230   202.8950   24.9680    0.2710     0.3860     0.3470    
2710.8000  8.5000     8.6250     2.1390     101.7980   203.8140   23.6450    0.2720     0.3860     0.3430    
2710.9000  8.5000     8.5780     2.1370     101.6390   205.3340   26.0670    0.2790     0.3870     0.3460    
2711.0000  8.5000     8.6250     2.1340     101.6710   207.8660   27.2490    0.2820     0.3860     0.3480    
2711.1000  8.5000     8.6250     2.1310     101.7210   209.8830   26.4560    0.2860     0.3860     0.3500    
2711.2000  8.5000     8.6250     2.1290     101.7770   211.4230   26.0120    0.2900     0.3870     0.3480    
2711.3000  8.5000     8.6250     2.1290     101.6600   211.1080   26.6700    0.2960     0.3880     0.3480    
2711.4000  8.5000     8.5780     2.1310     101.4810   210.3650   27.0330    0.2970     0.3880     0.3460    
2711.5000  8.5000     8.6250     2.1360     101.2420   209.2050   26.3980    0.2980     0.3890     0.3460    
2711.6000  8.5000     8.6250     2.1430     100.8760   205.7660   27.2220    0.2950     0.3880     0.3490    
2711.7000  8.5000     8.6250     2.1510     100.5440   203.6680   27.8090    0.2900     0.3910     0.3540    
2711.8000  8.5000     8.6250     2.1550     100.2530   203.1290   28.1830    0.2830     0.3940     0.3570    
2711.9000  8.5000     8.5780     2.1560     100.0570   199.3600   26.1200    0.2790     0.3950     0.3580    
2712.0000  8.5000     8.6020     2.1550     99.9380    195.9830   25.3010    0.2720     0.3960     0.3560    
2712.1000  8.5000     8.6250     2.1530     99.9200    193.4200   26.1310    0.2730     0.3960     0.3540    
2712.2000  8.5000     8.5780     2.1530     99.6980    189.2940   27.3880    0.2690     0.3980     0.3540    
2712.3000  8.5000     8.6250     2.1540     99.4120    185.7070   27.2640    0.2700     0.4010     0.3620    
2712.4000  8.5000     8.5780     2.1570     99.0580    183.3480   25.3680    0.2680     0.4030     0.3640    
2712.5000  8.5000     8.6250     2.1630     98.6600    181.6000   27.4090    0.2700     0.4060     0.3620    
2712.6000  8.5000     8.5780     2.1690     98.2510    180.2100   27.3350    0.2650     0.4080     0.3630    
