~Version
 VERS              .         2.0                           : CWLS LOG ASCII STANDARD - VERSION 2.0
 WRAP              .         NO                            : ONE LINE PER DEPTH STEP
 DLM               .         SPACE                         : DELIMITING CHARACTER(SPACE TAB OR COMMA)
~Well Information
#_______________________________________________________________________________
#
#PARAMETER_NAME    .UNIT     VALUE                         : DESCRIPTION
#_______________________________________________________________________________
STRT               .m        2574.0000                     : First reference value
STOP               .m        4550.0000                     : Last reference value
STEP               .m        0.1000                        : Step increment
NULL               .         -9999                         : Missing value
COMP               .                                       : Company
WELL               .         Well-D                        : Well name
~Parameter Information Block
#_______________________________________________________________________________
#
#PARAMETER_NAME    .UNIT     VALUE                         : DESCRIPTION
#_______________________________________________________________________________
SET                .         Data_Output                   : 
TLFamily_BS        .         Bit Size                      : 
TLFamily_CALI      .         Caliper                       : 
TLFamily_DENS      .         Bulk Density                  : 
TLFamily_DT        .         Compressional Slowness        : 
TLFamily_DTS       .         Shear Slowness                : 
TLFamily_GR        .         Gamma Ray                     : 
TLFamily_MD        .         Measured Depth                : 
TLFamily_NPHI      .         Thermal Neutron Porosity      : 
TLFamily_RS        .         Resistivity - Phase Shift     : 
TLFamily_RT        .         Resistivity - True Formation  : 
~Curve Information
#_______________________________________________________________________________
#
#LOGNAME           .UNIT     LOG_ID                        : DESCRIPTION
#_______________________________________________________________________________
MD                 .m                                      :  
BS                 .inches                                 :  
CALI               .inches                                 :  
DENS               .g/cm3                                  :  
DT                 .us/ft                                  :  
DTS                .us/ft                                  :  
GR                 .API                                    :  
NPHI               .v/v                                    :  
RS                 .ohm.m                                  :  
RT                 .ohm.m                                  :  
~Ascii
# ...
3749.3000  8.5000     8.7500     2.5220     70.1090    130.1560   13.1520    0.1200     2.6310     3.0570    
3749.4000  8.5000     8.7500     2.5220     69.9300    130.1890   12.4890    0.1190     2.6410     3.0600    
3749.5000  8.5000     8.7500     2.5230     69.7780    130.0060   12.6140    0.1190     2.6520     3.0880    
3749.6000  8.5000     8.7270     2.5240     69.6720    129.5390   12.1970    0.1210     2.6720     3.0940    
3749.7000  8.5000     8.7030     2.5240     69.5610    128.9160   11.6490    0.1210     2.6720     3.1010    
3749.8000  8.5000     8.7270     2.5260     69.4440    128.1380   11.7270    0.1220     2.6750     3.1090    
3749.9000  8.5000     8.7030     2.5290     69.4180    127.0520   12.0990    0.1220     2.6880     3.1230    
3750.0000  8.5000     8.7270     2.5320     69.4190    125.9060   11.9870    0.1190     2.6990     3.1400    
3750.1000  8.5000     8.7270     2.5340     69.4480    124.6940   12.4990    0.1200     2.7120     3.1770    
3750.2000  8.5000     8.7500     2.5340     69.5650    124.2590   12.5220    0.1150     2.7360     3.2060    
3750.3000  8.5000     8.7500     2.5330     69.6940    124.4590   11.9490    0.1120     2.7420     3.2240    
3750.4000  8.5000     8.7500     2.5330     69.8310    125.4960   11.5460    0.1090     2.7520     3.2250    
3750.5000  8.5000     8.7500     2.5350     69.9300    125.8480   12.0550    0.1080     2.7580     3.2330    
3750.6000  8.5000     8.7500     2.5370     70.0210    126.4520   11.4220    0.1090     2.7620     3.2430    
3750.7000  8.5000     8.7500     2.5370     70.1040    127.6680   12.2440    0.1090     2.7660     3.2420    
3750.8000  8.5000     8.7500     2.5380     70.1740    128.8350   12.7040    0.1110     2.7740     3.2380    
3750.9000  8.5000     8.7500     2.5400     70.2370    130.2180   11.7670    0.1120     2.7710     3.2390    
3751.0000  8.5000     8.7500     2.5440     70.2910    132.1020   11.7210    0.1130     2.7770     3.2390    
3751.1000  8.5000     8.7500     2.5490     70.3140    133.5350   12.0060    0.1140     2.7820     3.2380    
3751.2000  8.5000     8.7500     2.5530     70.3180    134.3190   11.9140    0.1130     2.7950     3.2470    
3751.3000  8.5000     8.7660     2.5570     70.2910    133.6240   12.8090    0.1110     2.7950     3.2550    
3751.4000  8.5000     8.7730     2.5580     70.2420    132.0380   12.7260    0.1120     2.8120     3.2670    
3751.5000  8.5000     8.7810     2.5560     70.2000    130.2880   12.2670    0.1130     2.8200     3.2790    
3751.6000  8.5000     8.7810     2.5510     70.2130    129.0840   12.5180    0.1150     2.8240     3.2800    
3751.7000  8.5000     8.7810     2.5470     70.1060    128.0700   12.2660    0.1170     2.8440     3.2860    
3751.8000  8.5000     8.7660     2.5420     69.9320    127.2560   12.9010    0.1210     2.8600     3.2840    
3751.9000  8.5000     8.7500     2.5380     69.6940    127.0130   13.1290    0.1230     2.8560     3.2820    
3752.0000  8.5000     8.7500     2.5330     69.4320    126.2780   13.7330    0.1250     2.8530     3.2590    
3752.1000  8.5000     8.7660     2.5290     69.1560    125.3610   12.7780    0.1230     2.8560     3.2330    
3752.2000  8.5000     8.7660     2.5280     68.8650    125.1100   12.5010    0.1230     2.8590     3.2340    
3752.3000  8.5000     8.7500     2.5280     68.5590    124.4300   12.0020    0.1200     2.8630     3.2350    
3752.4000  8.5000     8.7500     2.5280     68.2510    123.4430   10.3490    0.1170     2.8700     3.2190    
3752.5000  8.5000     8.7270     2.5270     68.0660    122.2880   9.4980     0.1180     2.8800     3.2060    
3752.6000  8.5000     8.7030     2.5240     67.9400    121.1350   9.8440     0.1160     2.8770     3.1880    
3752.7000  8.5000     8.7030     2.5200     67.8670    119.9910   8.9060     0.1150     2.8880     3.2020    
3752.8000  8.5000     8.7030     2.5160     67.8660    119.1410   8.0780     0.1140     2.9020     3.2150    
3752.9000  8.5000     8.7030     2.5130     67.7830    118.7730   7.9960     0.1130     2.9190     3.2430    
3753.0000  8.5000     8.7500     2.5100     67.6170    118.8900   7.9990     0.1100     2.9330     3.2710    
3753.1000  8.5000     8.7500     2.5100     67.3320    119.2140   8.2280     0.1090     2.9420     3.2980    
3753.2000  8.5000     8.7500     2.5130     67.0670    119.3890   9.4720     0.1090     2.9480     3.2910    
3753.3000  8.5000     8.7500     2.5170     66.8340    119.3760   9.3880     0.1080     2.9620     3.3110    
3753.4000  8.5000     8.7500     2.5220     66.6960    119.4480   9.2920     0.1080     2.9790     3.3340    
3753.5000  8.5000     8.7500     2.5260     66.6080    119.3010   9.2940     0.1070     2.9930     3.3480    
3753.6000  8.5000     8.7500     2.5290     66.5830    118.8210   8.6810     0.1070     3.0010     3.3550    
3753.7000  8.5000     8.7500     2.5320     66.6990    118.1720   8.0560     0.1070     3.0140     3.3800    
3753.8000  8.5000     8.7030     2.5340     66.8780    117.4130   8.3190     0.1100     3.0330     3.4110    
3753.9000  8.5000     8.7270     2.5350     67.1340    116.5000   9.4380     0.1070     3.0530     3.4370    
3754.0000  8.5000     8.7030     2.5360     67.3160    116.3330   9.8610     0.1100     3.0640     3.4580    
3754.1000  8.5000     8.7270     2.5370     67.4800    116.3210   9.6700     0.1070     3.0680     3.4740    
3754.2000  8.5000     8.7270     2.5390     67.6420    116.3150   9.6930     0.1090     3.0800     3.4970    
3754.3000  8.5000     8.7270     2.5390     67.5810    116.5300   9.0070     0.1050     3.0980     3.5140    
3754.4000  8.5000     8.7500     2.5360     67.4840    116.8500   9.2190     0.1030     3.1110     3.5620    
3754.5000  8.5000     8.7500     2.5330     67.4600    117.2930   9.4180     0.1010     3.1300     3.6050    
3754.6000  8.5000     8.7500     2.5330     67.6370    118.0350   9.3260     0.1000     3.1480     3.6370    
3754.7000  8.5000     8.7030     2.5340     67.8880    118.8930   10.2110    0.1040     3.1740     3.6910    
3754.8000  8.5000     8.7030     2.5380     68.1430    119.7740   10.2570    0.1050     3.1910     3.7390    
3754.9000  8.5000     8.7030     2.5410     68.4450    120.6480   11.1270    0.1080     3.2150     3.7870    
3755.0000  8.5000     8.7030     2.5450     68.7530    121.5560   11.9810    0.1100     3.2320     3.8530    
3755.1000  8.5000     8.7030     2.5470     68.9860    122.6470   11.8460    0.1120     3.2500     3.8930    
3755.2000  8.5000     8.7030     2.5500     69.0790    123.5510   12.9660    0.1130     3.2470     3.8810    
3755.3000  8.5000     8.7500     2.5500     69.0960    124.2790   13.2020    0.1100     3.2410     3.8880    
3755.4000  8.5000     8.7500     2.5490     69.1410    124.4660   13.3800    0.1090     3.2480     3.9160    
3755.5000  8.5000     8.7500     2.5460     69.1000    124.2790   14.1690    0.1110     3.2760     3.9500    
3755.6000  8.5000     8.7030     2.5430     69.0090    123.8220   14.8030    0.1100     3.2990     4.0020    
3755.7000  8.5000     8.7030     2.5430     69.0740    123.2320   14.9590    0.1100     3.3090     4.0450    
3755.8000  8.5000     8.7030     2.5460     69.1250    122.8910   15.8270    0.1100     3.3290     4.0730    
3755.9000  8.5000     8.7030     2.5510     69.1660    122.7680   16.1550    0.1090     3.3240     4.0860    
3756.0000  8.5000     8.7030     2.5590     69.2460    123.0820   15.4360    0.1080     3.3220     4.0670    
3756.1000  8.5000     8.7030     2.5660     69.3360    123.3910   15.7720    0.1060     3.3240     4.0840    
3756.2000  8.5000     8.7030     2.5710     69.4380    123.6960   15.7270    0.1060     3.3600     4.1650    
3756.3000  8.5000     8.7030     2.5730     69.4930    123.8070   16.3560    0.1060     3.3950     4.2300    
3756.4000  8.5000     8.7030     2.5740     69.4520    124.1620   16.6140    0.1080     3.3970     4.2470    
3756.5000  8.5000     8.7030     2.5750     69.2950    124.8250   16.6260    0.1120     3.4000     4.2470    
