~Version
 VERS              .         2.0                           : CWLS LOG ASCII STANDARD - VERSION 2.0
 WRAP              .         NO                            : ONE LINE PER DEPTH STEP
 DLM               .         SPACE                         : DELIMITING CHARACTER(SPACE TAB OR COMMA)
~Well Information
#_______________________________________________________________________________
#
#PARAMETER_NAME    .UNIT     VALUE                         : DESCRIPTION
#_______________________________________________________________________________
STRT               .m        2605.0000                     : First reference value
STOP               .m        3625.0000                     : Last reference value
STEP               .m        0.1000                        : Step increment
NULL               .         -9999                         : Missing value
COMP               .                                       : Company
WELL               .         Well-A                        : Well name
~Parameter Information Block
#_______________________________________________________________________________
#
#PARAMETER_NAME    .UNIT     VALUE                         : DESCRIPTION
#_______________________________________________________________________________
SET                .         Data_Output                   : 
TLFamily_BS        .         Bit Size                      : 
TLFamily_CALI      .         Caliper                       : 
TLFamily_DENS      .         Bulk Density                  : 
TLFamily_DT        .         Compressional Slowness        : 
TLFamily_GR        .         Gamma Ray                     : 
TLFamily_MD        .         Measured Depth                : 
TLFamily_NPHI      .         Thermal Neutron Porosity      : 
TLFamily_RS        .         Resistivity - Phase Shift     : 
TLFamily_RT        .         Resistivity - True Formation  : 
~Curve Information
#_______________________________________________________________________________
#
#LOGNAME           .UNIT     LOG_ID                        : DESCRIPTION
#_______________________________________________________________________________
MD                 .m                                      :  
BS                 .inches                                 :  
CALI               .inches                                 :  
DENS               .g/cm3                                  :  
DT                 .us/ft                                  :  
GR                 .API                                    :  
NPHI               .v/v                                    :  
RS                 .ohm.m                                  :  
RT                 .ohm.m                                  :  
~Ascii
# ...
2807.5000  8.5000     8.5781     2.4744     70.4658    3.1954     0.1364     1.6512     1.6877    
2807.6000  8.5000     8.5781     2.4844     70.1770    3.0504     0.1366     1.6389     1.6627    
2807.7000  8.5000     8.5469     2.4912     69.9137    3.0233     0.1400     1.6321     1.6404    
2807.8000  8.5000     8.5781     2.4919     69.7345    2.9221     0.1400     1.6283     1.6354    
2807.9000  8.5000     8.5781     2.4854     69.6823    3.2033     0.1427     1.6290     1.6393    
2808.0000  8.5000     8.5781     2.4736     69.6979    3.3659     0.1445     1.6268     1.6557    
2808.1000  8.5000     8.5781     2.4630     69.8085    3.6808     0.1439     1.6206     1.6887    
2808.2000  8.5000     8.5781     2.4588     69.9389    3.0118     0.1410     1.5844     1.6357    
2808.3000  8.5000     8.5781     2.4609     70.0639    2.5782     0.1383     1.5473     1.5643    
2808.4000  8.5000     8.5781     2.4657     70.1558    2.9480     0.1381     1.5123     1.4892    
2808.5000  8.5000     8.5781     2.4689     70.2572    3.0471     0.1405     1.5063     1.4827    
2808.6000  8.5000     8.5781     2.4683     70.3517    2.7695     0.1439     1.5273     1.5555    
2808.7000  8.5000     8.5781     2.4651     70.4048    2.8701     0.1455     1.5504     1.6851    
2808.8000  8.5000     8.5781     2.4629     70.2904    2.8813     0.1434     1.5926     1.8232    
2808.9000  8.5000     8.5781     2.4646     70.0733    2.5306     0.1373     1.5929     1.8548    
2809.0000  8.5000     8.5781     2.4715     69.7272    3.2740     0.1301     1.5932     1.8860    
2809.1000  8.5000     8.5469     2.4833     69.2500    3.6287     0.1286     1.5557     1.7724    
2809.2000  8.5000     8.5469     2.4958     68.6842    3.6965     0.1311     1.4665     1.5373    
2809.3000  8.5000     8.5469     2.5035     68.0218    3.1763     0.1389     1.3554     1.3034    
2809.4000  8.5000     8.5781     2.5014     67.3489    3.0649     0.1473     1.2758     1.1828    
2809.5000  8.5000     8.5781     2.4876     66.6733    1.3344     0.1573     1.2428     1.1325    
2809.6000  8.5000     8.5781     2.4673     66.0760    1.5784     0.1637     1.2408     1.1262    
2809.7000  8.5000     8.5781     2.4472     65.5710    1.5604     0.1663     1.2518     1.1336    
2809.8000  8.5000     8.5781     2.4321     65.1497    2.2565     0.1662     1.2590     1.1319    
2809.9000  8.5000     8.5781     2.4233     65.0006    2.2807     0.1648     1.2880     1.1491    
2810.0000  8.5000     8.5781     2.4216     65.0307    2.2364     0.1622     1.3453     1.2346    
2810.1000  8.5000     8.5781     2.4258     65.2506    2.3319     0.1576     1.3995     1.3141    
2810.2000  8.5000     8.5781     2.4339     66.0062    2.1995     0.1503     1.4727     1.4138    
2810.3000  8.5000     8.5781     2.4437     66.9027    1.9811     0.1411     1.5387     1.5372    
2810.4000  8.5000     8.5781     2.4530     67.9528    1.7106     0.1316     1.6841     1.7920    
2810.5000  8.5000     8.5781     2.4618     69.0147    1.3929     0.1227     1.8779     2.1212    
2810.6000  8.5000     8.5625     2.4710     69.9647    1.4274     0.1168     2.0096     2.3825    
2810.7000  8.5000     8.5469     2.4798     70.7373    1.6069     0.1081     2.1090     2.5040    
2810.8000  8.5000     8.5781     2.4870     71.0726    3.0117     0.1033     2.2403     2.7821    
2810.9000  8.5000     8.5781     2.4920     71.0932    4.0052     0.1026     2.4301     3.3029    
2811.0000  8.5000     8.5469     2.4973     70.6389    3.9077     0.0988     2.6643     3.7455    
2811.1000  8.5000     8.5781     2.5054     69.7707    3.0483     0.0984     2.7212     4.0507    
2811.2000  8.5000     8.5469     2.5161     68.7642    3.0062     0.0946     2.7853     4.0478    
2811.3000  8.5000     8.5469     2.5269     67.6469    3.3627     0.0896     2.7870     3.8586    
2811.4000  8.5000     8.5469     2.5358     66.7092    3.6716     0.0842     2.7676     3.7284    
2811.5000  8.5000     8.5469     2.5441     65.8957    3.9012     0.0798     2.7246     3.4264    
2811.6000  8.5000     8.5469     2.5533     65.2985    4.4981     0.0783     2.5773     2.9556    
2811.7000  8.5000     8.5469     2.5612     64.9900    6.8750     0.0814     2.4612     2.5395    
2811.8000  8.5000     8.5469     2.5625     64.9081    8.3739     0.0905     2.3888     2.2298    
2811.9000  8.5000     8.5469     2.5557     65.2923    10.3873    0.1038     2.3623     1.9817    
2812.0000  8.5000     8.5781     2.5428     65.8525    10.8970    0.1214     2.4972     2.2174    
2812.1000  8.5000     8.5781     2.5268     66.4985    8.8076     0.1340     2.8002     2.9527    
2812.2000  8.5000     8.5781     2.5127     67.1491    6.6005     0.1346     3.2550     4.0825    
2812.3000  8.5000     8.5781     2.5076     67.7907    5.7040     0.1210     3.5270     4.6931    
2812.4000  8.5000     8.5469     2.5192     68.4000    5.9300     0.1009     3.6555     4.9144    
2812.5000  8.5000     8.5469     2.5492     68.7750    4.9325     0.0799     3.7504     5.1715    
2812.6000  8.5000     8.5469     2.5857     69.0530    3.2871     0.0670     3.8466     5.3894    
2812.7000  8.5000     8.5469     2.6121     69.2534    2.6496     0.0631     3.9406     5.6555    
2812.8000  8.5000     8.5469     2.6219     69.3405    2.2756     0.0656     3.9125     5.6063    
2812.9000  8.5000     8.5469     2.6175     69.4029    1.9171     0.0724     3.6938     4.8974    
2813.0000  8.5000     8.5469     2.6042     69.4433    1.8811     0.0811     3.4507     4.1195    
2813.1000  8.5000     8.5469     2.5858     69.5079    2.1356     0.0878     3.3060     3.7268    
2813.2000  8.5000     8.5781     2.5653     69.5824    2.2190     0.0949     3.2635     3.6266    
2813.3000  8.5000     8.5781     2.5460     69.6680    1.7651     0.0992     3.2475     3.5983    
2813.4000  8.5000     8.5781     2.5334     69.8142    2.2847     0.1010     3.1458     3.4053    
2813.5000  8.5000     8.5781     2.5324     70.0091    2.6517     0.1022     3.0752     3.2494    
2813.6000  8.5000     8.5781     2.5399     70.2645    2.7235     0.1044     3.0105     3.1622    
2813.7000  8.5000     8.5781     2.5458     70.6325    3.2064     0.1081     2.9418     3.0224    
2813.8000  8.5000     8.5781     2.5435     71.1132    3.6750     0.1127     2.8647     2.8623    
2813.9000  8.5000     8.5781     2.5328     71.7547    3.9185     0.1166     2.7677     2.6802    
2814.0000  8.5000     8.5781     2.5187     72.2968    4.9934     0.1189     2.7712     2.6416    
2814.1000  8.5000     8.5781     2.5079     72.7831    5.1659     0.1191     2.7581     2.6818    
2814.2000  8.5000     8.5781     2.5037     73.1914    6.2675     0.1174     2.7782     2.8023    
2814.3000  8.5000     8.5781     2.5049     73.4056    5.4722     0.1143     2.7765     2.8591    
2814.4000  8.5000     8.5781     2.5086     73.4982    5.6673     0.1110     2.7942     2.9331    
2814.5000  8.5000     8.5781     2.5126     73.4012    5.7191     0.1076     2.8372     3.0828    
2814.6000  8.5000     8.5781     2.5172     72.8913    6.3132     0.1043     2.8554     3.2702    
2814.7000  8.5000     8.5469     2.5224     72.1663    6.1783     0.1038     2.7809     3.2840    
2814.8000  8.5000     8.5781     2.5267     71.1628    6.0769     0.1010     2.6575     3.2023    
2814.9000  8.5000     8.5781     2.5301     70.0179    6.0919     0.1028     2.5772     3.0821    
2815.0000  8.5000     8.5781     2.5331     68.8952    5.9593     0.1071     2.3984     2.8367    
2815.1000  8.5000     8.5781     2.5338     68.0952    5.3187     0.1134     2.2725     2.5134    
2815.2000  8.5000     8.5781     2.5290     67.8222    5.2344     0.1202     2.0788     2.2367    
2815.3000  8.5000     8.5781     2.5175     67.8643    4.3012     0.1263     1.9477     2.1351    
2815.4000  8.5000     8.5781     2.5024     68.2315    3.2152     0.1314     1.8853     2.1181    
2815.5000  8.5000     8.5781     2.4871     68.7000    3.2533     0.1365     1.8285     2.0942    
