~Version
 VERS              .         2.0                           : CWLS LOG ASCII STANDARD - VERSION 2.0
 WRAP              .         NO                            : ONE LINE PER DEPTH STEP
 DLM               .         SPACE                         : DELIMITING CHARACTER(SPACE TAB OR COMMA)
~Well Information
#_______________________________________________________________________________
#
#PARAMETER_NAME    .UNIT     VALUE                         : DESCRIPTION
#_______________________________________________________________________________
STRT               .m        2605.0000                     : First reference value
STOP               .m        3675.0000                     : Last reference value
STEP               .m        0.1000                        : Step increment
NULL               .         -9999                         : Missing value
COMP               .                                       : Company
WELL               .         Well-B                        : Well name
~Parameter Information Block
#_______________________________________________________________________________
#
#PARAMETER_NAME    .UNIT     VALUE                         : DESCRIPTION
#_______________________________________________________________________________
SET                .         Data_Output                   : 
TLFamily_BS        .         Bit Size                      : 
TLFamily_CALI      .         Caliper                       : 
TLFamily_DENS      .         Bulk Density                  : 
TLFamily_DT        .         Compressional Slowness        : 
TLFamily_DTS       .         Shear Slowness                : 
TLFamily_GR        .         Gamma Ray                     : 
TLFamily_MD        .         Measured Depth                : 
TLFamily_NPHI      .         Thermal Neutron Porosity      : 
TLFamily_RS        .         Resistivity - Phase Shift     : 
TLFamily_RT        .         Resistivity - True Formation  : 
~Curve Information
#_______________________________________________________________________________
#
#LOGNAME           .UNIT     LOG_ID                        : DESCRIPTION
#_______________________________________________________________________________
MD                 .m                                      :  
BS                 .inches                                 :  
CALI               .inches                                 :  
DENS               .g/cm3                                  :  
DT                 .us/ft                                  :  
DTS                .us/ft                                  :  
GR                 .API                                    :  
NPHI               .v/v                                    :  
RS                 .ohm.m                                  :  
RT                 .ohm.m                                  :  
~Ascii
# ...
2882.4000  8.5000     8.5781     2.6485     64.9651    119.5853   2.9212     0.0452     4.5341     4.8638    
2882.5000  8.5000     8.5781     2.6438     64.8487    119.3119   3.2515     0.0474     4.8257     5.3430    
2882.6000  8.5000     8.5781     2.6305     64.5251    118.9038   3.3769     0.0518     5.1018     5.8806    
2882.7000  8.5000     8.5781     2.6142     64.2015    118.4958   3.6843     0.0572     5.3170     6.3190    
2882.8000  8.5000     8.5781     2.5977     63.8731    118.0859   4.4715     0.0630     5.4324     6.5175    
2882.9000  8.5000     8.5781     2.5832     63.2824    117.5757   4.2060     0.0687     5.4632     6.5294    
2883.0000  8.5000     8.5781     2.5723     62.6917    117.0655   3.5330     0.0735     5.4501     6.3583    
2883.1000  8.5000     8.5781     2.5658     62.1016    116.5555   3.1259     0.0772     5.3866     6.0991    
2883.2000  8.5000     8.5781     2.5635     61.7472    116.1950   3.4269     0.0801     5.2891     5.8177    
2883.3000  8.5000     8.5781     2.5633     61.4008    115.8394   2.6521     0.0824     5.1934     5.5423    
2883.4000  8.5000     8.5781     2.5629     61.0552    115.4846   2.6055     0.0839     5.1131     5.3178    
2883.5000  8.5000     8.5781     2.5626     61.0693    115.4854   2.7789     0.0844     5.0362     5.1205    
2883.6000  8.5000     8.5781     2.5640     61.1149    115.5172   3.2187     0.0839     4.9129     4.8773    
2883.7000  8.5000     8.5781     2.5683     61.1611    115.5496   3.4926     0.0828     4.7855     4.6606    
2883.8000  8.5000     8.5781     2.5734     61.4511    115.8471   3.7274     0.0812     4.7098     4.5784    
2883.9000  8.5000     8.5781     2.5768     61.7770    116.1836   3.6187     0.0793     4.7064     4.6270    
2884.0000  8.5000     8.5781     2.5783     62.1029    116.5202   4.1037     0.0776     4.6973     4.6975    
2884.1000  8.5000     8.5781     2.5787     62.4461    116.8593   4.3400     0.0767     4.6656     4.7211    
2884.2000  8.5000     8.5781     2.5793     62.7931    117.1989   3.9780     0.0765     4.6072     4.6991    
2884.3000  8.5000     8.5781     2.5810     63.1397    117.5382   3.6438     0.0764     4.5283     4.6560    
2884.4000  8.5000     8.5781     2.5830     63.3461    117.7530   3.5076     0.0754     4.4222     4.5952    
2884.5000  8.5000     8.5781     2.5840     63.5119    117.9318   3.8691     0.0740     4.3120     4.5234    
2884.6000  8.5000     8.5781     2.5828     63.6775    118.1102   4.2530     0.0734     4.2273     4.4689    
2884.7000  8.5000     8.5781     2.5799     63.7805    118.1652   5.1683     0.0744     4.1201     4.4015    
2884.8000  8.5000     8.5781     2.5757     63.8601    118.1740   4.3839     0.0774     3.9916     4.2943    
2884.9000  8.5000     8.5781     2.5695     63.9394    118.1828   3.2664     0.0818     3.8650     4.1716    
2885.0000  8.5000     8.5781     2.5606     63.9405    118.2046   3.1235     0.0869     3.7232     4.0277    
2885.1000  8.5000     8.5781     2.5493     63.9047    118.2324   2.5990     0.0924     3.5803     3.8466    
2885.2000  8.5000     8.5781     2.5374     63.8691    118.2604   2.5064     0.0980     3.4368     3.6309    
2885.3000  8.5000     8.5781     2.5282     63.8925    118.3251   2.7017     0.1029     3.3019     3.4229    
2885.4000  8.5000     8.5781     2.5241     63.9503    118.4113   2.9913     0.1054     3.1731     3.2562    
2885.5000  8.5000     8.5781     2.5267     64.0083    118.4978   2.8412     0.1041     3.0719     3.1592    
2885.6000  8.5000     8.5781     2.5352     64.1268    118.7169   2.7896     0.1001     3.0016     3.1505    
2885.7000  8.5000     8.5781     2.5441     64.2884    119.0305   2.9823     0.0966     2.9473     3.1665    
2885.8000  8.5000     8.5781     2.5463     64.4501    119.3442   2.8742     0.0962     2.8726     3.0947    
2885.9000  8.5000     8.5781     2.5384     64.6412    119.7035   2.7902     0.1001     2.7427     2.8714    
2886.0000  8.5000     8.5781     2.5234     64.8575    120.1021   2.4359     0.1070     2.5929     2.6028    
2886.1000  8.5000     8.5781     2.5072     65.0739    120.5009   2.9325     0.1154     2.4575     2.3899    
2886.2000  8.5000     8.5782     2.4957     65.2690    120.9439   3.0201     0.1231     2.3456     2.2412    
2886.3000  8.5000     8.6250     2.4896     65.4420    121.4330   3.1917     0.1265     2.2610     2.1302    
2886.4000  8.5000     8.6250     2.4872     65.6150    121.9221   3.2957     0.1311     2.2074     2.0712    
2886.5000  8.5000     8.6250     2.4860     65.8345    122.4375   2.5851     0.1338     2.1807     2.0631    
2886.6000  8.5000     8.6250     2.4862     66.1127    122.9863   2.7010     0.1341     2.1731     2.0976    
2886.7000  8.5000     8.6249     2.4895     66.3909    123.5352   3.0208     0.1315     2.1900     2.1788    
2886.8000  8.5000     8.5781     2.4969     66.6569    124.0815   3.0724     0.1299     2.2123     2.2646    
2886.9000  8.5000     8.5782     2.5053     66.9038    124.6237   3.0888     0.1218     2.2197     2.2997    
2887.0000  8.5000     8.6250     2.5103     67.1508    125.1658   3.1608     0.1179     2.2191     2.2994    
2887.1000  8.5000     8.6250     2.5094     67.4006    125.6482   2.9292     0.1158     2.2167     2.2898    
2887.2000  8.5000     8.6249     2.5059     67.6558    126.0167   3.1271     0.1149     2.2175     2.2740    
2887.3000  8.5000     8.5781     2.5052     67.9110    126.3851   3.2463     0.1179     2.2217     2.2549    
2887.4000  8.5000     8.5781     2.5093     68.1132    126.7148   3.9133     0.1189     2.2266     2.2382    
2887.5000  8.5000     8.5781     2.5148     68.1903    126.9528   4.0523     0.1205     2.2368     2.2188    
2887.6000  8.5000     8.5781     2.5167     68.2672    127.1906   3.7889     0.1223     2.2598     2.2018    
2887.7000  8.5000     8.5782     2.5135     68.3217    127.3399   3.6217     0.1236     2.2977     2.2090    
2887.8000  8.5000     8.6250     2.5069     68.3084    127.2224   3.6233     0.1212     2.3405     2.2257    
2887.9000  8.5000     8.6250     2.4999     68.2950    127.1050   3.6900     0.1216     2.3996     2.2528    
2888.0000  8.5000     8.6250     2.4951     68.2641    126.9860   3.6735     0.1215     2.4840     2.3189    
2888.1000  8.5000     8.6250     2.4936     68.1636    126.8613   3.7934     0.1209     2.5882     2.4155    
2888.2000  8.5000     8.6250     2.4950     68.0630    126.7366   3.5667     0.1198     2.7082     2.5381    
2888.3000  8.5000     8.6250     2.4983     67.9661    126.6057   3.5100     0.1185     2.8564     2.7328    
2888.4000  8.5000     8.6250     2.5032     67.8896    126.4409   4.0014     0.1168     3.0434     3.0119    
2888.5000  8.5000     8.6250     2.5114     67.8132    126.2761   3.9431     0.1138     3.2344     3.2721    
2888.6000  8.5000     8.6249     2.5197     67.7353    126.1179   3.1640     0.1109     3.4989     3.5710    
2888.7000  8.5000     8.6015     2.5303     67.6457    126.0156   3.2246     0.1086     3.8329     3.9613    
2888.8000  8.5000     8.5781     2.5387     67.5561    125.9132   3.8096     0.1025     4.0847     4.3274    
2888.9000  8.5000     8.5781     2.5437     67.4648    125.8016   3.5947     0.0973     4.3369     4.7149    
2889.0000  8.5000     8.5781     2.5459     67.3457    125.5374   4.3259     0.0939     4.6092     5.1419    
2889.1000  8.5000     8.5781     2.5486     67.2267    125.2733   4.6430     0.0922     4.9432     5.6549    
2889.2000  8.5000     8.5781     2.5540     67.1082    125.0103   4.8234     0.0902     5.3060     6.1791    
2889.3000  8.5000     8.5781     2.5619     66.8583    124.4326   4.8455     0.0865     5.6286     6.6264    
2889.4000  8.5000     8.5781     2.5730     66.6103    123.8592   3.9067     0.0808     5.9734     7.0307    
2889.5000  8.5000     8.5781     2.5878     66.3618    123.2854   3.7579     0.0740     6.3374     7.4118    
2889.6000  8.5000     8.5781     2.6040     65.9441    122.5342   3.4283     0.0672     6.6090     7.6824    
