~Version
 VERS              .         2.0                           : CWLS LOG ASCII STANDARD - VERSION 2.0
 WRAP              .         NO                            : ONE LINE PER DEPTH STEP
 DLM               .         SPACE                         : DELIMITING CHARACTER(SPACE TAB OR COMMA)
~Well Information
#_______________________________________________________________________________
#
#PARAMETER_NAME    .UNIT     VALUE                         : DESCRIPTION
#_______________________________________________________________________________
STRT               .m        2605.0000                     : First reference value
STOP               .m        3675.0000                     : Last reference value
STEP               .m        0.1000                        : Step increment
NULL               .         -9999                         : Missing value
COMP               .                                       : Company
WELL               .         Well-B                        : Well name
~Parameter Information Block
#_______________________________________________________________________________
#
#PARAMETER_NAME    .UNIT     VALUE                         : DESCRIPTION
#_______________________________________________________________________________
SET                .         Data_Output                   : 
TLFamily_BS        .         Bit Size                      : 
TLFamily_CALI      .         Caliper                       : 
TLFamily_DENS      .         Bulk Density                  : 
TLFamily_DT        .         Compressional Slowness        : 
TLFamily_DTS       .         Shear Slowness                : 
TLFamily_GR        .         Gamma Ray                     : 
TLFamily_MD        .         Measured Depth                : 
TLFamily_NPHI      .         Thermal Neutron Porosity      : 
TLFamily_RS        .         Resistivity - Phase Shift     : 
TLFamily_RT        .         Resistivity - True Formation  : 
~Curve Information
#_______________________________________________________________________________
#
#LOGNAME           .UNIT     LOG_ID                        : DESCRIPTION
#_______________________________________________________________________________
MD                 .m                                      :  
BS                 .inches                                 :  
CALI               .inches                                 :  
DENS               .g/cm3                                  :  
DT                 .us/ft                                  :  
DTS                .us/ft                                  :  
GR                 .API                                    :  
NPHI               .v/v                                    :  
RS                 .ohm.m                                  :  
RT                 .ohm.m                                  :  
~Ascii
# ...
3232.8000  8.5000     8.6250     2.6158     72.0790    137.1620   27.2575    0.1336     4.2657     6.1752    
3232.9000  8.5000     8.6250     2.6179     73.0145    138.8948   27.0044    0.1498     4.3080     6.2484    
3233.0000  8.5000     8.6250     2.6162     73.9496    140.6254   27.9571    0.1659     4.3081     6.2500    
3233.1000  8.5000     8.6251     2.6091     74.7206    141.4723   30.3556    0.1782     4.2766     6.1678    
3233.2000  8.5000     8.6485     2.5983     75.4656    142.1794   34.9121    0.1810     4.2564     6.1084    
3233.3000  8.5000     8.6718     2.5872     76.2091    142.8835   38.3715    0.1798     4.2829     6.1891    
3233.4000  8.5000     8.6251     2.5784     76.3944    142.3427   41.8462    0.1768     4.2671     6.0554    
3233.5000  8.5000     8.6563     2.5716     76.4532    141.5202   47.3306    0.1658     4.0453     5.3075    
3233.6000  8.5000     8.6719     2.5652     76.5115    140.6971   50.1076    0.1584     3.7550     4.5277    
3233.7000  8.5000     8.6718     2.5579     76.3046    139.5875   51.8056    0.1531     3.5205     3.9562    
3233.8000  8.5000     8.6485     2.5513     76.0174    138.3913   55.5348    0.1527     3.2965     3.3822    
3233.9000  8.5000     8.6719     2.5479     75.7297    137.1946   55.5199    0.1471     3.1371     2.9421    
3234.0000  8.5000     8.6718     2.5479     75.2846    135.8567   56.4415    0.1437     3.0914     2.8407    
3234.1000  8.5000     8.6250     2.5500     74.7781    134.4636   56.8566    0.1420     3.1273     2.9118    
3234.2000  8.5000     8.6250     2.5527     74.2718    133.0723   54.9417    0.1372     3.1391     2.9632    
3234.3000  8.5000     8.6250     2.5561     73.8299    132.4156   53.7832    0.1337     3.1258     2.9595    
3234.4000  8.5000     8.6250     2.5601     73.4197    132.1180   52.5296    0.1319     3.0591     2.8441    
3234.5000  8.5000     8.6250     2.5647     73.0098    131.8201   51.7942    0.1312     3.0370     2.8142    
3234.6000  8.5000     8.6250     2.5693     72.7045    131.4603   49.8487    0.1309     3.0513     2.8788    
3234.7000  8.5000     8.6250     2.5734     72.4624    131.0630   49.6518    0.1309     3.0926     3.0295    
3234.8000  8.5000     8.6250     2.5768     72.2205    130.6669   48.2594    0.1316     3.1553     3.2110    
3234.9000  8.5000     8.6250     2.5789     72.0853    130.8217   46.2500    0.1328     3.2238     3.4473    
3235.0000  8.5000     8.6250     2.5801     72.0284    131.3823   46.3289    0.1347     3.3344     3.7231    
3235.1000  8.5000     8.6250     2.5804     71.9718    131.9432   44.2973    0.1371     3.3578     3.8650    
3235.2000  8.5000     8.6251     2.5801     72.0259    132.6441   41.9730    0.1400     3.3366     3.8449    
3235.3000  8.5000     8.6485     2.5801     72.1788    133.4704   43.1951    0.1404     3.3267     3.8772    
3235.4000  8.5000     8.6718     2.5799     72.3317    134.2961   43.4807    0.1433     3.3532     4.0206    
3235.5000  8.5000     8.6250     2.5793     72.5512    134.9581   42.6431    0.1481     3.3952     4.1531    
3235.6000  8.5000     8.6250     2.5778     72.8425    135.4429   42.3430    0.1486     3.4168     4.2285    
3235.7000  8.5000     8.6250     2.5753     73.1337    135.9274   42.2569    0.1488     3.4401     4.2965    
3235.8000  8.5000     8.6250     2.5727     73.4056    136.3211   43.6815    0.1493     3.4536     4.3436    
3235.9000  8.5000     8.6250     2.5704     73.6520    136.5954   43.2458    0.1498     3.4362     4.3260    
3236.0000  8.5000     8.6250     2.5685     73.8984    136.8688   43.6398    0.1488     3.4138     4.2672    
3236.1000  8.5000     8.6250     2.5665     74.0885    136.7538   44.2402    0.1464     3.3916     4.2110    
3236.2000  8.5000     8.6406     2.5642     74.1888    136.0163   44.5570    0.1407     3.3770     4.1620    
3236.3000  8.5000     8.6250     2.5623     74.2892    135.2790   43.8494    0.1423     3.3491     4.0831    
3236.4000  8.5000     8.6250     2.5626     74.3594    134.6415   46.2095    0.1423     3.3418     4.0617    
3236.5000  8.5000     8.6250     2.5656     74.3708    134.2007   47.2529    0.1431     3.3338     4.0435    
3236.6000  8.5000     8.6250     2.5702     74.3822    133.7596   47.2871    0.1444     3.2868     3.9142    
3236.7000  8.5000     8.6250     2.5737     74.3628    133.2046   44.9789    0.1457     3.2335     3.7362    
3236.8000  8.5000     8.6250     2.5747     74.2681    132.3689   44.2498    0.1466     3.2040     3.6485    
3236.9000  8.5000     8.6250     2.5739     74.1734    131.5346   44.3989    0.1465     3.1966     3.6239    
3237.0000  8.5000     8.6250     2.5721     74.1131    131.2779   44.7197    0.1453     3.2044     3.6261    
3237.1000  8.5000     8.6250     2.5696     74.1611    132.8425   44.8844    0.1435     3.2259     3.6842    
3237.2000  8.5000     8.6250     2.5670     74.2091    134.4067   43.6343    0.1423     3.2392     3.7296    
3237.3000  8.5000     8.6251     2.5655     74.2378    135.8224   43.4900    0.1422     3.2461     3.7529    
3237.4000  8.5000     8.6483     2.5649     74.1861    136.6168   42.3928    0.1430     3.2446     3.7464    
3237.5000  8.5000     8.6250     2.5641     74.1344    137.4111   42.4067    0.1447     3.2377     3.7216    
3237.6000  8.5000     8.6250     2.5620     74.1003    138.1239   42.8291    0.1472     3.2211     3.6876    
3237.7000  8.5000     8.6250     2.5590     74.1695    138.3578   44.4179    0.1503     3.2220     3.6819    
3237.8000  8.5000     8.6250     2.5556     74.2385    138.5915   44.1997    0.1524     3.2343     3.7241    
3237.9000  8.5000     8.6250     2.5521     74.2884    138.7285   43.4060    0.1522     3.2563     3.7984    
3238.0000  8.5000     8.6250     2.5500     74.1593    137.9681   42.7545    0.1512     3.2685     3.8480    
3238.1000  8.5000     8.6250     2.5505     74.0301    137.2077   43.5436    0.1515     3.2703     3.8625    
3238.2000  8.5000     8.6250     2.5527     73.8998    136.4436   44.4376    0.1535     3.2722     3.8819    
3238.3000  8.5000     8.6250     2.5546     73.7471    135.6093   44.8751    0.1563     3.2561     3.8498    
3238.4000  8.5000     8.6250     2.5543     73.5945    134.7749   44.7383    0.1583     3.2613     3.8610    
3238.5000  8.5000     8.6250     2.5516     73.4420    133.9397   46.0954    0.1589     3.2500     3.8358    
3238.6000  8.5000     8.6250     2.5482     73.3837    132.9408   46.2892    0.1586     3.2290     3.7785    
3238.7000  8.5000     8.6250     2.5456     73.3253    131.9413   45.2530    0.1589     3.1886     3.6832    
3238.8000  8.5000     8.6251     2.5440     73.2670    130.9462   43.9781    0.1609     3.1880     3.6974    
3238.9000  8.5000     8.6483     2.5436     73.2871    131.8027   43.0961    0.1637     3.2238     3.7854    
3239.0000  8.5000     8.6250     2.5445     73.3110    132.7537   43.9410    0.1662     3.2898     3.9242    
3239.1000  8.5000     8.6250     2.5469     73.3356    133.7038   45.4346    0.1669     3.3452     4.1224    
3239.2000  8.5000     8.6250     2.5496     73.6324    134.2123   45.7575    0.1633     3.3395     4.1198    
3239.3000  8.5000     8.6250     2.5517     73.9583    134.6736   43.6189    0.1567     3.3606     4.1610    
3239.4000  8.5000     8.6250     2.5529     74.2841    135.1351   42.5504    0.1504     3.3490     4.1139    
3239.5000  8.5000     8.6250     2.5540     74.5721    135.6559   43.3912    0.1456     3.2927     3.9142    
3239.6000  8.5000     8.6250     2.5558     74.8536    136.1866   43.9831    0.1418     3.2292     3.7434    
3239.7000  8.5000     8.6250     2.5576     75.1345    136.7162   43.9387    0.1384     3.1993     3.6558    
3239.8000  8.5000     8.6250     2.5578     75.1941    136.8069   44.6397    0.1354     3.2051     3.6439    
3239.9000  8.5000     8.6249     2.5568     75.2011    136.7928   46.7269    0.1360     3.2008     3.6211    
3240.0000  8.5000     8.5782     2.5563     75.2076    136.7781   48.5333    0.1348     3.1927     3.5614    
