~Version
 VERS              .         2.0                           : CWLS LOG ASCII STANDARD - VERSION 2.0
 WRAP              .         NO                            : ONE LINE PER DEPTH STEP
 DLM               .         SPACE                         : DELIMITING CHARACTER(SPACE TAB OR COMMA)
~Well Information
#_______________________________________________________________________________
#
#PARAMETER_NAME    .UNIT     VALUE                         : DESCRIPTION
#_______________________________________________________________________________
STRT               .m        2605.0000                     : First reference value
STOP               .m        3675.0000                     : Last reference value
STEP               .m        0.1000                        : Step increment
NULL               .         -9999                         : Missing value
COMP               .                                       : Company
WELL               .         Well-B                        : Well name
~Parameter Information Block
#_______________________________________________________________________________
#
#PARAMETER_NAME    .UNIT     VALUE                         : DESCRIPTION
#_______________________________________________________________________________
SET                .         Data_Output                   : 
TLFamily_BS        .         Bit Size                      : 
TLFamily_CALI      .         Caliper                       : 
TLFamily_DENS      .         Bulk Density                  : 
TLFamily_DT        .         Compressional Slowness        : 
TLFamily_DTS       .         Shear Slowness                : 
TLFamily_GR        .         Gamma Ray                     : 
TLFamily_MD        .         Measured Depth                : 
TLFamily_NPHI      .         Thermal Neutron Porosity      : 
TLFamily_RS        .         Resistivity - Phase Shift     : 
TLFamily_RT        .         Resistivity - True Formation  : 
~Curve Information
#_______________________________________________________________________________
#
#LOGNAME           .UNIT     LOG_ID                        : DESCRIPTION
#_______________________________________________________________________________
MD                 .m                                      :  
BS                 .inches                                 :  
CALI               .inches                                 :  
DENS               .g/cm3                                  :  
DT                 .us/ft                                  :  
DTS                .us/ft                                  :  
GR                 .API                                    :  
NPHI               .v/v                                    :  
RS                 .ohm.m                                  :  
RT                 .ohm.m                                  :  
~Ascii
# ...
3583.2000  8.5000     8.6251     2.3904     77.4484    136.0039   39.8431    0.1826     1.0109     1.0877    
3583.3000  8.5000     8.6718     2.3958     76.8157    134.7793   39.0781    0.1817     1.0030     1.0709    
3583.4000  8.5000     8.6251     2.4064     76.1638    133.5271   38.0298    0.1807     0.9762     0.9913    
3583.5000  8.5000     8.6485     2.4217     75.4688    132.3090   36.7619    0.1764     0.9501     0.9079    
3583.6000  8.5000     8.6718     2.4363     74.7356    131.1212   36.4905    0.1745     0.9340     0.8557    
3583.7000  8.5000     8.6250     2.4439     73.9988    129.9375   37.6198    0.1750     0.9188     0.8122    
3583.8000  8.5000     8.6250     2.4427     73.5342    129.0517   38.8207    0.1719     0.9048     0.7712    
3583.9000  8.5000     8.6251     2.4378     73.3562    128.4797   41.3161    0.1690     0.9059     0.7659    
3584.0000  8.5000     8.6485     2.4359     73.2111    127.9442   41.9808    0.1638     0.9262     0.8066    
3584.1000  8.5000     8.6719     2.4389     73.2304    127.7379   41.9417    0.1630     0.9542     0.8599    
3584.2000  8.5000     8.6719     2.4425     73.4547    127.9425   40.6772    0.1635     0.9880     0.9296    
3584.3000  8.5000     8.6719     2.4402     73.7029    128.1951   38.8955    0.1656     1.0284     1.0400    
3584.4000  8.5000     8.6719     2.4306     73.9837    128.4767   37.3610    0.1692     1.0794     1.1804    
3584.5000  8.5000     8.6718     2.4170     74.3134    128.8016   36.7044    0.1726     1.1028     1.2419    
3584.6000  8.5000     8.6250     2.4047     74.6486    129.1312   36.7829    0.1774     1.1004     1.2223    
3584.7000  8.5000     8.6250     2.3974     74.8965    129.2896   37.6223    0.1770     1.0956     1.2030    
3584.8000  8.5000     8.6250     2.3960     74.9886    129.1419   38.0135    0.1749     1.0950     1.2097    
3584.9000  8.5000     8.6251     2.3997     75.0615    128.9569   35.8652    0.1713     1.1000     1.2332    
3585.0000  8.5000     8.6718     2.4075     75.0367    128.6081   36.0079    0.1629     1.1093     1.2593    
3585.1000  8.5000     8.6483     2.4201     74.7991    127.9032   35.1505    0.1588     1.1217     1.2746    
3585.2000  8.5000     8.6251     2.4366     74.5354    127.1547   34.3641    0.1486     1.1183     1.1977    
3585.3000  8.5000     8.6718     2.4539     74.2299    126.3935   33.3033    0.1427     1.1144     1.1189    
3585.4000  8.5000     8.6485     2.4689     73.8118    125.5982   32.9608    0.1424     1.0991     1.0487    
3585.5000  8.5000     8.6719     2.4810     73.3798    124.7988   33.1432    0.1377     1.0573     0.9171    
3585.6000  8.5000     8.6719     2.4898     72.9764    124.0974   32.7582    0.1363     1.0557     0.8372    
3585.7000  8.5000     8.6719     2.4935     72.6707    123.7314   33.4710    0.1343     1.1885     1.0355    
3585.8000  8.5000     8.6719     2.4908     72.3772    123.4071   34.6653    0.1320     1.4579     1.4882    
3585.9000  8.5000     8.6718     2.4822     72.0674    123.0330   35.3556    0.1311     1.7171     1.9210    
3586.0000  8.5000     8.6250     2.4706     71.6849    122.4325   38.2911    0.1352     1.6823     1.6764    
3586.1000  8.5000     8.6250     2.4595     71.2930    121.8035   42.1534    0.1383     1.6869     1.6716    
3586.2000  8.5000     8.6250     2.4501     70.9322    121.2172   46.0456    0.1427     1.7367     1.8935    
3586.3000  8.5000     8.6250     2.4420     70.7703    120.9033   54.9955    0.1470     1.6935     1.9408    
3586.4000  8.5000     8.6250     2.4346     70.6337    120.6244   62.5158    0.1500     1.4665     1.4475    
3586.5000  8.5000     8.6250     2.4276     70.5188    120.3709   72.4065    0.1511     1.4054     1.4922    
3586.6000  8.5000     8.6250     2.4217     70.6269    120.3812   82.4391    0.1519     1.2046     1.2092    
3586.7000  8.5000     8.6250     2.4178     70.7637    120.4254   82.3097    0.1546     1.0178     0.9140    
3586.8000  8.5000     8.6250     2.4158     70.9083    120.4954   64.5219    0.1601     1.0101     0.9228    
3586.9000  8.5000     8.6250     2.4160     71.2337    121.1615   49.6346    0.1667     1.0870     1.1254    
3587.0000  8.5000     8.6251     2.4213     71.5825    121.9046   58.3310    0.1716     1.1912     1.3402    
3587.1000  8.5000     8.6719     2.4354     71.9340    122.6542   62.6037    0.1693     1.2338     1.3477    
3587.2000  8.5000     8.6875     2.4589     72.2969    123.6931   62.0655    0.1618     1.2328     1.2656    
3587.3000  8.5000     8.6719     2.4877     72.6640    124.7777   62.4772    0.1535     1.2824     1.3589    
3587.4000  8.5000     8.6719     2.5153     73.0312    125.8633   61.8703    0.1435     1.2906     1.3673    
3587.5000  8.5000     8.6720     2.5337     73.3005    126.9312   54.7820    0.1363     1.2300     1.1879    
3587.6000  8.5000     8.7031     2.5369     73.5511    127.9957   50.2655    0.1365     1.1743     1.0688    
3587.7000  8.5000     8.7032     2.5256     73.8010    129.0590   49.5778    0.1410     1.1440     1.0174    
3587.8000  8.5000     8.7500     2.5074     74.0518    129.6502   55.1197    0.1441     1.1423     1.0472    
3587.9000  8.5000     8.7500     2.4915     74.3029    130.1250   60.6566    0.1490     1.1985     1.2483    
3588.0000  8.5000     8.7500     2.4845     74.5540    130.5927   62.7834    0.1518     1.2575     1.4662    
3588.1000  8.5000     8.7499     2.4860     74.8109    131.0423   64.8478    0.1534     1.2715     1.5449    
3588.2000  8.5000     8.7264     2.4937     75.0694    131.4861   60.3064    0.1572     1.2568     1.5155    
3588.3000  8.5000     8.6719     2.5068     75.3281    131.9290   56.9377    0.1572     1.2354     1.4557    
3588.4000  8.5000     8.6719     2.5216     75.5319    132.1336   53.4808    0.1518     1.2149     1.4003    
3588.5000  8.5000     8.6719     2.5319     75.7148    132.2477   47.8145    0.1436     1.1959     1.3521    
3588.6000  8.5000     8.6719     2.5302     75.8959    132.3542   44.3616    0.1340     1.1789     1.3076    
3588.7000  8.5000     8.6718     2.5152     76.0284    132.5950   44.9572    0.1248     1.1678     1.2741    
3588.8000  8.5000     8.6250     2.4955     76.1385    132.8977   47.8547    0.1229     1.1574     1.2472    
3588.9000  8.5000     8.6249     2.4819     76.2467    133.2058   50.3402    0.1299     1.1484     1.2276    
3589.0000  8.5000     8.6017     2.4804     76.4217    133.3233   51.4788    0.1400     1.1417     1.2111    
3589.1000  8.5000     8.6250     2.4883     76.6335    133.3359   51.3937    0.1572     1.1366     1.1971    
3589.2000  8.5000     8.6249     2.4998     76.8492    133.3395   51.5189    0.1745     1.1324     1.1873    
3589.3000  8.5000     8.6018     2.5083     77.1558    133.9287   50.2585    0.1797     1.1278     1.1778    
3589.4000  8.5000     8.6719     2.5041     77.5218    134.9015   49.6606    0.1791     1.1233     1.1684    
3589.5000  8.5000     8.6875     2.4833     77.8938    135.9136   49.9192    0.1753     1.1198     1.1595    
3589.6000  8.5000     8.6875     2.4530     78.1976    136.6467   50.2131    0.1735     1.1167     1.1522    
3589.7000  8.5000     8.7031     2.4272     78.4485    137.1636   49.9182    0.1682     1.1133     1.1445    
3589.8000  8.5000     8.7032     2.4139     78.6932    137.6568   49.4661    0.1666     1.1112     1.1409    
3589.9000  8.5000     8.7265     2.4169     78.7795    138.0322   49.5857    0.1632     1.1088     1.1359    
3590.0000  8.5000     8.7032     2.4326     78.7205    138.2999   49.7592    0.1644     1.1063     1.1309    
3590.1000  8.5000     8.7267     2.4524     78.6454    138.5547   49.2627    0.1568     1.1053     1.1300    
3590.2000  8.5000     8.7500     2.4696     78.5022    138.4863   50.0900    0.1502     1.1674     1.2758    
3590.3000  8.5000     8.7656     2.4797     78.2853    138.0678   49.4978    0.1424     1.1773     1.2692    
3590.4000  8.5000     8.7500     2.4827     78.0598    137.6093   49.0730    0.1425     1.1573     1.1814    
