~Version
 VERS              .         2.0                           : CWLS LOG ASCII STANDARD - VERSION 2.0
 WRAP              .         NO                            : ONE LINE PER DEPTH STEP
 DLM               .         SPACE                         : DELIMITING CHARACTER(SPACE TAB OR COMMA)
~Well Information
#_______________________________________________________________________________
#
#PARAMETER_NAME    .UNIT     VALUE                         : DESCRIPTION
#_______________________________________________________________________________
STRT               .m        2574.0000                     : First reference value
STOP               .m        4550.0000                     : Last reference value
STEP               .m        0.1000                        : Step increment
NULL               .         -9999                         : Missing value
COMP               .                                       : Company
WELL               .         Well-D                        : Well name
~Parameter Information Block
#_______________________________________________________________________________
#
#PARAMETER_NAME    .UNIT     VALUE                         : DESCRIPTION
#_______________________________________________________________________________
SET                .         Data_Output                   : 
TLFamily_BS        .         Bit Size                      : 
TLFamily_CALI      .         Caliper                       : 
TLFamily_DENS      .         Bulk Density                  : 
TLFamily_DT        .         Compressional Slowness        : 
TLFamily_DTS       .         Shear Slowness                : 
TLFamily_GR        .         Gamma Ray                     : 
TLFamily_MD        .         Measured Depth                : 
TLFamily_NPHI      .         Thermal Neutron Porosity      : 
TLFamily_RS        .         Resistivity - Phase Shift     : 
TLFamily_RT        .         Resistivity - True Formation  : 
~Curve Information
#_______________________________________________________________________________
#
#LOGNAME           .UNIT     LOG_ID                        : DESCRIPTION
#_______________________________________________________________________________
MD                 .m                                      :  
BS                 .inches                                 :  
CALI               .inches                                 :  
DENS               .g/cm3                                  :  
DT                 .us/ft                                  :  
DTS                .us/ft                                  :  
GR                 .API                                    :  
NPHI               .v/v                                    :  
RS                 .ohm.m                                  :  
RT                 .ohm.m                                  :  
~Ascii
# ...
4267.6000  8.5000     8.7030     2.5090     93.7630    172.9060   124.9470   0.2880     1.9360     1.9770    
4267.7000  8.5000     8.7030     2.5080     93.3410    173.5280   125.2260   0.2840     1.9370     1.9870    
4267.8000  8.5000     8.7030     2.5100     92.8910    173.7810   125.8860   0.2830     1.9520     2.0360    
4267.9000  8.5000     8.7030     2.5100     92.6200    174.6860   123.3670   0.2840     1.9710     2.0870    
4268.0000  8.5000     8.7030     2.5080     92.4620    175.4230   123.6080   0.2860     1.9920     2.1240    
4268.1000  8.5000     8.7030     2.5060     92.4590    175.7700   122.0020   0.2870     2.0040     2.1400    
4268.2000  8.5000     8.7030     2.5030     92.6160    175.5650   122.6150   0.2880     2.0140     2.1520    
4268.3000  8.5000     8.7030     2.5020     92.7880    175.1350   123.2940   0.2910     2.0270     2.1550    
4268.4000  8.5000     8.7030     2.5010     92.9350    174.4400   120.9570   0.2940     2.0350     2.1530    
4268.5000  8.5000     8.7030     2.5020     93.0160    173.8380   120.2080   0.2960     2.0450     2.1510    
4268.6000  8.5000     8.7030     2.5050     93.0160    173.6410   119.7430   0.2970     2.0620     2.1480    
4268.7000  8.5000     8.7030     2.5080     92.8520    174.4150   122.1700   0.2980     2.0780     2.1440    
4268.8000  8.5000     8.7030     2.5090     92.5630    174.8090   122.3060   0.2980     2.0910     2.1240    
4268.9000  8.5000     8.7030     2.5090     92.0450    175.1690   121.9260   0.2980     2.1040     2.1180    
4269.0000  8.5000     8.7030     2.5070     90.9090    175.8120   122.5720   0.2980     2.1290     2.1390    
4269.1000  8.5000     8.7030     2.5070     89.5100    176.0380   124.1470   0.2950     2.1820     2.2030    
4269.2000  8.5000     8.7030     2.5090     87.9240    176.1430   127.3210   0.2890     2.2280     2.2840    
4269.3000  8.5000     8.7030     2.5120     85.9950    176.4540   124.3180   0.2800     2.2710     2.3410    
4269.4000  8.5000     8.7030     2.5170     84.4790    175.9040   122.2670   0.2680     2.3110     2.4030    
4269.5000  8.5000     8.7030     2.5250     83.2910    174.9300   120.2180   0.2530     2.3560     2.4910    
4269.6000  8.5000     8.7030     2.5380     82.8330    174.0580   115.1950   0.2350     2.3710     2.5150    
4269.7000  8.5000     8.7030     2.5590     82.5420    173.2110   107.7210   0.2180     2.4320     2.6640    
4269.8000  8.5000     8.7030     2.5870     82.4510    172.4720   99.6300    0.2040     2.4950     2.8340    
4269.9000  8.5000     8.7030     2.6180     83.3170    172.6330   88.8780    0.2000     2.5730     3.0440    
4270.0000  8.5000     8.7340     2.6440     84.3850    173.2060   82.8170    0.2030     2.7040     3.3550    
4270.1000  8.5000     8.7500     2.6560     85.6260    174.1300   79.6090    0.2160     2.8320     3.7780    
4270.2000  8.5000     8.7030     2.6470     87.2960    175.8680   81.1000    0.2360     2.8930     3.9550    
4270.3000  8.5000     8.7030     2.6200     88.9740    177.2720   88.2990    0.2550     2.9110     3.9970    
4270.4000  8.5000     8.6720     2.5850     90.6690    178.3700   95.7850    0.2740     2.7730     3.6380    
4270.5000  8.5000     8.6720     2.5520     92.0370    177.8550   105.3080   0.2880     2.5740     3.0700    
4270.6000  8.5000     8.7030     2.5270     93.3940    175.7830   113.0940   0.2960     2.4340     2.6860    
4270.7000  8.5000     8.7030     2.5120     94.7290    171.9690   116.1370   0.3010     2.3570     2.5000    
4270.8000  8.5000     8.7030     2.5060     95.4560    170.3720   118.8320   0.3040     2.3380     2.4490    
4270.9000  8.5000     8.7030     2.5040     95.9920    169.5220   121.6350   0.3060     2.2520     2.2810    
4271.0000  8.5000     8.7030     2.5030     96.3170    169.5250   124.4360   0.3080     2.2130     2.2050    
4271.1000  8.5000     8.7030     2.5030     96.2360    172.3430   122.7690   0.3100     2.1730     2.1280    
4271.2000  8.5000     8.6820     2.5060     96.0960    174.8600   124.7860   0.3120     2.1410     2.0630    
4271.3000  8.5000     8.6720     2.5070     95.9310    176.3440   126.8290   0.3150     2.0990     1.9990    
4271.4000  8.5000     8.6720     2.5080     95.3490    176.9690   130.0010   0.3130     2.0820     1.9910    
4271.5000  8.5000     8.6720     2.5060     94.6190    177.1560   131.9720   0.3090     2.0960     2.0720    
4271.6000  8.5000     8.6720     2.5030     93.7360    176.7490   128.0330   0.3030     2.1120     2.1280    
4271.7000  8.5000     8.6720     2.5010     93.0250    175.8680   126.5570   0.2990     2.1280     2.1760    
4271.8000  8.5000     8.6720     2.5000     92.3900    174.7840   126.1930   0.2970     2.1300     2.1900    
4271.9000  8.5000     8.6930     2.5020     91.8440    173.4780   124.1280   0.2920     2.1340     2.2030    
4272.0000  8.5000     8.7030     2.5100     91.6220    170.8700   120.4390   0.2870     2.1380     2.2270    
4272.1000  8.5000     8.6720     2.5280     91.5600    168.2440   120.3580   0.2830     2.1460     2.2630    
4272.2000  8.5000     8.6720     2.5530     91.6870    166.9710   119.5970   0.2810     2.1610     2.3340    
4272.3000  8.5000     8.7030     2.5740     92.1240    166.8410   116.6680   0.2820     2.2310     2.5310    
4272.4000  8.5000     8.7030     2.5780     92.6990    167.3750   115.5420   0.2910     2.3130     2.7590    
4272.5000  8.5000     8.7030     2.5620     93.3100    168.7600   116.6310   0.2990     2.3110     2.7420    
4272.6000  8.5000     8.7340     2.5380     93.8170    170.2890   119.8420   0.3000     2.2700     2.6450    
4272.7000  8.5000     8.7500     2.5160     94.2200    171.8480   121.6330   0.3000     2.2440     2.5570    
4272.8000  8.5000     8.7030     2.5040     94.2930    173.1330   126.2940   0.3030     2.1980     2.4480    
4272.9000  8.5000     8.7190     2.4980     94.3010    174.2800   130.7470   0.3040     2.1620     2.3570    
4273.0000  8.5000     8.7030     2.4960     94.2620    175.2960   131.2940   0.3090     2.1460     2.3300    
4273.1000  8.5000     8.7030     2.4940     94.1720    175.8720   132.1970   0.3100     2.1350     2.3040    
4273.2000  8.5000     8.7030     2.4920     94.4010    176.3470   133.6380   0.3090     2.1350     2.3260    
4273.3000  8.5000     8.7030     2.4920     94.8770    176.7560   135.5230   0.3080     2.1410     2.3670    
4273.4000  8.5000     8.7030     2.4950     95.3470    177.4400   138.5350   0.3080     2.1290     2.3710    
4273.5000  8.5000     8.7030     2.5000     95.8070    178.2600   141.6180   0.3080     2.0720     2.2640    
4273.6000  8.5000     8.7030     2.5030     96.2560    179.2190   143.6200   0.3080     2.0000     2.0830    
4273.7000  8.5000     8.7030     2.5030     96.6500    180.8840   148.2700   0.3090     1.9580     1.9960    
4273.8000  8.5000     8.7500     2.5000     97.0890    182.0220   151.5120   0.3100     1.9390     1.9720    
4273.9000  8.5000     8.7030     2.4950     97.5810    182.5400   148.5420   0.3160     1.9230     1.9550    
4274.0000  8.5000     8.7030     2.4900     97.8100    182.9090   145.4190   0.3180     1.9030     1.9250    
4274.1000  8.5000     8.7030     2.4860     97.9780    183.1050   144.1890   0.3210     1.8850     1.9050    
4274.2000  8.5000     8.7030     2.4830     98.0810    183.0750   142.9260   0.3260     1.8830     1.9320    
4274.3000  8.5000     8.7030     2.4810     98.1250    183.4480   141.0690   0.3310     1.8910     1.9850    
4274.4000  8.5000     8.7030     2.4790     98.2200    183.8770   139.3320   0.3360     1.8800     1.9590    
4274.5000  8.5000     8.7030     2.4740     98.4140    184.3200   140.4090   0.3370     1.8530     1.9100    
4274.6000  8.5000     8.7030     2.4680     98.5580    184.7620   138.0290   0.3350     1.8130     1.8580    
4274.7000  8.5000     8.7270     2.4610     98.6970    185.1850   135.3780   0.3290     1.8020     1.8620    
4274.8000  8.5000     8.7030     2.4560     98.8470    185.5710   134.8120   0.3240     1.8110     1.8900    
