~Version
 VERS              .         2.0                           : CWLS LOG ASCII STANDARD - VERSION 2.0
 WRAP              .         NO                            : ONE LINE PER DEPTH STEP
 DLM               .         SPACE                         : DELIMITING CHARACTER(SPACE TAB OR COMMA)
~Well Information
#_______________________________________________________________________________
#
#PARAMETER_NAME    .UNIT     VALUE                         : DESCRIPTION
#_______________________________________________________________________________
STRT               .m        2605.0000                     : First reference value
STOP               .m        3625.0000                     : Last reference value
STEP               .m        0.1000                        : Step increment
NULL               .         -9999                         : Missing value
COMP               .                                       : Company
WELL               .         Well-A                        : Well name
~Parameter Information Block
#_______________________________________________________________________________
#
#PARAMETER_NAME    .UNIT     VALUE                         : DESCRIPTION
#_______________________________________________________________________________
SET                .         Data_Output                   : 
TLFamily_BS        .         Bit Size                      : 
TLFamily_CALI      .         Caliper                       : 
TLFamily_DENS      .         Bulk Density                  : 
TLFamily_DT        .         Compressional Slowness        : 
TLFamily_GR        .         Gamma Ray                     : 
TLFamily_MD        .         Measured Depth                : 
TLFamily_NPHI      .         Thermal Neutron Porosity      : 
TLFamily_RS        .         Resistivity - Phase Shift     : 
TLFamily_RT        .         Resistivity - True Formation  : 
~Curve Information
#_______________________________________________________________________________
#
#LOGNAME           .UNIT     LOG_ID                        : DESCRIPTION
#_______________________________________________________________________________
MD                 .m                                      :  
BS                 .inches                                 :  
CALI               .inches                                 :  
DENS               .g/cm3                                  :  
DT                 .us/ft                                  :  
GR                 .API                                    :  
NPHI               .v/v                                    :  
RS                 .ohm.m                                  :  
RT                 .ohm.m                                  :  
~Ascii
# ...
2937.1000  8.5000     8.5781     2.5960     65.9305    8.2345     0.0819     4.2241     4.2631    
2937.2000  8.5000     8.5625     2.5877     65.3440    8.2695     0.0868     4.1548     4.1870    
2937.3000  8.5000     8.5781     2.5798     64.9116    9.3672     0.0921     4.0041     3.9902    
2937.4000  8.5000     8.5781     2.5731     64.5809    10.6726    0.0973     3.8255     3.7005    
2937.5000  8.5000     8.5781     2.5680     64.3777    9.8736     0.1023     3.7372     3.5140    
2937.6000  8.5000     8.5781     2.5645     64.3309    9.5959     0.1074     3.5931     3.2591    
2937.7000  8.5000     8.5781     2.5615     64.3416    8.6117     0.1122     3.4844     3.0549    
2937.8000  8.5000     8.5781     2.5572     64.4186    8.2062     0.1150     3.5115     3.1158    
2937.9000  8.5000     8.5781     2.5502     64.4753    7.6724     0.1148     3.5595     3.1991    
2938.0000  8.5000     8.5781     2.5427     64.5058    7.7115     0.1119     3.6638     3.4141    
2938.1000  8.5000     8.5781     2.5389     64.4890    8.7585     0.1073     3.8083     3.5991    
2938.2000  8.5000     8.5781     2.5426     64.3038    8.7360     0.1023     3.9470     3.9032    
2938.3000  8.5000     8.5781     2.5526     64.1058    7.8182     0.0978     3.9283     3.8969    
2938.4000  8.5000     8.5781     2.5618     63.9818    8.3403     0.0947     3.9238     3.8030    
2938.5000  8.5000     8.5781     2.5646     63.8688    8.0792     0.0926     3.9882     4.0033    
2938.6000  8.5000     8.5781     2.5626     63.8185    7.9367     0.0900     4.1849     4.3153    
2938.7000  8.5000     8.5781     2.5616     63.9643    8.2528     0.0856     4.3133     4.5504    
2938.8000  8.5000     8.5781     2.5664     64.1420    7.9110     0.0795     4.5000     4.8744    
2938.9000  8.5000     8.5781     2.5767     64.3357    8.9346     0.0736     4.6824     5.0658    
2939.0000  8.5000     8.5781     2.5900     64.5411    10.8613    0.0695     4.7823     5.2090    
2939.1000  8.5000     8.5781     2.6026     64.6162    9.8579     0.0676     4.8799     5.3561    
2939.2000  8.5000     8.5781     2.6124     64.6168    10.7980    0.0671     4.9159     5.3522    
2939.3000  8.5000     8.5781     2.6196     64.5728    10.6279    0.0670     4.9116     5.3728    
2939.4000  8.5000     8.5781     2.6233     64.5323    9.5250     0.0669     5.0412     5.5073    
2939.5000  8.5000     8.5781     2.6237     64.5000    8.4671     0.0668     5.1424     5.5922    
2939.6000  8.5000     8.5781     2.6219     64.5323    8.6443     0.0670     5.1766     5.6014    
2939.7000  8.5000     8.5781     2.6200     64.6023    8.4388     0.0680     5.1965     5.5972    
2939.8000  8.5000     8.5781     2.6184     64.7034    7.8731     0.0698     5.2214     5.5642    
2939.9000  8.5000     8.5781     2.6156     64.8397    7.9456     0.0720     5.1322     5.3886    
2940.0000  8.5000     8.5781     2.6105     65.0272    8.5276     0.0740     5.0960     5.2116    
2940.1000  8.5000     8.5781     2.6052     65.2651    7.1239     0.0750     5.1422     5.3085    
2940.2000  8.5000     8.5781     2.6014     65.4476    6.4646     0.0749     5.1841     5.3398    
2940.3000  8.5000     8.5781     2.6003     65.5830    7.3933     0.0741     5.1569     5.2691    
2940.4000  8.5000     8.5781     2.6012     65.6624    7.5370     0.0732     5.2289     5.3992    
2940.5000  8.5000     8.5781     2.6015     65.6986    8.2889     0.0730     5.1419     5.1983    
2940.6000  8.5000     8.5781     2.6000     65.6326    9.4219     0.0735     5.0268     5.0618    
2940.7000  8.5000     8.5781     2.5975     65.4284    10.1600    0.0742     5.0223     4.9943    
2940.8000  8.5000     8.5781     2.5953     65.2363    8.8823     0.0744     5.0839     5.1475    
2940.9000  8.5000     8.5781     2.5950     65.0676    8.9407     0.0735     5.0648     5.1574    
2941.0000  8.5000     8.5781     2.5973     64.9370    9.2958     0.0717     5.0033     5.0531    
2941.1000  8.5000     8.5781     2.6005     64.9491    8.5226     0.0696     5.0010     5.0605    
2941.2000  8.5000     8.5781     2.6020     65.0367    8.2967     0.0682     5.0128     5.1748    
2941.3000  8.5000     8.5781     2.6006     65.2281    8.2901     0.0681     5.0789     5.2536    
2941.4000  8.5000     8.5781     2.5996     65.3780    9.0354     0.0695     4.9942     5.0941    
2941.5000  8.5000     8.5781     2.6010     65.5268    9.2191     0.0722     4.8933     4.9630    
2941.6000  8.5000     8.5781     2.6035     65.7005    9.0440     0.0757     4.8628     4.9253    
2941.7000  8.5000     8.5781     2.6033     65.7337    9.1937     0.0802     4.7538     4.7303    
2941.8000  8.5000     8.5781     2.5986     65.7114    9.9652     0.0844     4.6470     4.5454    
2941.9000  8.5000     8.5781     2.5918     65.6599    10.9869    0.0859     4.6367     4.5632    
2942.0000  8.5000     8.5781     2.5871     65.4734    11.3342    0.0838     4.6306     4.5163    
2942.1000  8.5000     8.5781     2.5870     65.2231    11.4071    0.0790     4.6369     4.6032    
2942.2000  8.5000     8.5781     2.5910     64.9429    10.0082    0.0746     4.7370     4.8032    
2942.3000  8.5000     8.5781     2.5964     64.6269    8.8021     0.0727     4.8167     4.9360    
2942.4000  8.5000     8.5781     2.6011     64.3181    8.2424     0.0734     4.8232     4.9460    
2942.5000  8.5000     8.5781     2.6035     64.1828    6.7445     0.0759     4.7928     4.9189    
2942.6000  8.5000     8.5781     2.6029     64.0666    6.6192     0.0783     4.7840     4.9356    
2942.7000  8.5000     8.5781     2.6003     63.9629    7.8921     0.0798     4.7031     4.7510    
2942.8000  8.5000     8.5781     2.5969     63.8603    9.1518     0.0803     4.6408     4.6150    
2942.9000  8.5000     8.5781     2.5933     63.8318    9.2612     0.0802     4.6574     4.6415    
2943.0000  8.5000     8.5781     2.5922     63.8691    9.1767     0.0805     4.7328     4.8046    
2943.1000  8.5000     8.5781     2.5912     64.0921    9.0930     0.0808     4.7625     4.8258    
2943.2000  8.5000     8.5781     2.5940     64.3876    9.4752     0.0813     4.7411     4.7835    
2943.3000  8.5000     8.5781     2.5972     64.7527    10.3755    0.0814     4.7031     4.7273    
2943.4000  8.5000     8.5781     2.5985     65.0856    10.4039    0.0810     4.7031     4.6888    
2943.5000  8.5000     8.5781     2.5974     65.3865    10.1745    0.0802     4.7200     4.7211    
2943.6000  8.5000     8.5781     2.5962     65.6505    10.7564    0.0792     4.7306     4.7299    
2943.7000  8.5000     8.5781     2.5967     65.6845    10.9162    0.0775     4.7541     4.7756    
2943.8000  8.5000     8.5781     2.5991     65.6220    10.6144    0.0751     4.8080     4.8408    
2943.9000  8.5000     8.5781     2.6014     65.4444    10.3848    0.0726     4.8234     4.9158    
2944.0000  8.5000     8.5781     2.6031     65.0746    9.9715     0.0708     4.9024     5.0079    
2944.1000  8.5000     8.5781     2.6053     64.6268    9.1621     0.0702     4.9478     5.0751    
2944.2000  8.5000     8.5781     2.6078     64.0847    8.4255     0.0705     4.9433     5.0444    
2944.3000  8.5000     8.5781     2.6091     63.5165    7.9492     0.0712     4.9732     5.0488    
2944.4000  8.5000     8.5781     2.6070     63.0176    7.5988     0.0723     4.9894     5.0707    
2944.5000  8.5000     8.5781     2.6027     62.6775    7.5961     0.0735     4.9894     5.0122    
2944.6000  8.5000     8.5781     2.5990     62.4723    8.2945     0.0748     4.9940     4.9393    
2944.7000  8.5000     8.5781     2.5975     62.3045    9.3945     0.0759     5.0106     4.9703    
2944.8000  8.5000     8.5781     2.5984     62.1439    10.4226    0.0763     5.0792     5.0567    
2944.9000  8.5000     8.5781     2.6015     62.0877    10.2607    0.0761     5.1129     5.0338    
2945.0000  8.5000     8.5781     2.6064     62.0423    9.9685     0.0751     5.1033     4.9683    
2945.1000  8.5000     8.5781     2.6113     61.9110    11.6982    0.0733     5.1718     5.0497    
