~Version
 VERS              .         2.0                           : CWLS LOG ASCII STANDARD - VERSION 2.0
 WRAP              .         NO                            : ONE LINE PER DEPTH STEP
 DLM               .         SPACE                         : DELIMITING CHARACTER(SPACE TAB OR COMMA)
~Well Information
#_______________________________________________________________________________
#
#PARAMETER_NAME    .UNIT     VALUE                         : DESCRIPTION
#_______________________________________________________________________________
STRT               .m        2605.0000                     : First reference value
STOP               .m        3675.0000                     : Last reference value
STEP               .m        0.1000                        : Step increment
NULL               .         -9999                         : Missing value
COMP               .                                       : Company
WELL               .         Well-B                        : Well name
~Parameter Information Block
#_______________________________________________________________________________
#
#PARAMETER_NAME    .UNIT     VALUE                         : DESCRIPTION
#_______________________________________________________________________________
SET                .         Data_Output                   : 
TLFamily_BS        .         Bit Size                      : 
TLFamily_CALI      .         Caliper                       : 
TLFamily_DENS      .         Bulk Density                  : 
TLFamily_DT        .         Compressional Slowness        : 
TLFamily_DTS       .         Shear Slowness                : 
TLFamily_GR        .         Gamma Ray                     : 
TLFamily_MD        .         Measured Depth                : 
TLFamily_NPHI      .         Thermal Neutron Porosity      : 
TLFamily_RS        .         Resistivity - Phase Shift     : 
TLFamily_RT        .         Resistivity - True Formation  : 
~Curve Information
#_______________________________________________________________________________
#
#LOGNAME           .UNIT     LOG_ID                        : DESCRIPTION
#_______________________________________________________________________________
MD                 .m                                      :  
BS                 .inches                                 :  
CALI               .inches                                 :  
DENS               .g/cm3                                  :  
DT                 .us/ft                                  :  
DTS                .us/ft                                  :  
GR                 .API                                    :  
NPHI               .v/v                                    :  
RS                 .ohm.m                                  :  
RT                 .ohm.m                                  :  
~Ascii
# ...
3378.8000  8.5000     8.5781     2.2614     103.5028   196.4223   209.1192   0.4313     4.0239     4.8756    
3378.9000  8.5000     8.5781     2.2524     103.7382   196.2746   204.5941   0.4307     3.9320     4.6670    
3379.0000  8.5000     8.5781     2.2440     103.9736   196.1256   203.0915   0.4280     3.8366     4.4331    
3379.1000  8.5000     8.5781     2.2370     104.2279   195.5024   204.2124   0.4241     3.7967     4.2657    
3379.2000  8.5000     8.5781     2.2330     104.4851   194.8091   205.0303   0.4223     3.7984     4.1959    
3379.3000  8.5000     8.5781     2.2327     104.7421   194.1156   207.9814   0.4238     3.8292     4.2290    
3379.4000  8.5000     8.5781     2.2345     104.9315   193.3533   210.4719   0.4263     3.8656     4.2836    
3379.5000  8.5000     8.5782     2.2357     105.1065   192.5761   213.3523   0.4284     3.9041     4.3753    
3379.6000  8.5000     8.6250     2.2356     105.2809   191.7993   217.6379   0.4264     3.9712     4.4726    
3379.7000  8.5000     8.6250     2.2346     105.2365   191.1985   222.1544   0.4236     4.0072     4.4955    
3379.8000  8.5000     8.6249     2.2328     105.1286   190.6486   228.7001   0.4219     4.0010     4.4732    
3379.9000  8.5000     8.6017     2.2301     105.0212   190.0991   235.7622   0.4169     4.0025     4.3675    
3380.0000  8.5000     8.6249     2.2272     105.0605   189.6925   236.4823   0.4159     3.9803     4.2029    
3380.1000  8.5000     8.6017     2.2261     105.1547   189.3394   235.7145   0.4169     3.9094     4.0240    
3380.2000  8.5000     8.6250     2.2279     105.2481   188.9865   237.6810   0.4114     3.8732     3.8499    
3380.3000  8.5000     8.6249     2.2319     104.9872   188.7166   241.4049   0.4077     3.8792     3.7637    
3380.4000  8.5000     8.5781     2.2371     104.5592   188.4859   240.3456   0.4063     3.9187     3.8097    
3380.5000  8.5000     8.5782     2.2432     104.1313   188.2554   239.0658   0.3997     4.0359     4.0388    
3380.6000  8.5000     8.6250     2.2500     103.7734   188.0961   235.6402   0.3888     4.1433     4.2228    
3380.7000  8.5000     8.6250     2.2575     103.4562   187.9783   235.0097   0.3825     4.1787     4.2592    
3380.8000  8.5000     8.6250     2.2646     103.1393   187.8607   237.4911   0.3839     4.2082     4.2657    
3380.9000  8.5000     8.6250     2.2695     102.9863   187.8356   240.9904   0.3924     4.2849     4.2915    
3381.0000  8.5000     8.6250     2.2710     102.9500   187.8763   238.6435   0.4023     4.3106     4.3401    
3381.1000  8.5000     8.6250     2.2689     102.9138   187.9174   240.9160   0.4082     4.3450     4.4097    
3381.2000  8.5000     8.6250     2.2648     102.9548   188.0819   246.1352   0.4076     4.3297     4.4538    
3381.3000  8.5000     8.6249     2.2609     103.0628   188.3533   250.3331   0.4011     4.2761     4.3751    
3381.4000  8.5000     8.5781     2.2592     103.1709   188.6251   249.3504   0.3857     4.1413     4.1666    
3381.5000  8.5000     8.5781     2.2601     103.3641   188.9961   252.8362   0.3699     4.0194     4.0095    
3381.6000  8.5000     8.5781     2.2626     103.6467   189.4713   253.0697   0.3610     4.0683     4.0431    
3381.7000  8.5000     8.5781     2.2652     103.9289   189.9467   253.9281   0.3622     4.1585     4.2611    
3381.8000  8.5000     8.5781     2.2668     104.1190   190.4707   253.2498   0.3698     4.2993     4.5341    
3381.9000  8.5000     8.5781     2.2670     104.1918   191.0564   253.3024   0.3786     4.4418     4.9545    
3382.0000  8.5000     8.5782     2.2660     104.2645   191.6420   254.0403   0.3884     4.5855     5.4225    
3382.1000  8.5000     8.6018     2.2646     104.3210   192.1883   250.5217   0.3987     4.5926     5.5557    
3382.2000  8.5000     8.6716     2.2637     104.3522   192.6738   248.0378   0.4149     4.5535     5.4431    
3382.3000  8.5000     8.5781     2.2641     104.3834   193.1590   252.9684   0.4233     4.5341     5.3458    
3382.4000  8.5000     8.5782     2.2673     104.4251   193.5524   259.9097   0.4212     4.5033     5.1373    
3382.5000  8.5000     8.6250     2.2741     104.4867   193.7709   262.1379   0.4113     4.4675     4.9373    
3382.6000  8.5000     8.6249     2.2832     104.5483   193.9891   260.4931   0.4082     4.2609     4.5930    
3382.7000  8.5000     8.6017     2.2913     104.5700   194.1043   255.1103   0.4164     3.9548     4.0373    
3382.8000  8.5000     8.6249     2.2949     104.4974   193.9748   250.1411   0.4226     3.8818     3.8473    
3382.9000  8.5000     8.5781     2.2928     104.4249   193.8453   244.8117   0.4285     4.0045     4.0504    
3383.0000  8.5000     8.5781     2.2864     104.3967   193.6579   240.0954   0.4256     4.1263     4.3155    
3383.1000  8.5000     8.5782     2.2791     104.5019   193.2959   241.8446   0.4248     4.2126     4.5651    
3383.2000  8.5000     8.6250     2.2718     104.6070   192.9336   235.2636   0.4241     4.2603     4.6333    
3383.3000  8.5000     8.6250     2.2675     104.6966   192.5195   235.1630   0.4307     4.2651     4.6159    
3383.4000  8.5000     8.6250     2.2656     104.7244   191.8992   235.1090   0.4329     4.3284     4.7248    
3383.5000  8.5000     8.6251     2.2656     104.7520   191.2792   227.8864   0.4252     4.4965     5.0038    
3383.6000  8.5000     8.6483     2.2664     104.7619   190.7221   226.6627   0.4119     4.6357     5.3442    
3383.7000  8.5000     8.6250     2.2666     104.6737   190.5144   227.4188   0.4097     4.8260     5.9464    
3383.8000  8.5000     8.6250     2.2653     104.5856   190.3067   219.7591   0.4173     4.8788     6.3569    
3383.9000  8.5000     8.6250     2.2635     104.5271   190.1552   211.5889   0.4363     4.7768     6.1712    
3384.0000  8.5000     8.6250     2.2630     104.7203   190.4797   206.5472   0.4557     4.5851     5.5678    
3384.1000  8.5000     8.6250     2.2637     104.9134   190.8041   198.7608   0.4655     4.3654     5.0387    
3384.2000  8.5000     8.6250     2.2638     105.1024   191.1106   192.0972   0.4626     4.0936     4.5772    
3384.3000  8.5000     8.6250     2.2618     105.2237   191.1229   192.5208   0.4555     3.9019     4.2084    
3384.4000  8.5000     8.6250     2.2578     105.3451   191.1352   191.3502   0.4498     3.7393     3.9551    
3384.5000  8.5000     8.6250     2.2534     105.4655   191.1477   189.2666   0.4434     3.5711     3.7218    
3384.6000  8.5000     8.6250     2.2500     105.6042   191.2575   189.3676   0.4360     3.4499     3.5098    
3384.7000  8.5000     8.6250     2.2483     105.7419   191.3665   185.2657   0.4288     3.3092     3.2593    
3384.8000  8.5000     8.6250     2.2481     105.8796   191.4768   187.3708   0.4241     3.2125     3.1476    
3384.9000  8.5000     8.6250     2.2489     106.0182   192.1618   188.0897   0.4190     3.1802     3.0562    
3385.0000  8.5000     8.6250     2.2504     106.1569   192.8712   190.4507   0.4118     3.0631     2.8560    
3385.1000  8.5000     8.6250     2.2525     106.2954   193.5793   191.3646   0.4047     3.1107     2.9905    
3385.2000  8.5000     8.6250     2.2545     106.3403   193.7832   195.1754   0.4012     3.2559     3.3360    
3385.3000  8.5000     8.6250     2.2558     106.3761   193.9380   196.7358   0.4007     3.3385     3.5012    
3385.4000  8.5000     8.6250     2.2568     106.4112   194.0935   199.6734   0.4013     3.3737     3.5115    
3385.5000  8.5000     8.6250     2.2585     106.1402   194.5436   198.9227   0.4026     3.4493     3.5688    
3385.6000  8.5000     8.6250     2.2612     105.8210   195.0403   201.5676   0.4060     3.5020     3.6942    
3385.7000  8.5000     8.6250     2.2640     105.5033   195.5366   203.0786   0.4101     3.5472     3.7734    
3385.8000  8.5000     8.6250     2.2647     105.7895   195.8698   205.0981   0.4121     3.6121     3.8449    
3385.9000  8.5000     8.6250     2.2628     106.2123   196.1661   213.1099   0.4116     3.7200     4.1076    
3386.0000  8.5000     8.6249     2.2592     106.6346   196.4618   220.4185   0.4132     3.9284     4.5698    
