~Version
 VERS              .         2.0                           : CWLS LOG ASCII STANDARD - VERSION 2.0
 WRAP              .         NO                            : ONE LINE PER DEPTH STEP
 DLM               .         SPACE                         : DELIMITING CHARACTER(SPACE TAB OR COMMA)
~Well Information
#_______________________________________________________________________________
#
#PARAMETER_NAME    .UNIT     VALUE                         : DESCRIPTION
#_______________________________________________________________________________
STRT               .m        2574.0000                     : First reference value
STOP               .m        4550.0000                     : Last reference value
STEP               .m        0.1000                        : Step increment
NULL               .         -9999                         : Missing value
COMP               .                                       : Company
WELL               .         Well-D                        : Well name
~Parameter Information Block
#_______________________________________________________________________________
#
#PARAMETER_NAME    .UNIT     VALUE                         : DESCRIPTION
#_______________________________________________________________________________
SET                .         Data_Output                   : 
TLFamily_BS        .         Bit Size                      : 
TLFamily_CALI      .         Caliper                       : 
TLFamily_DENS      .         Bulk Density                  : 
TLFamily_DT        .         Compressional Slowness        : 
TLFamily_DTS       .         Shear Slowness                : 
TLFamily_GR        .         Gamma Ray                     : 
TLFamily_MD        .         Measured Depth                : 
TLFamily_NPHI      .         Thermal Neutron Porosity      : 
TLFamily_RS        .         Resistivity - Phase Shift     : 
TLFamily_RT        .         Resistivity - True Formation  : 
~Curve Information
#_______________________________________________________________________________
#
#LOGNAME           .UNIT     LOG_ID                        : DESCRIPTION
#_______________________________________________________________________________
MD                 .m                                      :  
BS                 .inches                                 :  
CALI               .inches                                 :  
DENS               .g/cm3                                  :  
DT                 .us/ft                                  :  
DTS                .us/ft                                  :  
GR                 .API                                    :  
NPHI               .v/v                                    :  
RS                 .ohm.m                                  :  
RT                 .ohm.m                                  :  
~Ascii
2574.0000  8.5000     8.1560     -9999.0000 -9999.0000 -9999.0000 47.0260    -9999.0000 -9999.0000 -9999.0000
2574.1000  8.5000     8.0440     -9999.0000 -9999.0000 -9999.0000 46.7010    -9999.0000 -9999.0000 -9999.0000
2574.2000  8.5000     8.0350     -9999.0000 -9999.0000 -9999.0000 46.3270    -9999.0000 -9999.0000 -9999.0000
2574.3000  8.5000     8.0890     -9999.0000 -9999.0000 -9999.0000 48.2810    -9999.0000 -9999.0000 -9999.0000
2574.4000  8.5000     8.1170     -9999.0000 -9999.0000 -9999.0000 49.0980    -9999.0000 -9999.0000 -9999.0000
2574.5000  8.5000     8.1400     -9999.0000 -9999.0000 -9999.0000 49.3780    -9999.0000 -9999.0000 -9999.0000
2574.6000  8.5000     7.9920     -9999.0000 -9999.0000 -9999.0000 47.6390    -9999.0000 -9999.0000 -9999.0000
2574.7000  8.5000     8.1170     -9999.0000 -9999.0000 -9999.0000 45.5980    -9999.0000 -9999.0000 -9999.0000
2574.8000  8.5000     8.0160     -9999.0000 -9999.0000 -9999.0000 45.0080    -9999.0000 -9999.0000 -9999.0000
2574.9000  8.5000     8.0630     -9999.0000 -9999.0000 -9999.0000 46.3460    -9999.0000 -9999.0000 -9999.0000
2575.0000  8.5000     8.1020     -9999.0000 -9999.0000 -9999.0000 46.3530    -9999.0000 -9999.0000 -9999.0000
2575.1000  8.5000     8.0160     -9999.0000 -9999.0000 -9999.0000 46.9360    -9999.0000 -9999.0000 -9999.0000
2575.2000  8.5000     8.0390     -9999.0000 -9999.0000 -9999.0000 46.3440    -9999.0000 -9999.0000 -9999.0000
2575.3000  8.5000     8.2810     -9999.0000 -9999.0000 -9999.0000 47.2590    -9999.0000 -9999.0000 -9999.0000
2575.4000  8.5000     8.3050     -9999.0000 -9999.0000 -9999.0000 47.7070    -9999.0000 -9999.0000 -9999.0000
2575.5000  8.5000     8.1800     -9999.0000 -9999.0000 -9999.0000 48.0480    -9999.0000 -9999.0000 -9999.0000
2575.6000  8.5000     8.4220     -9999.0000 -9999.0000 -9999.0000 48.7750    -9999.0000 -9999.0000 -9999.0000
2575.7000  8.5000     8.7500     -9999.0000 -9999.0000 -9999.0000 50.6020    -9999.0000 0.7330     0.7830    
2575.8000  8.5000     8.9680     -9999.0000 -9999.0000 -9999.0000 49.5220    -9999.0000 0.7010     0.7200    
2575.9000  8.5000     8.6720     -9999.0000 108.9680   -9999.0000 50.1070    -9999.0000 0.7010     0.6650    
2576.0000  8.5000     8.6800     -9999.0000 110.1480   -9999.0000 51.3400    -9999.0000 0.6760     0.6290    
2576.1000  8.5000     8.7810     -9999.0000 110.6490   -9999.0000 50.3330    -9999.0000 0.6630     0.6060    
2576.2000  8.5000     8.8280     -9999.0000 110.8290   -9999.0000 50.2570    -9999.0000 0.6640     0.5780    
2576.3000  8.5000     8.8040     -9999.0000 110.5960   -9999.0000 52.3190    -9999.0000 0.6680     0.5910    
2576.4000  8.5000     8.5860     -9999.0000 110.0970   -9999.0000 56.1910    -9999.0000 0.7080     0.6980    
2576.5000  8.5000     8.7810     -9999.0000 109.4640   -9999.0000 58.9770    -9999.0000 0.7210     0.7180    
2576.6000  8.5000     8.9300     -9999.0000 108.6630   -9999.0000 61.7510    -9999.0000 0.7160     0.6980    
2576.7000  8.5000     9.1320     -9999.0000 108.4770   -9999.0000 67.1950    -9999.0000 0.7240     0.7020    
2576.8000  8.5000     8.8280     -9999.0000 108.5590   -9999.0000 72.8790    -9999.0000 0.7030     0.6920    
2576.9000  8.5000     8.7810     -9999.0000 108.7960   -9999.0000 75.0800    -9999.0000 0.7020     0.7000    
2577.0000  8.5000     8.7660     2.3470     109.3850   -9999.0000 74.7000    0.4030     0.7500     0.7510    
2577.1000  8.5000     8.7030     2.3570     110.1330   -9999.0000 72.7990    0.3990     0.7830     0.7980    
2577.2000  8.5000     8.7030     2.3600     110.8430   -9999.0000 71.6310    0.3900     0.7760     0.7500    
2577.3000  8.5000     8.6720     2.3610     111.0100   -9999.0000 69.9000    0.3850     0.7730     0.7190    
2577.4000  8.5000     8.6720     2.3630     110.7970   -9999.0000 69.0400    0.3820     0.7570     0.6930    
2577.5000  8.5000     8.6020     2.3640     110.0520   -9999.0000 70.1330    0.3850     0.7710     0.7110    
2577.6000  8.5000     8.5780     2.3630     108.8090   -9999.0000 72.0080    0.3720     0.7750     0.6990    
2577.7000  8.5000     8.5780     2.3630     107.2590   -9999.0000 72.3240    0.3470     0.7930     0.6960    
2577.8000  8.5000     8.6020     2.3660     106.3790   -9999.0000 65.9540    0.3170     0.8710     0.8390    
2577.9000  8.5000     8.5620     2.3700     105.0800   -9999.0000 61.0580    0.2950     1.0000     1.0670    
2578.0000  8.5000     8.5470     2.3750     103.4520   -9999.0000 56.1240    0.2800     1.0690     1.2380    
2578.1000  8.5000     8.5630     2.3810     103.7590   -9999.0000 53.8220    0.2740     1.1160     1.3430    
2578.2000  8.5000     8.6020     2.3860     103.9680   -9999.0000 54.2410    0.2790     1.1740     1.5610    
2578.3000  8.5000     8.6020     2.3860     104.0790   -9999.0000 56.5540    0.3050     1.2560     1.7960    
2578.4000  8.5000     8.5780     2.3760     105.9440   -9999.0000 59.1920    0.3440     1.1500     1.4180    
2578.5000  8.5000     8.5780     2.3570     107.2920   -9999.0000 68.2160    0.3920     0.9940     1.0010    
2578.6000  8.5000     8.5780     2.3370     107.9110   -9999.0000 74.2770    0.4360     0.8520     0.7940    
2578.7000  8.5000     8.5630     2.3210     108.1670   -9999.0000 79.9870    0.4670     0.7940     0.7210    
2578.8000  8.5000     8.5780     2.3090     108.1260   -9999.0000 82.8460    0.4750     0.7500     0.6550    
2578.9000  8.5000     8.5630     2.2970     107.6770   -9999.0000 80.6380    0.4680     0.7000     0.5770    
2579.0000  8.5000     8.5780     2.2890     107.5830   -9999.0000 78.1520    0.4510     0.6790     0.5360    
2579.1000  8.5000     8.5780     2.2860     107.2060   -9999.0000 74.4730    0.4320     0.6680     0.5120    
2579.2000  8.5000     8.5780     2.2870     106.1950   -9999.0000 71.8280    0.4110     0.6670     0.5320    
2579.3000  8.5000     8.5780     2.2910     104.9450   -9999.0000 68.5170    0.3900     0.6520     0.5400    
2579.4000  8.5000     8.5470     2.2950     103.5150   -9999.0000 63.7010    0.3730     0.6700     0.6070    
2579.5000  8.5000     8.5620     2.2970     101.7880   -9999.0000 60.9860    0.3600     0.7330     0.6980    
2579.6000  8.5000     8.5470     2.2980     100.6240   -9999.0000 59.5580    0.3530     0.7240     0.7080    
2579.7000  8.5000     8.5470     2.2990     99.5800    -9999.0000 60.2780    0.3490     0.7530     0.7210    
2579.8000  8.5000     8.5780     2.2980     98.4040    -9999.0000 61.8090    0.3470     0.7660     0.7310    
2579.9000  8.5000     8.5780     2.2980     97.3640    -9999.0000 62.8290    0.3440     0.7790     0.7140    
2580.0000  8.5000     8.5470     2.2990     96.4750    -9999.0000 61.2360    0.3360     0.7930     0.7050    
2580.1000  8.5000     8.5470     2.3040     95.9790    -9999.0000 56.7920    0.3180     0.8140     0.7740    
2580.2000  8.5000     8.5470     2.3150     96.3880    -9999.0000 52.9840    0.2910     0.9230     0.9820    
2580.3000  8.5000     8.5780     2.3340     97.2250    -9999.0000 49.8430    0.2700     1.0620     1.2130    
2580.4000  8.5000     8.5780     2.3600     98.0560    -9999.0000 46.6740    0.2640     1.1430     1.4860    
2580.5000  8.5000     8.5780     2.3860     98.8470    -9999.0000 48.4180    0.2810     1.1860     1.6360    
2580.6000  8.5000     8.5780     2.4020     99.6530    -9999.0000 53.7690    0.3160     1.1750     1.6200    
2580.7000  8.5000     8.5620     2.4040     100.7800   -9999.0000 55.9350    0.3570     1.0730     1.4310    
2580.8000  8.5000     8.5470     2.3940     102.7850   -9999.0000 57.9610    0.3940     0.9500     1.1500    
2580.9000  8.5000     8.5470     2.3780     105.4540   -9999.0000 61.3950    0.4200     0.8670     0.9460    
2581.0000  8.5000     8.5780     2.3600     108.6700   -9999.0000 64.1050    0.4290     0.8060     0.8400    
2581.1000  8.5000     8.5630     2.3420     111.2370   -9999.0000 64.6960    0.4180     0.7080     0.6590    
2581.2000  8.5000     8.5630     2.3260     113.2150   -9999.0000 63.6620    0.3940     0.6690     0.5730    
