~Version
 VERS              .         2.0                           : CWLS LOG ASCII STANDARD - VERSION 2.0
 WRAP              .         NO                            : ONE LINE PER DEPTH STEP
 DLM               .         SPACE                         : DELIMITING CHARACTER(SPACE TAB OR COMMA)
~Well Information
#_______________________________________________________________________________
#
#PARAMETER_NAME    .UNIT     VALUE                         : DESCRIPTION
#_______________________________________________________________________________
STRT               .m        2605.0000                     : First reference value
STOP               .m        3625.0000                     : Last reference value
STEP               .m        0.1000                        : Step increment
NULL               .         -9999                         : Missing value
COMP               .                                       : Company
WELL               .         Well-A                        : Well name
~Parameter Information Block
#_______________________________________________________________________________
#
#PARAMETER_NAME    .UNIT     VALUE                         : DESCRIPTION
#_______________________________________________________________________________
SET                .         Data_Output                   : 
TLFamily_BS        .         Bit Size                      : 
TLFamily_CALI      .         Caliper                       : 
TLFamily_DENS      .         Bulk Density                  : 
TLFamily_DT        .         Compressional Slowness        : 
TLFamily_GR        .         Gamma Ray                     : 
TLFamily_MD        .         Measured Depth                : 
TLFamily_NPHI      .         Thermal Neutron Porosity      : 
TLFamily_RS        .         Resistivity - Phase Shift     : 
TLFamily_RT        .         Resistivity - True Formation  : 
~Curve Information
#_______________________________________________________________________________
#
#LOGNAME           .UNIT     LOG_ID                        : DESCRIPTION
#_______________________________________________________________________________
MD                 .m                                      :  
BS                 .inches                                 :  
CALI               .inches                                 :  
DENS               .g/cm3                                  :  
DT                 .us/ft                                  :  
GR                 .API                                    :  
NPHI               .v/v                                    :  
RS                 .ohm.m                                  :  
RT                 .ohm.m                                  :  
~Ascii
# ...
3609.4000  8.5000     -9999.0000 2.5557     -9999.0000 85.9440    -9999.0000 1.8867     1.8511    
3609.5000  8.5000     -9999.0000 2.5452     -9999.0000 83.4590    -9999.0000 1.8930     1.8759    
3609.6000  8.5000     -9999.0000 -9999.0000 -9999.0000 81.7123    -9999.0000 1.9138     1.9372    
3609.7000  8.5000     -9999.0000 -9999.0000 -9999.0000 73.0304    -9999.0000 1.9250     1.9550    
3609.8000  8.5000     -9999.0000 -9999.0000 -9999.0000 61.9641    -9999.0000 1.9187     1.9503    
3609.9000  8.5000     -9999.0000 -9999.0000 -9999.0000 52.0304    -9999.0000 1.9632     2.0850    
3610.0000  8.5000     -9999.0000 -9999.0000 -9999.0000 44.1672    -9999.0000 2.0285     2.2893    
3610.1000  8.5000     -9999.0000 -9999.0000 -9999.0000 41.0639    -9999.0000 2.0510     2.3952    
3610.2000  8.5000     -9999.0000 -9999.0000 -9999.0000 39.7558    -9999.0000 2.0217     2.3748    
3610.3000  8.5000     -9999.0000 -9999.0000 -9999.0000 40.8666    -9999.0000 1.9256     2.2345    
3610.4000  8.5000     -9999.0000 -9999.0000 -9999.0000 40.3890    -9999.0000 1.8216     1.9990    
3610.5000  8.5000     -9999.0000 -9999.0000 -9999.0000 41.2138    -9999.0000 1.6783     1.6958    
3610.6000  8.5000     -9999.0000 -9999.0000 -9999.0000 45.8817    -9999.0000 1.5607     1.4797    
3610.7000  8.5000     -9999.0000 -9999.0000 -9999.0000 49.5083    -9999.0000 1.4560     1.3030    
3610.8000  8.5000     -9999.0000 -9999.0000 -9999.0000 51.4068    -9999.0000 1.4122     1.2219    
3610.9000  8.5000     -9999.0000 -9999.0000 -9999.0000 55.3430    -9999.0000 1.4091     1.2242    
3611.0000  8.5000     -9999.0000 -9999.0000 -9999.0000 62.2867    -9999.0000 1.4620     1.3237    
3611.1000  8.5000     -9999.0000 -9999.0000 -9999.0000 70.7877    -9999.0000 1.5575     1.5210    
3611.2000  8.5000     -9999.0000 -9999.0000 -9999.0000 79.1796    -9999.0000 1.7121     1.8122    
3611.3000  8.5000     -9999.0000 -9999.0000 -9999.0000 82.2174    -9999.0000 1.8118     2.0106    
3611.4000  8.5000     -9999.0000 -9999.0000 -9999.0000 78.9679    -9999.0000 1.8488     2.0056    
3611.5000  8.5000     -9999.0000 -9999.0000 -9999.0000 69.4895    -9999.0000 1.8642     1.9619    
3611.6000  8.5000     -9999.0000 -9999.0000 -9999.0000 56.6242    -9999.0000 1.9186     2.0715    
3611.7000  8.5000     -9999.0000 -9999.0000 -9999.0000 47.3333    -9999.0000 2.0414     2.3512    
3611.8000  8.5000     -9999.0000 -9999.0000 -9999.0000 45.0035    -9999.0000 2.1425     2.5988    
3611.9000  8.5000     -9999.0000 -9999.0000 -9999.0000 45.6747    -9999.0000 2.1908     2.7132    
3612.0000  8.5000     -9999.0000 -9999.0000 -9999.0000 51.4783    -9999.0000 2.1981     2.6570    
3612.1000  8.5000     -9999.0000 -9999.0000 -9999.0000 59.7107    -9999.0000 2.1752     2.4936    
3612.2000  8.5000     -9999.0000 -9999.0000 -9999.0000 64.5130    -9999.0000 2.1645     2.4557    
3612.3000  8.5000     -9999.0000 -9999.0000 -9999.0000 69.2484    -9999.0000 2.1538     2.4728    
3612.4000  8.5000     -9999.0000 -9999.0000 -9999.0000 76.0807    -9999.0000 2.0781     2.3052    
3612.5000  8.5000     -9999.0000 -9999.0000 -9999.0000 87.6173    -9999.0000 1.9702     1.9687    
3612.6000  8.5000     -9999.0000 -9999.0000 -9999.0000 98.1039    -9999.0000 1.8688     1.7465    
3612.7000  8.5000     -9999.0000 -9999.0000 -9999.0000 103.6893   -9999.0000 1.8206     1.6936    
3612.8000  8.5000     -9999.0000 -9999.0000 -9999.0000 106.7471   -9999.0000 1.8010     1.6870    
3612.9000  8.5000     -9999.0000 -9999.0000 -9999.0000 105.5162   -9999.0000 1.7843     1.6817    
3613.0000  8.5000     -9999.0000 -9999.0000 -9999.0000 109.2194   -9999.0000 1.7644     1.6592    
3613.1000  8.5000     -9999.0000 -9999.0000 -9999.0000 112.5709   -9999.0000 1.7546     1.6517    
3613.2000  8.5000     -9999.0000 -9999.0000 -9999.0000 110.5501   -9999.0000 1.7581     1.6654    
3613.3000  8.5000     -9999.0000 -9999.0000 -9999.0000 110.7159   -9999.0000 1.7627     1.6735    
3613.4000  8.5000     -9999.0000 -9999.0000 -9999.0000 108.7872   -9999.0000 1.7665     1.6843    
3613.5000  8.5000     -9999.0000 -9999.0000 -9999.0000 109.7880   -9999.0000 1.7744     1.7069    
3613.6000  8.5000     -9999.0000 -9999.0000 -9999.0000 108.7033   -9999.0000 1.7799     1.7369    
3613.7000  8.5000     -9999.0000 -9999.0000 -9999.0000 106.0729   -9999.0000 1.7866     1.7564    
3613.8000  8.5000     -9999.0000 -9999.0000 -9999.0000 106.0534   -9999.0000 1.7873     1.7604    
3613.9000  8.5000     -9999.0000 -9999.0000 -9999.0000 106.9050   -9999.0000 1.7825     1.7567    
3614.0000  8.5000     -9999.0000 -9999.0000 -9999.0000 106.6924   -9999.0000 1.7799     1.7525    
3614.1000  8.5000     -9999.0000 -9999.0000 -9999.0000 104.7641   -9999.0000 1.7760     1.7496    
3614.2000  8.5000     -9999.0000 -9999.0000 -9999.0000 105.7920   -9999.0000 1.7752     1.7548    
3614.3000  8.5000     -9999.0000 -9999.0000 -9999.0000 104.7327   -9999.0000 1.7762     1.7698    
3614.4000  8.5000     -9999.0000 -9999.0000 -9999.0000 102.5183   -9999.0000 1.7752     1.7738    
3614.5000  8.5000     -9999.0000 -9999.0000 -9999.0000 103.2618   -9999.0000 1.7618     1.7469    
3614.6000  8.5000     -9999.0000 -9999.0000 -9999.0000 104.2608   -9999.0000 1.7419     1.6931    
3614.7000  8.5000     -9999.0000 -9999.0000 -9999.0000 104.3427   -9999.0000 1.7276     1.6698    
3614.8000  8.5000     -9999.0000 -9999.0000 -9999.0000 107.0606   -9999.0000 1.7248     1.6752    
3614.9000  8.5000     -9999.0000 -9999.0000 -9999.0000 105.9764   -9999.0000 1.7281     1.6916    
3615.0000  8.5000     -9999.0000 -9999.0000 -9999.0000 106.1184   -9999.0000 1.7273     1.7036    
3615.1000  8.5000     -9999.0000 -9999.0000 -9999.0000 113.4603   -9999.0000 1.7178     1.6820    
3615.2000  8.5000     -9999.0000 -9999.0000 -9999.0000 119.0136   -9999.0000 1.7060     1.6538    
3615.3000  8.5000     -9999.0000 -9999.0000 -9999.0000 117.5059   -9999.0000 1.6976     1.6297    
3615.4000  8.5000     -9999.0000 -9999.0000 -9999.0000 116.6550   -9999.0000 1.6934     1.6148    
3615.5000  8.5000     -9999.0000 -9999.0000 -9999.0000 114.5674   -9999.0000 1.6979     1.6187    
3615.6000  8.5000     -9999.0000 -9999.0000 -9999.0000 112.8093   -9999.0000 1.7072     1.6414    
3615.7000  8.5000     -9999.0000 -9999.0000 -9999.0000 110.0737   -9999.0000 1.7221     1.6869    
3615.8000  8.5000     -9999.0000 -9999.0000 -9999.0000 105.4813   -9999.0000 1.7502     1.7690    
3615.9000  8.5000     -9999.0000 -9999.0000 -9999.0000 104.7743   -9999.0000 1.7592     1.8061    
3616.0000  8.5000     -9999.0000 -9999.0000 -9999.0000 108.1578   -9999.0000 1.7246     1.7418    
3616.1000  8.5000     -9999.0000 -9999.0000 -9999.0000 113.6881   -9999.0000 1.6700     1.6091    
3616.2000  8.5000     -9999.0000 -9999.0000 -9999.0000 115.6807   -9999.0000 1.6486     1.5598    
3616.3000  8.5000     -9999.0000 -9999.0000 -9999.0000 114.5781   -9999.0000 1.6328     1.5417    
3616.4000  8.5000     -9999.0000 -9999.0000 -9999.0000 112.8273   -9999.0000 1.6302     1.5440    
3616.5000  8.5000     -9999.0000 -9999.0000 -9999.0000 112.8355   -9999.0000 1.6500     1.5989    
3616.6000  8.5000     -9999.0000 -9999.0000 -9999.0000 109.5587   -9999.0000 1.6763     1.6685    
3616.7000  8.5000     -9999.0000 -9999.0000 -9999.0000 109.5068   -9999.0000 1.6743     1.6630    
3616.8000  8.5000     -9999.0000 -9999.0000 -9999.0000 111.2284   -9999.0000 1.6621     1.6221    
3616.9000  8.5000     -9999.0000 -9999.0000 -9999.0000 112.6225   -9999.0000 1.6540     1.6002    
3617.0000  8.5000     -9999.0000 -9999.0000 -9999.0000 113.7762   -9999.0000 1.6555     1.6020    
3617.1000  8.5000     -9999.0000 -9999.0000 -9999.0000 115.6909   -9999.0000 1.6637     1.6315    
3617.2000  8.5000     -9999.0000 -9999.0000 -9999.0000 112.5222   -9999.0000 1.6735     1.6610    
3617.3000  8.5000     -9999.0000 -9999.0000 -9999.0000 107.7823   -9999.0000 1.6640     1.6250    
3617.4000  8.5000     -9999.0000 -9999.0000 -9999.0000 108.2076   -9999.0000 1.6501     1.5806    
