~Version
 VERS              .         2.0                           : CWLS LOG ASCII STANDARD - VERSION 2.0
 WRAP              .         NO                            : ONE LINE PER DEPTH STEP
 DLM               .         SPACE                         : DELIMITING CHARACTER(SPACE TAB OR COMMA)
~Well Information
#_______________________________________________________________________________
#
#PARAMETER_NAME    .UNIT     VALUE                         : DESCRIPTION
#_______________________________________________________________________________
STRT               .m        2574.0000                     : First reference value
STOP               .m        4550.0000                     : Last reference value
STEP               .m        0.1000                        : Step increment
NULL               .         -9999                         : Missing value
COMP               .                                       : Company
WELL               .         Well-D                        : Well name
~Parameter Information Block
#_______________________________________________________________________________
#
#PARAMETER_NAME    .UNIT     VALUE                         : DESCRIPTION
#_______________________________________________________________________________
SET                .         Data_Output                   : 
TLFamily_BS        .         Bit Size                      : 
TLFamily_CALI      .         Caliper                       : 
TLFamily_DENS      .         Bulk Density                  : 
TLFamily_DT        .         Compressional Slowness        : 
TLFamily_DTS       .         Shear Slowness                : 
TLFamily_GR        .         Gamma Ray                     : 
TLFamily_MD        .         Measured Depth                : 
TLFamily_NPHI      .         Thermal Neutron Porosity      : 
TLFamily_RS        .         Resistivity - Phase Shift     : 
TLFamily_RT        .         Resistivity - True Formation  : 
~Curve Information
#_______________________________________________________________________________
#
#LOGNAME           .UNIT     LOG_ID                        : DESCRIPTION
#_______________________________________________________________________________
MD                 .m                                      :  
BS                 .inches                                 :  
CALI               .inches                                 :  
DENS               .g/cm3                                  :  
DT                 .us/ft                                  :  
DTS                .us/ft                                  :  
GR                 .API                                    :  
NPHI               .v/v                                    :  
RS                 .ohm.m                                  :  
RT                 .ohm.m                                  :  
~Ascii
# ...
4136.2000  8.5000     8.7030     2.5920     78.1200    146.9360   41.6740    0.1790     1.9300     2.1410    
4136.3000  8.5000     8.7030     2.5870     78.3990    146.8420   41.6970    0.1780     1.9260     2.1310    
4136.4000  8.5000     8.7030     2.5810     78.7700    145.8930   39.1090    0.1780     1.9230     2.1360    
4136.5000  8.5000     8.7030     2.5760     79.2510    146.0160   37.7520    0.1800     1.9160     2.1210    
4136.6000  8.5000     8.7030     2.5710     79.8130    146.8500   38.7250    0.1840     1.8880     2.0400    
4136.7000  8.5000     8.7030     2.5670     80.4110    147.2830   37.5760    0.1890     1.8710     2.0030    
4136.8000  8.5000     8.7030     2.5650     80.9670    148.1100   37.4640    0.1950     1.8690     1.9930    
4136.9000  8.5000     8.7030     2.5660     81.4840    149.2660   40.6900    0.2010     1.8520     1.9540    
4137.0000  8.5000     8.7030     2.5700     81.8350    150.4140   45.2850    0.2070     1.8450     1.9330    
4137.1000  8.5000     8.7030     2.5750     82.0930    151.5260   49.1060    0.2120     1.8510     1.9530    
4137.2000  8.5000     8.7030     2.5790     82.2560    152.6010   51.2110    0.2160     1.8780     1.9950    
4137.3000  8.5000     8.7030     2.5840     82.3470    153.1450   53.8350    0.2190     1.8850     2.0270    
4137.4000  8.5000     8.7030     2.5910     82.4190    153.3060   58.9220    0.2200     1.9020     2.0830    
4137.5000  8.5000     8.7030     2.5990     82.4690    153.0110   61.8190    0.2210     1.9110     2.1040    
4137.6000  8.5000     8.7030     2.6040     82.2740    152.2540   59.3470    0.2220     1.9120     2.1080    
4137.7000  8.5000     8.7030     2.6060     82.0520    151.3810   58.4310    0.2220     1.9200     2.1230    
4137.8000  8.5000     8.7500     2.6030     81.8190    150.3900   58.4890    0.2160     1.9330     2.1430    
4137.9000  8.5000     8.7500     2.5990     81.5170    149.7060   59.7550    0.2110     1.9320     2.1610    
4138.0000  8.5000     8.7500     2.5940     81.2060    149.1110   59.9910    0.2040     1.9310     2.1600    
4138.1000  8.5000     8.7340     2.5890     80.8960    148.5970   59.3880    0.1980     1.9210     2.1310    
4138.2000  8.5000     8.7030     2.5850     80.5520    148.2260   55.7410    0.1960     1.9170     2.1020    
4138.3000  8.5000     8.7030     2.5800     80.1330    147.9120   51.2080    0.1910     1.9210     2.0980    
4138.4000  8.5000     8.7030     2.5760     79.5540    147.6610   49.4710    0.1890     1.9340     2.1410    
4138.5000  8.5000     8.7030     2.5740     79.2310    147.6180   48.1300    0.1880     1.9320     2.1160    
4138.6000  8.5000     8.7030     2.5740     79.0400    147.6430   47.1180    0.1910     1.9320     2.1080    
4138.7000  8.5000     8.7270     2.5770     79.0210    147.6940   46.2460    0.1940     1.9370     2.1080    
4138.8000  8.5000     8.7270     2.5830     79.3940    147.9340   47.9300    0.1960     1.9420     2.1160    
4138.9000  8.5000     8.7190     2.5910     79.9380    148.3090   51.3350    0.1950     1.9570     2.1470    
4139.0000  8.5000     8.7500     2.5990     80.5830    148.9310   52.7250    0.1980     1.9850     2.1880    
4139.1000  8.5000     8.7500     2.6050     81.0010    149.5690   55.0240    0.2020     1.9940     2.2060    
4139.2000  8.5000     8.7810     2.6110     81.1930    150.1760   57.6840    0.2050     2.0020     2.2060    
4139.3000  8.5000     8.7810     2.6140     80.7440    150.5860   59.2910    0.2090     2.0210     2.2190    
4139.4000  8.5000     8.7600     2.6140     80.4180    151.1240   61.9420    0.2110     2.0590     2.2860    
4139.5000  8.5000     8.7500     2.6110     80.1670    151.5610   63.5650    0.2090     2.0650     2.2640    
4139.6000  8.5000     8.7500     2.6070     79.9560    150.6250   65.5340    0.2050     2.0520     2.2020    
4139.7000  8.5000     8.7500     2.6050     79.7660    149.4990   66.5610    0.1990     2.0590     2.2120    
4139.8000  8.5000     8.7500     2.6070     79.5550    148.1630   63.6040    0.1930     2.0970     2.2860    
4139.9000  8.5000     8.7500     2.6100     78.8080    145.7020   59.3580    0.1880     2.1290     2.3630    
4140.0000  8.5000     8.7500     2.6110     78.1860    144.2910   56.6150    0.1840     2.1450     2.3930    
4140.1000  8.5000     8.7190     2.6100     77.6690    143.7550   53.5470    0.1840     2.1560     2.4210    
4140.2000  8.5000     8.7030     2.6090     77.0610    141.8250   48.8730    0.1850     2.1620     2.4250    
4140.3000  8.5000     8.7500     2.6110     76.6670    142.0160   49.1270    0.1830     2.1600     2.3990    
4140.4000  8.5000     8.7500     2.6130     76.4960    144.4050   50.1700    0.1820     2.1740     2.4170    
4140.5000  8.5000     8.7500     2.6140     76.0410    144.8580   49.7710    0.1760     2.2020     2.4990    
4140.6000  8.5000     8.7500     2.6140     75.6730    145.5630   46.3140    0.1680     2.2110     2.5400    
4140.7000  8.5000     8.7500     2.6150     75.4260    146.6660   48.1680    0.1620     2.2050     2.5380    
4140.8000  8.5000     8.7500     2.6170     75.1500    146.0750   52.5010    0.1580     2.1970     2.5140    
4140.9000  8.5000     8.7500     2.6180     74.9840    145.5380   52.8420    0.1560     2.2330     2.6110    
4141.0000  8.5000     8.7030     2.6170     74.9940    145.3160   49.4210    0.1570     2.2460     2.6460    
4141.1000  8.5000     8.7500     2.6130     75.1720    146.1810   46.9950    0.1560     2.2110     2.5620    
4141.2000  8.5000     8.7500     2.6090     75.5030    147.1360   44.4980    0.1640     2.1900     2.5150    
4141.3000  8.5000     8.7600     2.6070     76.0790    147.9590   43.9750    0.1760     2.1960     2.5180    
4141.4000  8.5000     8.7500     2.6080     76.8700    149.0950   40.8530    0.1920     2.2030     2.5230    
4141.5000  8.5000     8.7500     2.6130     77.7470    150.1240   42.1160    0.2030     2.1610     2.4470    
4141.6000  8.5000     8.7500     2.6210     78.7180    150.7430   47.1770    0.2070     2.1230     2.2370    
4141.7000  8.5000     8.7500     2.6270     79.2110    150.0860   53.5100    0.2070     1.9890     1.9400    
4141.8000  8.5000     8.7500     2.6270     79.4130    148.9420   58.5080    0.2060     1.9990     1.9360    
4141.9000  8.5000     8.7270     2.6200     79.1630    147.4540   60.0040    0.2060     2.0420     2.0680    
4142.0000  8.5000     8.7500     2.6120     78.4730    146.2080   57.0490    0.1980     2.1370     2.3330    
4142.1000  8.5000     8.7500     2.6080     77.6520    145.1320   55.7600    0.1870     2.1080     2.2800    
4142.2000  8.5000     8.7030     2.6110     76.9720    144.3670   57.7220    0.1770     2.1110     2.2860    
4142.3000  8.5000     8.7030     2.6190     76.2890    143.9750   57.2190    0.1640     2.1020     2.2880    
4142.4000  8.5000     8.7030     2.6310     75.6430    143.6950   53.3530    0.1550     2.0920     2.2440    
4142.5000  8.5000     8.7030     2.6460     75.2080    143.0660   51.0310    0.1480     2.0860     2.2750    
4142.6000  8.5000     8.7030     2.6630     74.8540    142.7690   48.8410    0.1430     2.1460     2.4000    
4142.7000  8.5000     8.7190     2.6780     74.5600    142.7690   45.3790    0.1380     2.1850     2.5490    
4142.8000  8.5000     8.7030     2.6830     74.3600    143.5970   42.5120    0.1440     2.1830     2.5350    
4142.9000  8.5000     8.7030     2.6730     74.2600    144.1940   38.7910    0.1500     2.1990     2.5920    
4143.0000  8.5000     8.7030     2.6550     74.2340    144.7140   36.6960    0.1580     2.1570     2.5390    
4143.1000  8.5000     8.7270     2.6390     74.2750    146.6330   38.0310    0.1610     2.1760     2.5710    
4143.2000  8.5000     8.7030     2.6280     74.6350    147.7180   38.7550    0.1650     2.1810     2.5710    
4143.3000  8.5000     8.7030     2.6210     75.2650    148.0670   40.1400    0.1640     2.1610     2.4870    
4143.4000  8.5000     8.7030     2.6160     75.5430    147.5790   44.4880    0.1630     2.1280     2.3970    
