~Version
 VERS              .         2.0                           : CWLS LOG ASCII STANDARD - VERSION 2.0
 WRAP              .         NO                            : ONE LINE PER DEPTH STEP
 DLM               .         SPACE                         : DELIMITING CHARACTER(SPACE TAB OR COMMA)
~Well Information
#_______________________________________________________________________________
#
#PARAMETER_NAME    .UNIT     VALUE                         : DESCRIPTION
#_______________________________________________________________________________
STRT               .m        2605.0000                     : First reference value
STOP               .m        3625.0000                     : Last reference value
STEP               .m        0.1000                        : Step increment
NULL               .         -9999                         : Missing value
COMP               .                                       : Company
WELL               .         Well-A                        : Well name
~Parameter Information Block
#_______________________________________________________________________________
#
#PARAMETER_NAME    .UNIT     VALUE                         : DESCRIPTION
#_______________________________________________________________________________
SET                .         Data_Output                   : 
TLFamily_BS        .         Bit Size                      : 
TLFamily_CALI      .         Caliper                       : 
TLFamily_DENS      .         Bulk Density                  : 
TLFamily_DT        .         Compressional Slowness        : 
TLFamily_GR        .         Gamma Ray                     : 
TLFamily_MD        .         Measured Depth                : 
TLFamily_NPHI      .         Thermal Neutron Porosity      : 
TLFamily_RS        .         Resistivity - Phase Shift     : 
TLFamily_RT        .         Resistivity - True Formation  : 
~Curve Information
#_______________________________________________________________________________
#
#LOGNAME           .UNIT     LOG_ID                        : DESCRIPTION
#_______________________________________________________________________________
MD                 .m                                      :  
BS                 .inches                                 :  
CALI               .inches                                 :  
DENS               .g/cm3                                  :  
DT                 .us/ft                                  :  
GR                 .API                                    :  
NPHI               .v/v                                    :  
RS                 .ohm.m                                  :  
RT                 .ohm.m                                  :  
~Ascii
# ...
2872.3000  8.5000     8.5781     2.5740     64.9173    3.9084     0.0823     3.9501     4.0566    
2872.4000  8.5000     8.5781     2.5661     64.9986    3.5148     0.0842     3.9283     3.9864    
2872.5000  8.5000     8.5781     2.5569     65.0602    2.5753     0.0860     3.9145     3.9519    
2872.6000  8.5000     8.5781     2.5486     65.1114    2.8420     0.0865     3.9130     3.9631    
2872.7000  8.5000     8.5781     2.5438     65.1652    3.3746     0.0855     3.9612     4.0442    
2872.8000  8.5000     8.5781     2.5439     65.1608    2.8491     0.0830     4.0391     4.1956    
2872.9000  8.5000     8.5781     2.5479     65.1150    3.0918     0.0804     4.0750     4.2455    
2873.0000  8.5000     8.5781     2.5539     65.0405    4.6155     0.0786     4.1249     4.3380    
2873.1000  8.5000     8.5781     2.5613     64.9772    4.9585     0.0781     4.1687     4.4174    
2873.2000  8.5000     8.5469     2.5694     64.9227    5.1290     0.0804     4.1790     4.4340    
2873.3000  8.5000     8.5781     2.5769     64.8573    4.5819     0.0809     4.1790     4.4346    
2873.4000  8.5000     8.5469     2.5814     64.8994    4.0891     0.0798     4.1687     4.3660    
2873.5000  8.5000     8.5781     2.5807     65.0482    3.9162     0.0816     4.1551     4.3224    
2873.6000  8.5000     8.5781     2.5755     65.1856    3.5739     0.0843     4.1416     4.2947    
2873.7000  8.5000     8.5781     2.5681     65.3114    4.0325     0.0872     4.1433     4.3030    
2873.8000  8.5000     8.5781     2.5610     65.4238    4.3762     0.0889     4.1518     4.3073    
2873.9000  8.5000     8.5781     2.5572     65.5454    4.2968     0.0882     4.1895     4.3835    
2874.0000  8.5000     8.5781     2.5581     65.6575    4.0807     0.0854     4.2592     4.4976    
2874.1000  8.5000     8.5781     2.5633     65.7544    3.9162     0.0823     4.2557     4.5132    
2874.2000  8.5000     8.5781     2.5693     65.8921    4.4576     0.0797     4.2735     4.5169    
2874.3000  8.5000     8.5781     2.5729     66.0119    5.0880     0.0776     4.2788     4.5438    
2874.4000  8.5000     8.5781     2.5730     66.0902    4.8462     0.0761     4.2878     4.5302    
2874.5000  8.5000     8.5781     2.5707     66.1348    4.8079     0.0752     4.2770     4.5020    
2874.6000  8.5000     8.5781     2.5691     66.1762    4.9598     0.0753     4.2734     4.5019    
2874.7000  8.5000     8.5625     2.5709     66.2255    3.7327     0.0782     4.2274     4.4432    
2874.8000  8.5000     8.5781     2.5761     66.1692    3.1604     0.0773     4.1928     4.3442    
2874.9000  8.5000     8.5781     2.5824     66.0650    3.2485     0.0785     4.1755     4.2890    
2875.0000  8.5000     8.5781     2.5851     65.9073    3.5877     0.0802     4.1082     4.1803    
2875.1000  8.5000     8.5781     2.5812     65.6688    3.6693     0.0824     4.0037     3.9629    
2875.2000  8.5000     8.5781     2.5718     65.3952    3.3131     0.0847     3.9800     3.9107    
2875.3000  8.5000     8.5781     2.5620     65.0974    3.3422     0.0863     4.0424     4.0675    
2875.4000  8.5000     8.5781     2.5558     64.9359    3.5594     0.0869     4.0848     4.1596    
2875.5000  8.5000     8.5781     2.5547     64.8610    3.5214     0.0867     4.0914     4.1841    
2875.6000  8.5000     8.5781     2.5564     64.9130    3.1256     0.0857     4.1148     4.2077    
2875.7000  8.5000     8.5781     2.5586     64.9691    3.3029     0.0845     4.1466     4.3102    
2875.8000  8.5000     8.5781     2.5607     65.0326    3.1077     0.0830     4.1348     4.3590    
2875.9000  8.5000     8.5781     2.5626     65.1351    3.3577     0.0811     4.1382     4.3547    
2876.0000  8.5000     8.5781     2.5643     65.2333    3.7541     0.0791     4.1348     4.3803    
2876.1000  8.5000     8.5781     2.5649     65.3286    4.0060     0.0772     4.1516     4.3944    
2876.2000  8.5000     8.5469     2.5655     65.4245    4.0776     0.0756     4.1214     4.3576    
2876.3000  8.5000     8.5781     2.5675     65.5189    4.7179     0.0747     4.1013     4.3421    
2876.4000  8.5000     8.5781     2.5720     65.6088    5.4604     0.0745     4.1029     4.3238    
2876.5000  8.5000     8.5781     2.5774     65.5637    5.6337     0.0755     4.0683     4.2807    
2876.6000  8.5000     8.5781     2.5809     65.4500    4.8936     0.0772     4.0423     4.1873    
2876.7000  8.5000     8.5781     2.5803     65.2672    4.2816     0.0796     3.9845     4.0504    
2876.8000  8.5000     8.5781     2.5751     65.0621    4.0015     0.0828     3.9238     3.9099    
2876.9000  8.5000     8.5781     2.5664     64.8466    3.8920     0.0864     3.9159     3.7943    
2877.0000  8.5000     8.5781     2.5564     64.6192    4.0508     0.0897     3.8870     3.7421    
2877.1000  8.5000     8.5781     2.5473     64.4200    3.8239     0.0918     3.9100     3.7495    
2877.2000  8.5000     8.5781     2.5414     64.2470    3.1669     0.0923     3.9658     3.7570    
2877.3000  8.5000     8.5781     2.5393     64.1097    2.9998     0.0919     4.0262     3.7876    
2877.4000  8.5000     8.5781     2.5404     64.0123    3.0508     0.0911     4.1031     3.8919    
2877.5000  8.5000     8.5781     2.5429     63.9140    3.2227     0.0897     4.1519     3.9350    
2877.6000  8.5000     8.5781     2.5455     63.8042    2.9657     0.0880     4.2687     4.1001    
2877.7000  8.5000     8.5781     2.5481     63.6968    2.9009     0.0859     4.4017     4.3537    
2877.8000  8.5000     8.5781     2.5516     63.5431    2.2744     0.0833     4.5725     4.5656    
2877.9000  8.5000     8.5781     2.5561     63.2832    2.5937     0.0797     4.7035     4.7938    
2878.0000  8.5000     8.5781     2.5608     62.9632    2.9877     0.0747     4.9447     5.0833    
2878.1000  8.5000     8.5781     2.5649     62.6146    3.4497     0.0691     5.1770     5.4362    
2878.2000  8.5000     8.5781     2.5697     62.2327    4.1099     0.0644     5.3697     5.6966    
2878.3000  8.5000     8.5469     2.5768     61.9777    4.0260     0.0634     5.5671     5.9860    
2878.4000  8.5000     8.5469     2.5863     61.7783    3.2719     0.0623     5.6237     6.0850    
2878.5000  8.5000     8.5469     2.5953     61.6144    3.5676     0.0620     5.6352     5.9470    
2878.6000  8.5000     8.5469     2.6010     61.5111    3.0661     0.0599     5.6993     6.0335    
2878.7000  8.5000     8.5781     2.6030     61.4209    3.2176     0.0600     5.8359     6.2167    
2878.8000  8.5000     8.5781     2.6019     61.2546    3.0585     0.0605     5.8542     6.1729    
2878.9000  8.5000     8.5781     2.5994     61.2136    3.0240     0.0622     5.7816     6.0182    
2879.0000  8.5000     8.5781     2.5958     61.2468    3.0760     0.0647     5.7907     6.0230    
2879.1000  8.5000     8.5781     2.5905     61.3049    2.4917     0.0670     5.8238     6.0820    
2879.2000  8.5000     8.5781     2.5845     61.4130    1.9735     0.0674     5.8788     6.2497    
2879.3000  8.5000     8.5781     2.5805     61.5574    2.9754     0.0654     5.9098     6.4874    
2879.4000  8.5000     8.5781     2.5812     61.7274    3.1202     0.0619     5.9723     6.7935    
2879.5000  8.5000     8.5781     2.5866     61.9744    3.3491     0.0580     5.9407     6.8801    
2879.6000  8.5000     8.5469     2.5945     62.2879    3.0390     0.0571     5.8057     6.7798    
2879.7000  8.5000     8.5469     2.6025     62.6869    2.9875     0.0563     5.6518     6.6478    
2879.8000  8.5000     8.5469     2.6090     63.2069    3.2599     0.0579     5.3721     6.3432    
2879.9000  8.5000     8.5469     2.6115     63.8508    4.0406     0.0611     5.0979     6.0553    
2880.0000  8.5000     8.5469     2.6084     64.4445    4.2254     0.0630     4.8635     5.8293    
2880.1000  8.5000     8.5781     2.6009     65.0597    4.3984     0.0665     4.5597     5.3672    
2880.2000  8.5000     8.5781     2.5924     65.7033    4.7351     0.0691     4.4275     5.1310    
2880.3000  8.5000     8.5781     2.5871     66.1513    4.8815     0.0714     4.2826     4.9889    
