~Version
 VERS              .         2.0                           : CWLS LOG ASCII STANDARD - VERSION 2.0
 WRAP              .         NO                            : ONE LINE PER DEPTH STEP
 DLM               .         SPACE                         : DELIMITING CHARACTER(SPACE TAB OR COMMA)
~Well Information
#_______________________________________________________________________________
#
#PARAMETER_NAME    .UNIT     VALUE                         : DESCRIPTION
#_______________________________________________________________________________
STRT               .m        2605.0000                     : First reference value
STOP               .m        3675.0000                     : Last reference value
STEP               .m        0.1000                        : Step increment
NULL               .         -9999                         : Missing value
COMP               .                                       : Company
WELL               .         Well-B                        : Well name
~Parameter Information Block
#_______________________________________________________________________________
#
#PARAMETER_NAME    .UNIT     VALUE                         : DESCRIPTION
#_______________________________________________________________________________
SET                .         Data_Output                   : 
TLFamily_BS        .         Bit Size                      : 
TLFamily_CALI      .         Caliper                       : 
TLFamily_DENS      .         Bulk Density                  : 
TLFamily_DT        .         Compressional Slowness        : 
TLFamily_DTS       .         Shear Slowness                : 
TLFamily_GR        .         Gamma Ray                     : 
TLFamily_MD        .         Measured Depth                : 
TLFamily_NPHI      .         Thermal Neutron Porosity      : 
TLFamily_RS        .         Resistivity - Phase Shift     : 
TLFamily_RT        .         Resistivity - True Formation  : 
~Curve Information
#_______________________________________________________________________________
#
#LOGNAME           .UNIT     LOG_ID                        : DESCRIPTION
#_______________________________________________________________________________
MD                 .m                                      :  
BS                 .inches                                 :  
CALI               .inches                                 :  
DENS               .g/cm3                                  :  
DT                 .us/ft                                  :  
DTS                .us/ft                                  :  
GR                 .API                                    :  
NPHI               .v/v                                    :  
RS                 .ohm.m                                  :  
RT                 .ohm.m                                  :  
~Ascii
# ...
2743.7000  8.5000     8.6249     2.4587     92.5687    178.0840   50.0556    0.1822     2.2274     3.0825    
2743.8000  8.5000     8.5781     2.4678     93.1265    177.7838   46.2616    0.1875     2.2091     3.0986    
2743.9000  8.5000     8.5781     2.4685     93.4660    177.5631   45.9624    0.1872     2.1902     3.1132    
2744.0000  8.5000     8.5780     2.4608     93.7822    177.3508   51.3577    0.1815     1.9951     2.5992    
2744.1000  8.5000     8.5469     2.4504     94.0977    177.1391   61.0734    0.1709     1.7645     2.1227    
2744.2000  8.5000     8.5470     2.4439     94.1768    177.1126   66.2798    0.1635     1.4868     1.7331    
2744.3000  8.5000     8.5781     2.4447     94.2160    177.1175   69.1010    0.1717     1.1943     1.1431    
2744.4000  8.5000     8.5781     2.4542     94.2568    177.1227   70.1847    0.1969     0.9766     0.9286    
2744.5000  8.5000     8.5781     2.4714     94.9874    177.2854   68.3799    0.2362     0.8795     0.8067    
2744.6000  8.5000     8.5780     2.4898     95.8823    177.4857   60.2111    0.2834     0.7822     0.6845    
2744.7000  8.5000     8.5470     2.4981     96.7762    177.6859   50.8758    0.3189     0.5977     0.4584    
2744.8000  8.5000     8.5780     2.4895     97.2488    177.8792   48.9065    0.3381     0.4864     0.3712    
2744.9000  8.5000     8.5469     2.4670     97.5880    178.0704   44.8991    0.3381     0.4344     0.4092    
2745.0000  8.5000     8.5470     2.4359     97.9273    178.2610   38.9631    0.3270     0.3975     0.3976    
2745.1000  8.5000     8.5780     2.3970     98.2698    178.2649   33.9775    0.3167     0.3797     0.3740    
2745.2000  8.5000     8.5470     2.3497     98.6137    178.1932   30.1491    0.3006     0.3620     0.3505    
2745.3000  8.5000     8.5780     2.3018     98.9541    178.1219   27.9617    0.2851     0.3470     0.3415    
2745.4000  8.5000     8.5469     2.2639     97.8023    178.1934   27.6340    0.2685     0.3428     0.3334    
2745.5000  8.5000     8.5469     2.2406     95.8947    178.3374   28.0589    0.2580     0.3401     0.3255    
2745.6000  8.5000     8.5469     2.2268     93.9875    178.4814   28.3151    0.2547     0.3354     0.3207    
2745.7000  8.5000     8.5469     2.2161     92.2519    178.6164   28.5072    0.2559     0.3295     0.3225    
2745.8000  8.5000     8.5469     2.2064     90.6233    178.7457   28.3335    0.2569     0.3283     0.3240    
2745.9000  8.5000     8.5469     2.2000     88.9954    178.8755   27.5073    0.2571     0.3270     0.3256    
2746.0000  8.5000     8.5469     2.1986     87.6742    179.2403   28.5210    0.2581     0.3279     0.3276    
2746.1000  8.5000     8.5469     2.2008     86.5866    179.7838   28.7457    0.2606     0.3279     0.3308    
2746.2000  8.5000     8.5469     2.2029     85.5014    180.3273   29.5502    0.2644     0.3286     0.3353    
2746.3000  8.5000     8.5469     2.2033     85.4573    180.8693   29.2055    0.2676     0.3295     0.3388    
2746.4000  8.5000     8.5469     2.2021     86.3739    181.4100   27.5073    0.2678     0.3295     0.3383    
2746.5000  8.5000     8.5469     2.2010     87.2903    181.9507   27.4830    0.2654     0.3296     0.3379    
2746.6000  8.5000     8.5469     2.2009     88.1535    182.5289   29.0907    0.2611     0.3279     0.3375    
2746.7000  8.5000     8.5469     2.2016     88.9569    183.1488   29.2558    0.2579     0.3261     0.3371    
2746.8000  8.5000     8.5469     2.2023     89.7608    183.7686   29.0639    0.2563     0.3241     0.3378    
2746.9000  8.5000     8.5469     2.2026     90.7983    184.3640   27.8818    0.2552     0.3231     0.3374    
2747.0000  8.5000     8.5469     2.2024     92.1524    184.9262   27.0209    0.2536     0.3231     0.3344    
2747.1000  8.5000     8.5469     2.2012     93.5064    185.4886   28.1235    0.2518     0.3234     0.3352    
2747.2000  8.5000     8.5469     2.1984     94.8189    186.1355   30.3316    0.2524     0.3236     0.3360    
2747.3000  8.5000     8.5469     2.1939     96.0626    186.9220   30.6201    0.2565     0.3276     0.3437    
2747.4000  8.5000     8.5469     2.1893     97.3059    187.7086   29.5654    0.2633     0.3314     0.3469    
2747.5000  8.5000     8.5469     2.1859     98.3360    188.5118   28.9992    0.2701     0.3320     0.3536    
2747.6000  8.5000     8.5469     2.1836     98.9307    189.3490   30.2039    0.2742     0.3332     0.3502    
2747.7000  8.5000     8.5469     2.1816     99.5253    190.1868   32.0254    0.2751     0.3390     0.3408    
2747.8000  8.5000     8.5469     2.1800     100.0944   191.3128   32.6358    0.2742     0.3462     0.3380    
2747.9000  8.5000     8.5469     2.1795     100.5979   193.1773   33.7960    0.2750     0.3534     0.3352    
2748.0000  8.5000     8.5469     2.1810     101.1012   195.0419   36.3656    0.2807     0.3689     0.3374    
2748.1000  8.5000     8.5469     2.1853     101.5201   196.9441   43.8218    0.2939     0.3981     0.3630    
2748.2000  8.5000     8.5469     2.1972     101.6617   198.9699   51.9495    0.3138     0.4674     0.4968    
2748.3000  8.5000     8.5469     2.2216     101.8032   200.9953   61.2315    0.3372     0.5880     0.7339    
2748.4000  8.5000     8.5469     2.2623     101.8838   202.9066   71.1524    0.3573     0.6437     0.7825    
2748.5000  8.5000     8.5469     2.3141     101.6969   204.3146   76.3351    0.3657     0.6994     0.8311    
2748.6000  8.5000     8.5470     2.3644     101.5098   205.7222   77.7466    0.3589     0.7580     0.8453    
2748.7000  8.5000     8.5780     2.4029     101.2971   206.9385   74.9825    0.3368     0.8109     0.8598    
2748.8000  8.5000     8.5469     2.4275     100.9234   206.9531   73.1193    0.3129     0.8622     0.8820    
2748.9000  8.5000     8.5470     2.4419     100.5498   206.9675   67.2194    0.2897     0.9191     0.9152    
2749.0000  8.5000     8.5780     2.4512     100.1666   206.8761   61.2917    0.2711     1.0109     1.0318    
2749.1000  8.5000     8.5469     2.4605     99.6864    205.7085   57.6385    0.2614     1.0621     1.1047    
2749.2000  8.5000     8.5625     2.4718     99.2062    204.5408   54.2503    0.2602     1.1133     1.1777    
2749.3000  8.5000     8.5470     2.4857     98.7302    203.3195   51.0775    0.2630     1.1615     1.2409    
2749.4000  8.5000     8.5781     2.4967     98.3510    200.8659   50.5755    0.2673     1.1678     1.2069    
2749.5000  8.5000     8.5780     2.5005     97.9719    198.4122   50.4268    0.2733     1.1539     1.1420    
2749.6000  8.5000     8.5469     2.4971     97.5888    195.9366   50.3932    0.2795     1.1495     1.0916    
2749.7000  8.5000     8.5470     2.4902     96.8927    193.0034   50.7424    0.2844     1.1544     1.0970    
2749.8000  8.5000     8.5781     2.4850     96.1908    190.0452   50.7072    0.2901     1.1593     1.1026    
2749.9000  8.5000     8.5781     2.4853     95.4870    187.0864   50.0120    0.2994     1.1724     1.1574    
2750.0000  8.5000     8.5780     2.4909     93.9833    183.8896   50.7383    0.3039     1.2004     1.2388    
2750.1000  8.5000     8.5469     2.4979     92.4316    180.6785   51.8564    0.2905     1.1608     1.1830    
2750.2000  8.5000     8.5625     2.5007     90.8795    177.4683   53.4124    0.2574     1.0940     1.0969    
2750.3000  8.5000     8.5781     2.4961     89.1111    174.6182   56.6984    0.2139     1.0347     1.0513    
2750.4000  8.5000     8.5781     2.4859     87.3174    171.8102   61.4547    0.1709     0.9329     0.8876    
2750.5000  8.5000     8.5781     2.4772     85.5249    169.0052   65.1412    0.1451     0.8874     0.7996    
2750.6000  8.5000     8.5782     2.4772     84.2351    167.5437   63.2021    0.1476     0.8421     0.7120    
2750.7000  8.5000     8.6250     2.4873     83.0356    166.3237   59.4287    0.1743     0.8435     0.7357    
2750.8000  8.5000     8.6249     2.4963     81.8381    165.1064   49.2690    0.2136     0.9591     1.3097    
2750.9000  8.5000     8.5780     2.4821     81.4807    165.0188   39.9177    0.2468     0.9621     1.9895    
