~Version
 VERS              .         2.0                           : CWLS LOG ASCII STANDARD - VERSION 2.0
 WRAP              .         NO                            : ONE LINE PER DEPTH STEP
 DLM               .         SPACE                         : DELIMITING CHARACTER(SPACE TAB OR COMMA)
~Well Information
#_______________________________________________________________________________
#
#PARAMETER_NAME    .UNIT     VALUE                         : DESCRIPTION
#_______________________________________________________________________________
STRT               .m        2574.0000                     : First reference value
STOP               .m        4550.0000                     : Last reference value
STEP               .m        0.1000                        : Step increment
NULL               .         -9999                         : Missing value
COMP               .                                       : Company
WELL               .         Well-D                        : Well name
~Parameter Information Block
#_______________________________________________________________________________
#
#PARAMETER_NAME    .UNIT     VALUE                         : DESCRIPTION
#_______________________________________________________________________________
SET                .         Data_Output                   : 
TLFamily_BS        .         Bit Size                      : 
TLFamily_CALI      .         Caliper                       : 
TLFamily_DENS      .         Bulk Density                  : 
TLFamily_DT        .         Compressional Slowness        : 
TLFamily_DTS       .         Shear Slowness                : 
TLFamily_GR        .         Gamma Ray                     : 
TLFamily_MD        .         Measured Depth                : 
TLFamily_NPHI      .         Thermal Neutron Porosity      : 
TLFamily_RS        .         Resistivity - Phase Shift     : 
TLFamily_RT        .         Resistivity - True Formation  : 
~Curve Information
#_______________________________________________________________________________
#
#LOGNAME           .UNIT     LOG_ID                        : DESCRIPTION
#_______________________________________________________________________________
MD                 .m                                      :  
BS                 .inches                                 :  
CALI               .inches                                 :  
DENS               .g/cm3                                  :  
DT                 .us/ft                                  :  
DTS                .us/ft                                  :  
GR                 .API                                    :  
NPHI               .v/v                                    :  
RS                 .ohm.m                                  :  
RT                 .ohm.m                                  :  
~Ascii
# ...
3486.5000  8.5000     8.7600     2.4900     71.2920    133.0940   11.5050    0.1380     1.8610     2.0240    
3486.6000  8.5000     8.7500     2.4900     71.0600    132.8990   11.5000    0.1380     1.8670     2.0350    
3486.7000  8.5000     8.7500     2.4920     70.9570    133.0380   11.6630    0.1370     1.8710     2.0370    
3486.8000  8.5000     8.7500     2.4950     70.8820    133.1460   12.1170    0.1360     1.8720     2.0430    
3486.9000  8.5000     8.7500     2.4990     70.8330    133.1700   11.9510    0.1360     1.8760     2.0460    
3487.0000  8.5000     8.7500     2.5030     70.7800    133.4370   11.9780    0.1370     1.8810     2.0550    
3487.1000  8.5000     8.7500     2.5040     70.7030    133.7140   12.0360    0.1380     1.8860     2.0650    
3487.2000  8.5000     8.7500     2.5030     70.5800    133.9480   11.6670    0.1390     1.8910     2.0770    
3487.3000  8.5000     8.7500     2.5020     70.5130    133.9580   10.6760    0.1390     1.8940     2.0740    
3487.4000  8.5000     8.7500     2.5010     70.4610    134.0220   10.5380    0.1380     1.8590     2.0740    
3487.5000  8.5000     8.7500     2.5000     70.4210    134.3050   10.9290    0.1380     1.9010     2.0770    
3487.6000  8.5000     8.7660     2.5010     70.4520    134.3930   11.1580    0.1370     1.9100     2.0850    
3487.7000  8.5000     8.7500     2.5020     70.5150    134.4270   11.3870    0.1360     1.9110     2.0930    
3487.8000  8.5000     8.7500     2.5050     70.6160    134.4590   11.2660    0.1360     1.9170     2.0990    
3487.9000  8.5000     8.7500     2.5070     70.8100    134.4800   10.9160    0.1360     1.9220     2.1120    
3488.0000  8.5000     8.7500     2.5060     71.0580    134.4850   11.1600    0.1360     1.9220     2.1150    
3488.1000  8.5000     8.7500     2.5050     71.3780    134.4520   11.5510    0.1360     1.9300     2.1250    
3488.2000  8.5000     8.7500     2.5030     71.6150    134.5050   11.3950    0.1360     1.9320     2.1290    
3488.3000  8.5000     8.7500     2.5030     71.7870    134.6060   11.4150    0.1360     1.9360     2.1340    
3488.4000  8.5000     8.7500     2.5040     71.8130    134.7540   11.2940    0.1360     1.9430     2.1380    
3488.5000  8.5000     8.7500     2.5070     71.8070    134.8440   10.7330    0.1360     1.9470     2.1440    
3488.6000  8.5000     8.7500     2.5100     71.7730    134.9110   10.7200    0.1360     1.9520     2.1520    
3488.7000  8.5000     8.7500     2.5100     71.6650    135.0490   11.3660    0.1360     1.9580     2.1540    
3488.8000  8.5000     8.7500     2.5090     71.5150    135.0770   11.0380    0.1350     1.9620     2.1570    
3488.9000  8.5000     8.7030     2.5060     71.3510    135.0250   11.4460    0.1380     1.9650     2.1540    
3489.0000  8.5000     8.7030     2.5020     71.3830    134.9170   11.1100    0.1370     1.9720     2.1640    
3489.1000  8.5000     8.7030     2.5010     71.4000    134.7820   11.5000    0.1370     1.9750     2.1730    
3489.2000  8.5000     8.7030     2.5000     71.4050    134.6330   11.2820    0.1370     1.9780     2.1790    
3489.3000  8.5000     8.7030     2.5000     71.3790    134.9210   10.7880    0.1380     1.9830     2.1840    
3489.4000  8.5000     8.7030     2.5000     71.3800    135.1300   10.3470    0.1400     1.9890     2.1940    
3489.5000  8.5000     8.7030     2.4990     71.4080    135.2590   10.8600    0.1410     1.9930     2.1980    
3489.6000  8.5000     8.7030     2.4980     71.4510    135.2500   10.2510    0.1420     1.9960     2.2070    
3489.7000  8.5000     8.7030     2.4970     71.4100    135.1930   10.0820    0.1430     2.0010     2.2130    
3489.8000  8.5000     8.6930     2.4960     71.2640    135.0810   11.0800    0.1430     2.0030     2.2230    
3489.9000  8.5000     8.6720     2.4950     71.2880    134.9240   10.8870    0.1450     2.0090     2.2260    
3490.0000  8.5000     8.6820     2.4950     71.3650    134.8450   10.5020    0.1440     2.0150     2.2320    
3490.1000  8.5000     8.7030     2.4960     71.5040    134.8870   10.8070    0.1410     2.0210     2.2350    
3490.2000  8.5000     8.7030     2.4980     71.7890    134.8070   11.2020    0.1390     2.0250     2.2440    
3490.3000  8.5000     8.7030     2.4990     72.0080    134.7160   11.3880    0.1380     2.0270     2.2480    
3490.4000  8.5000     8.7030     2.5000     72.0650    134.6350   10.8380    0.1370     2.0310     2.2520    
3490.5000  8.5000     8.7030     2.5000     72.0190    134.2740   11.1810    0.1380     2.0350     2.2580    
3490.6000  8.5000     8.7030     2.5010     71.9470    133.9360   10.7460    0.1390     2.0440     2.2710    
3490.7000  8.5000     8.6930     2.5020     71.8630    133.7880   10.8180    0.1410     2.0510     2.2790    
3490.8000  8.5000     8.6720     2.5020     71.8610    133.5900   11.4840    0.1400     2.0560     2.2900    
3490.9000  8.5000     8.7030     2.5020     71.8290    133.5000   12.5900    0.1370     2.0590     2.2910    
3491.0000  8.5000     8.7030     2.5010     71.6440    133.7650   11.5330    0.1350     2.0610     2.2990    
3491.1000  8.5000     8.7030     2.4990     71.4620    133.9510   10.9860    0.1330     2.0670     2.3070    
3491.2000  8.5000     8.7030     2.4960     71.2990    134.1610   10.3120    0.1330     2.0720     2.3140    
3491.3000  8.5000     8.7030     2.4950     71.2050    134.5680   10.6330    0.1330     2.0820     2.3210    
3491.4000  8.5000     8.7030     2.4940     71.0760    134.3850   11.0000    0.1340     2.0900     2.3320    
3491.5000  8.5000     8.7030     2.4930     70.9600    134.0080   10.9510    0.1350     2.0940     2.3410    
3491.6000  8.5000     8.7030     2.4910     71.0050    134.0480   10.0700    0.1360     2.0990     2.3500    
3491.7000  8.5000     8.7030     2.4900     70.9540    133.8350   10.2060    0.1370     2.1040     2.3590    
3491.8000  8.5000     8.7030     2.4900     70.8670    133.5040   9.8640     0.1360     2.1120     2.3660    
3491.9000  8.5000     8.7030     2.4920     70.9260    133.3940   10.6260    0.1340     2.1170     2.3690    
3492.0000  8.5000     8.7030     2.4950     70.9550    133.2420   10.9290    0.1330     2.1210     2.3760    
3492.1000  8.5000     8.7340     2.4970     70.9570    133.0670   10.3520    0.1300     2.1240     2.3810    
3492.2000  8.5000     8.7030     2.4980     70.8500    133.0050   10.3170    0.1340     2.1280     2.3890    
3492.3000  8.5000     8.7030     2.4980     70.8150    133.0160   11.0630    0.1350     2.1390     2.4040    
3492.4000  8.5000     8.7190     2.4990     70.8420    133.0880   11.4550    0.1330     2.1460     2.4170    
3492.5000  8.5000     8.7030     2.4990     70.8190    133.0630   11.8980    0.1370     2.1500     2.4260    
3492.6000  8.5000     8.7030     2.5000     70.8480    133.0970   11.4000    0.1380     2.1600     2.4440    
3492.7000  8.5000     8.7030     2.5020     70.9320    133.1920   11.5380    0.1390     2.1700     2.4610    
3492.8000  8.5000     8.7030     2.5050     70.8890    133.1150   12.1880    0.1400     2.1770     2.4730    
3492.9000  8.5000     8.7190     2.5090     70.8150    133.0410   12.3690    0.1400     2.1800     2.4800    
3493.0000  8.5000     8.7340     2.5140     70.7070    132.9800   12.7410    0.1350     2.1860     2.4850    
3493.1000  8.5000     8.7500     2.5180     70.7310    132.7700   12.6960    0.1330     2.1900     2.4930    
3493.2000  8.5000     8.7500     2.5210     70.8200    132.6410   12.8310    0.1300     2.1990     2.5020    
3493.3000  8.5000     8.7500     2.5220     70.9930    132.6580   12.8060    0.1280     2.2030     2.5110    
3493.4000  8.5000     8.7500     2.5200     71.1060    132.7350   13.1470    0.1280     2.2120     2.5220    
3493.5000  8.5000     8.7500     2.5170     71.1360    132.7500   12.6170    0.1270     2.2160     2.5340    
3493.6000  8.5000     8.7340     2.5130     71.0280    132.6320   11.9450    0.1270     2.2230     2.5430    
3493.7000  8.5000     8.7030     2.5100     70.7100    132.7570   12.3010    0.1280     2.2290     2.5530    
