~Version
 VERS              .         2.0                           : CWLS LOG ASCII STANDARD - VERSION 2.0
 WRAP              .         NO                            : ONE LINE PER DEPTH STEP
 DLM               .         SPACE                         : DELIMITING CHARACTER(SPACE TAB OR COMMA)
~Well Information
#_______________________________________________________________________________
#
#PARAMETER_NAME    .UNIT     VALUE                         : DESCRIPTION
#_______________________________________________________________________________
STRT               .m        2605.0000                     : First reference value
STOP               .m        3625.0000                     : Last reference value
STEP               .m        0.1000                        : Step increment
NULL               .         -9999                         : Missing value
COMP               .                                       : Company
WELL               .         Well-A                        : Well name
~Parameter Information Block
#_______________________________________________________________________________
#
#PARAMETER_NAME    .UNIT     VALUE                         : DESCRIPTION
#_______________________________________________________________________________
SET                .         Data_Output                   : 
TLFamily_BS        .         Bit Size                      : 
TLFamily_CALI      .         Caliper                       : 
TLFamily_DENS      .         Bulk Density                  : 
TLFamily_DT        .         Compressional Slowness        : 
TLFamily_GR        .         Gamma Ray                     : 
TLFamily_MD        .         Measured Depth                : 
TLFamily_NPHI      .         Thermal Neutron Porosity      : 
TLFamily_RS        .         Resistivity - Phase Shift     : 
TLFamily_RT        .         Resistivity - True Formation  : 
~Curve Information
#_______________________________________________________________________________
#
#LOGNAME           .UNIT     LOG_ID                        : DESCRIPTION
#_______________________________________________________________________________
MD                 .m                                      :  
BS                 .inches                                 :  
CALI               .inches                                 :  
DENS               .g/cm3                                  :  
DT                 .us/ft                                  :  
GR                 .API                                    :  
NPHI               .v/v                                    :  
RS                 .ohm.m                                  :  
RT                 .ohm.m                                  :  
~Ascii
# ...
3010.0000  8.5000     8.5781     2.5090     71.6254    9.2705     0.1260     2.3600     2.4288    
3010.1000  8.5000     8.5781     2.5118     72.3313    9.5009     0.1250     2.3723     2.4532    
3010.2000  8.5000     8.5781     2.5159     73.0871    10.4568    0.1248     2.3986     2.4881    
3010.3000  8.5000     8.5781     2.5190     73.5435    11.0069    0.1258     2.4168     2.5263    
3010.4000  8.5000     8.5781     2.5202     73.7823    11.1960    0.1276     2.4182     2.5256    
3010.5000  8.5000     8.5781     2.5205     73.7492    12.7241    0.1295     2.4168     2.5139    
3010.6000  8.5000     8.5781     2.5222     73.4419    13.5684    0.1304     2.4084     2.4887    
3010.7000  8.5000     8.5781     2.5270     73.0786    16.0801    0.1303     2.4126     2.4708    
3010.8000  8.5000     8.5781     2.5346     72.6718    17.4039    0.1298     2.4268     2.4804    
3010.9000  8.5000     8.5781     2.5431     72.0696    19.6367    0.1298     2.4411     2.4954    
3011.0000  8.5000     8.5781     2.5498     71.5029    19.9709    0.1313     2.4555     2.4970    
3011.1000  8.5000     8.5781     2.5535     71.0763    19.0190    0.1336     2.4642     2.4976    
3011.2000  8.5000     8.5781     2.5552     70.9507    21.3641    0.1352     2.4396     2.4567    
3011.3000  8.5000     8.5781     2.5561     70.9312    21.4043    0.1349     2.4211     2.3733    
3011.4000  8.5000     8.6250     2.5563     70.9977    23.7625    0.1296     2.4297     2.3485    
3011.5000  8.5000     8.5781     2.5544     71.2401    25.0287    0.1294     2.4921     2.4370    
3011.6000  8.5000     8.5781     2.5491     71.4937    23.7506    0.1262     2.5085     2.5574    
3011.7000  8.5000     8.5781     2.5414     71.6015    19.2372    0.1236     2.5327     2.5748    
3011.8000  8.5000     8.5781     2.5342     71.6927    15.0611    0.1211     2.5373     2.5959    
3011.9000  8.5000     8.5781     2.5305     71.7417    14.0216    0.1185     2.5572     2.6367    
3012.0000  8.5000     8.5781     2.5307     71.6364    12.6635    0.1159     2.5790     2.6754    
3012.1000  8.5000     8.5781     2.5331     71.3972    11.9814    0.1145     2.6059     2.7206    
3012.2000  8.5000     8.5781     2.5357     71.0498    12.7902    0.1146     2.6251     2.7403    
3012.3000  8.5000     8.5781     2.5376     70.4558    14.2075    0.1156     2.6283     2.7220    
3012.4000  8.5000     8.5781     2.5390     69.9659    15.1604    0.1163     2.6510     2.7148    
3012.5000  8.5000     8.5781     2.5406     69.5541    15.7007    0.1169     2.6692     2.7640    
3012.6000  8.5000     8.5781     2.5427     69.2688    16.3812    0.1180     2.7059     2.8029    
3012.7000  8.5000     8.5781     2.5442     69.1088    15.6910    0.1196     2.7092     2.8158    
3012.8000  8.5000     8.5781     2.5446     69.0506    14.6773    0.1212     2.7076     2.7863    
3012.9000  8.5000     8.5781     2.5448     69.1194    15.7775    0.1218     2.7194     2.7655    
3013.0000  8.5000     8.5781     2.5462     69.1936    17.3291    0.1213     2.7280     2.8038    
3013.1000  8.5000     8.5781     2.5490     69.2732    16.0213    0.1201     2.7556     2.8328    
3013.2000  8.5000     8.5781     2.5515     69.2941    13.3645    0.1193     2.7835     2.8677    
3013.3000  8.5000     8.5781     2.5514     69.2748    12.1984    0.1190     2.8102     2.8969    
3013.4000  8.5000     8.5781     2.5485     69.2102    12.3375    0.1193     2.8281     2.9255    
3013.5000  8.5000     8.5781     2.5429     69.1460    12.3681    0.1193     2.8408     2.8984    
3013.6000  8.5000     8.5781     2.5355     69.1019    13.0855    0.1183     2.8318     2.8857    
3013.7000  8.5000     8.5781     2.5291     69.0857    12.6624    0.1164     2.8574     2.9064    
3013.8000  8.5000     8.5781     2.5271     69.0595    12.7437    0.1142     2.8983     2.9778    
3013.9000  8.5000     8.5781     2.5297     69.0391    12.2280    0.1124     2.9285     3.0227    
3014.0000  8.5000     8.5781     2.5347     69.0300    13.1273    0.1114     2.9266     3.0337    
3014.1000  8.5000     8.5781     2.5387     69.0480    12.6736    0.1109     2.9342     3.0110    
3014.2000  8.5000     8.5781     2.5401     69.1030    12.3839    0.1112     2.9593     3.0705    
3014.3000  8.5000     8.5781     2.5408     69.2246    12.3076    0.1121     2.9710     3.1147    
3014.4000  8.5000     8.5781     2.5426     69.3494    11.9167    0.1129     2.9808     3.1051    
3014.5000  8.5000     8.5781     2.5460     69.4893    11.2087    0.1128     2.9827     3.1271    
3014.6000  8.5000     8.5781     2.5498     69.6666    11.0377    0.1108     2.9847     3.1404    
3014.7000  8.5000     8.5781     2.5524     69.8563    13.5162    0.1070     3.0025     3.1645    
3014.8000  8.5000     8.5781     2.5533     70.0503    14.0547    0.1026     3.0144     3.1817    
3014.9000  8.5000     8.5781     2.5535     70.2458    13.3469    0.0998     3.0005     3.2164    
3015.0000  8.5000     8.5781     2.5544     70.3749    12.1268    0.0998     3.0134     3.2637    
3015.1000  8.5000     8.5781     2.5560     70.4767    12.1662    0.1021     2.9944     3.2449    
3015.2000  8.5000     8.5781     2.5563     70.5797    11.1049    0.1052     2.9514     3.1787    
3015.3000  8.5000     8.5781     2.5539     70.7084    11.7970    0.1077     2.9113     3.0866    
3015.4000  8.5000     8.5781     2.5499     70.8567    12.4502    0.1094     2.8831     2.9883    
3015.5000  8.5000     8.5781     2.5469     71.0455    12.9966    0.1104     2.8208     2.9158    
3015.6000  8.5000     8.5781     2.5471     71.2263    14.5263    0.1108     2.7800     2.8466    
3015.7000  8.5000     8.5781     2.5495     71.3996    14.1256    0.1107     2.7607     2.8623    
3015.8000  8.5000     8.5781     2.5518     71.5480    13.2501    0.1106     2.7747     2.9055    
3015.9000  8.5000     8.5781     2.5517     71.6290    13.9574    0.1105     2.7589     2.9190    
3016.0000  8.5000     8.5781     2.5479     71.6524    12.6653    0.1107     2.7261     2.8729    
3016.1000  8.5000     8.5781     2.5410     71.5523    10.4467    0.1117     2.6608     2.7824    
3016.2000  8.5000     8.5781     2.5327     71.4439    9.0483     0.1147     2.6058     2.6609    
3016.3000  8.5000     8.5781     2.5244     71.3269    9.2714     0.1202     2.5541     2.5646    
3016.4000  8.5000     8.5781     2.5180     71.3691    9.8476     0.1259     2.5085     2.4957    
3016.5000  8.5000     8.5781     2.5154     71.3757    10.7383    0.1287     2.4877     2.4418    
3016.6000  8.5000     8.5781     2.5168     71.3412    12.4587    0.1272     2.4936     2.4646    
3016.7000  8.5000     8.5781     2.5212     71.3188    13.4144    0.1228     2.4981     2.4997    
3016.8000  8.5000     8.5781     2.5267     71.2301    13.7328    0.1178     2.5115     2.5277    
3016.9000  8.5000     8.5781     2.5314     71.0483    13.6553    0.1146     2.5175     2.5555    
3017.0000  8.5000     8.5781     2.5341     70.8923    12.8537    0.1135     2.5327     2.6187    
3017.1000  8.5000     8.5781     2.5343     70.6178    12.2087    0.1140     2.5542     2.6597    
3017.2000  8.5000     8.5781     2.5322     70.1367    11.8168    0.1155     2.5542     2.6568    
3017.3000  8.5000     8.5781     2.5299     69.9412    12.2941    0.1174     2.5266     2.6094    
3017.4000  8.5000     8.5781     2.5293     69.8617    12.6758    0.1190     2.5115     2.5460    
3017.5000  8.5000     8.5781     2.5318     69.9174    12.9925    0.1200     2.4847     2.4746    
3017.6000  8.5000     8.5781     2.5359     70.2135    13.8004    0.1201     2.4863     2.4476    
3017.7000  8.5000     8.5781     2.5391     70.5316    13.9250    0.1195     2.5206     2.5068    
3017.8000  8.5000     8.5781     2.5397     70.7470    14.2339    0.1184     2.5419     2.5749    
3017.9000  8.5000     8.5781     2.5374     71.0263    13.5375    0.1171     2.5543     2.6263    
3018.0000  8.5000     8.5781     2.5342     71.3135    13.0823    0.1162     2.5853     2.6661    
