~Version
 VERS              .         2.0                           : CWLS LOG ASCII STANDARD - VERSION 2.0
 WRAP              .         NO                            : ONE LINE PER DEPTH STEP
 DLM               .         SPACE                         : DELIMITING CHARACTER(SPACE TAB OR COMMA)
~Well Information
#_______________________________________________________________________________
#
#PARAMETER_NAME    .UNIT     VALUE                         : DESCRIPTION
#_______________________________________________________________________________
STRT               .m        2605.0000                     : First reference value
STOP               .m        3675.0000                     : Last reference value
STEP               .m        0.1000                        : Step increment
NULL               .         -9999                         : Missing value
COMP               .                                       : Company
WELL               .         Well-B                        : Well name
~Parameter Information Block
#_______________________________________________________________________________
#
#PARAMETER_NAME    .UNIT     VALUE                         : DESCRIPTION
#_______________________________________________________________________________
SET                .         Data_Output                   : 
TLFamily_BS        .         Bit Size                      : 
TLFamily_CALI      .         Caliper                       : 
TLFamily_DENS      .         Bulk Density                  : 
TLFamily_DT        .         Compressional Slowness        : 
TLFamily_DTS       .         Shear Slowness                : 
TLFamily_GR        .         Gamma Ray                     : 
TLFamily_MD        .         Measured Depth                : 
TLFamily_NPHI      .         Thermal Neutron Porosity      : 
TLFamily_RS        .         Resistivity - Phase Shift     : 
TLFamily_RT        .         Resistivity - True Formation  : 
~Curve Information
#_______________________________________________________________________________
#
#LOGNAME           .UNIT     LOG_ID                        : DESCRIPTION
#_______________________________________________________________________________
MD                 .m                                      :  
BS                 .inches                                 :  
CALI               .inches                                 :  
DENS               .g/cm3                                  :  
DT                 .us/ft                                  :  
DTS                .us/ft                                  :  
GR                 .API                                    :  
NPHI               .v/v                                    :  
RS                 .ohm.m                                  :  
RT                 .ohm.m                                  :  
~Ascii
# ...
3028.4000  8.5000     8.5781     2.5328     69.3645    128.5539   11.6627    0.1082     2.6188     2.6292    
3028.5000  8.5000     8.5781     2.5351     69.2987    128.5250   10.6269    0.1079     2.6529     2.6883    
3028.6000  8.5000     8.5781     2.5361     69.2247    128.3461   10.3576    0.1064     2.7077     2.7478    
3028.7000  8.5000     8.5781     2.5358     69.1506    128.1672   10.9776    0.1045     2.7434     2.8174    
3028.8000  8.5000     8.5781     2.5349     69.0761    127.9900   11.6746    0.1036     2.7417     2.8165    
3028.9000  8.5000     8.5781     2.5352     68.9798    127.8751   12.0884    0.1044     2.7417     2.7714    
3029.0000  8.5000     8.5781     2.5381     68.8836    127.7602   11.9883    0.1061     2.7539     2.7790    
3029.1000  8.5000     8.5781     2.5444     68.7872    127.6445   12.8388    0.1083     2.8014     2.8587    
3029.2000  8.5000     8.5781     2.5522     68.6697    127.1995   13.3299    0.1103     2.8592     2.9862    
3029.3000  8.5000     8.5781     2.5592     68.5516    126.7462   13.2031    0.1117     2.8982     3.0472    
3029.4000  8.5000     8.5781     2.5653     68.4335    126.2940   14.0779    0.1130     2.9057     3.0244    
3029.5000  8.5000     8.5781     2.5706     68.3112    126.3050   13.6892    0.1145     2.9057     3.0178    
3029.6000  8.5000     8.5781     2.5730     68.1884    126.3522   12.4567    0.1160     2.9210     3.0483    
3029.7000  8.5000     8.5781     2.5702     68.0660    126.3990   11.7730    0.1171     2.9575     3.1106    
3029.8000  8.5000     8.5781     2.5619     68.0589    126.2729   10.8233    0.1163     3.0105     3.1863    
3029.9000  8.5000     8.5781     2.5497     68.0677    126.1231   9.8667     0.1133     3.0568     3.2366    
3030.0000  8.5000     8.5781     2.5370     68.0767    125.9739   10.2502    0.1091     3.0732     3.2494    
3030.1000  8.5000     8.5781     2.5286     68.1563    126.0655   10.6696    0.1054     3.0547     3.1969    
3030.2000  8.5000     8.5781     2.5271     68.2503    126.2059   10.5512    0.1028     3.0223     3.1102    
3030.3000  8.5000     8.5781     2.5326     68.3444    126.3463   10.3507    0.1009     3.0045     3.0302    
3030.4000  8.5000     8.5781     2.5426     68.4740    126.4553   9.8022     0.0994     3.0124     2.9935    
3030.5000  8.5000     8.5781     2.5522     68.6134    126.5558   8.8521     0.0982     3.0205     3.0152    
3030.6000  8.5000     8.5781     2.5593     68.7528    126.6559   8.9771     0.0970     3.0610     3.0533    
3030.7000  8.5000     8.5781     2.5649     68.8396    126.5684   10.8188    0.0966     3.0836     3.0816    
3030.8000  8.5000     8.5781     2.5705     68.9076    126.4136   13.5668    0.0980     3.1002     3.0884    
3030.9000  8.5000     8.5781     2.5771     68.9752    126.2586   15.6520    0.1016     3.1065     3.0557    
3031.0000  8.5000     8.5781     2.5842     68.9346    125.9829   16.2571    0.1061     3.1069     3.0210    
3031.1000  8.5000     8.5781     2.5888     68.8447    125.6525   17.7465    0.1102     3.2057     3.1723    
3031.2000  8.5000     8.5781     2.5879     68.7548    125.3221   16.9895    0.1124     3.3049     3.3991    
3031.3000  8.5000     8.5781     2.5821     68.6415    124.9236   17.0922    0.1124     3.3446     3.4973    
3031.4000  8.5000     8.5781     2.5731     68.5149    124.4870   18.2571    0.1107     3.3779     3.5390    
3031.5000  8.5000     8.5781     2.5647     68.3885    124.0508   18.7316    0.1084     3.3972     3.5741    
3031.6000  8.5000     8.5781     2.5579     68.3040    123.8443   19.1609    0.1067     3.4337     3.6575    
3031.7000  8.5000     8.5781     2.5522     68.2483    123.7960   18.5706    0.1063     3.4510     3.6827    
3031.8000  8.5000     8.5781     2.5476     68.1927    123.7476   17.4277    0.1071     3.4336     3.5963    
3031.9000  8.5000     8.5781     2.5452     68.1297    123.6786   14.2058    0.1085     3.4117     3.5604    
3032.0000  8.5000     8.5781     2.5449     68.0608    123.5920   12.0493    0.1091     3.4564     3.7171    
3032.1000  8.5000     8.5781     2.5446     67.9921    123.5058   10.9042    0.1082     3.5868     3.9373    
3032.2000  8.5000     8.5781     2.5431     68.0154    123.5583   11.0944    0.1058     3.6772     4.0776    
3032.3000  8.5000     8.5781     2.5409     68.1320    123.7516   12.2315    0.1029     3.6713     4.1208    
3032.4000  8.5000     8.5781     2.5394     68.2486    123.9448   13.1692    0.1011     3.5419     3.8602    
3032.5000  8.5000     8.5781     2.5391     68.3147    124.1324   12.0916    0.1011     3.4042     3.5019    
3032.6000  8.5000     8.5781     2.5408     68.3187    124.3129   11.5308    0.1025     3.3612     3.3393    
3032.7000  8.5000     8.5781     2.5451     68.3228    124.4937   11.7738    0.1035     3.4118     3.4518    
3032.8000  8.5000     8.5781     2.5515     68.3518    124.7721   11.5649    0.1027     3.4862     3.7122    
3032.9000  8.5000     8.5781     2.5575     68.4182    125.1970   11.0354    0.1008     3.5682     3.7859    
3033.0000  8.5000     8.5781     2.5605     68.4844    125.6218   10.6381    0.0987     3.5087     3.6493    
3033.1000  8.5000     8.5781     2.5597     68.5405    125.9448   12.0771    0.0972     3.4484     3.5252    
3033.2000  8.5000     8.5781     2.5567     68.5775    126.0812   13.6622    0.0967     3.4262     3.4991    
3033.3000  8.5000     8.5781     2.5545     68.6145    126.2177   13.6409    0.0976     3.3970     3.4519    
3033.4000  8.5000     8.5781     2.5552     68.6465    126.4021   13.5531    0.0996     3.3610     3.3867    
3033.5000  8.5000     8.5781     2.5576     68.6674    126.6953   13.5022    0.1017     3.3352     3.3295    
3033.6000  8.5000     8.5781     2.5589     68.6884    126.9885   13.2240    0.1023     3.3682     3.3871    
3033.7000  8.5000     8.5781     2.5579     68.7191    127.2289   13.5433    0.1013     3.3826     3.4572    
3033.8000  8.5000     8.5781     2.5558     68.7783    127.3169   12.9909    0.0997     3.3658     3.4551    
3033.9000  8.5000     8.5781     2.5541     68.8376    127.4050   13.0822    0.0993     3.3634     3.4461    
3034.0000  8.5000     8.5781     2.5534     68.9121    127.5401   13.4136    0.1011     3.3563     3.4898    
3034.1000  8.5000     8.5781     2.5538     69.0444    127.8529   15.4297    0.1049     3.3467     3.4499    
3034.2000  8.5000     8.5781     2.5549     69.1768    128.1657   15.4797    0.1091     3.3139     3.4018    
3034.3000  8.5000     8.5781     2.5563     69.3043    128.4643   15.2690    0.1128     3.2932     3.3852    
3034.4000  8.5000     8.5781     2.5579     69.4071    128.6898   14.6998    0.1150     3.3001     3.4451    
3034.5000  8.5000     8.5782     2.5587     69.5101    128.9153   15.1273    0.1122     3.3117     3.4817    
3034.6000  8.5000     8.6015     2.5572     69.6254    129.1662   13.4447    0.1133     3.3186     3.4694    
3034.7000  8.5000     8.5781     2.5535     69.8386    129.6151   11.2488    0.1105     3.2818     3.4533    
3034.8000  8.5000     8.5781     2.5479     70.0518    130.0639   12.5827    0.1091     3.3164     3.5339    
3034.9000  8.5000     8.5781     2.5421     70.2559    130.5099   14.6154    0.1108     3.3326     3.6071    
3035.0000  8.5000     8.5781     2.5374     70.3311    130.9135   15.5637    0.1148     3.2952     3.5701    
3035.1000  8.5000     8.5781     2.5339     70.4063    131.3170   15.7347    0.1187     3.1876     3.3608    
3035.2000  8.5000     8.5782     2.5316     70.4825    131.7162   15.8939    0.1197     3.1005     3.1554    
3035.3000  8.5000     8.6250     2.5304     70.6149    131.8647   15.7097    0.1150     3.1235     3.2649    
3035.4000  8.5000     8.6250     2.5310     70.7473    132.0132   13.5179    0.1118     3.1596     3.3663    
3035.5000  8.5000     8.6249     2.5329     70.8794    132.1614   11.6553    0.1085     3.1703     3.3741    
3035.6000  8.5000     8.5781     2.5356     70.8951    132.2058   11.6783    0.1098     3.1340     3.3682    
