~Version
 VERS              .         2.0                           : CWLS LOG ASCII STANDARD - VERSION 2.0
 WRAP              .         NO                            : ONE LINE PER DEPTH STEP
 DLM               .         SPACE                         : DELIMITING CHARACTER(SPACE TAB OR COMMA)
~Well Information
#_______________________________________________________________________________
#
#PARAMETER_NAME    .UNIT     VALUE                         : DESCRIPTION
#_______________________________________________________________________________
STRT               .m        2574.0000                     : First reference value
STOP               .m        4550.0000                     : Last reference value
STEP               .m        0.1000                        : Step increment
NULL               .         -9999                         : Missing value
COMP               .                                       : Company
WELL               .         Well-D                        : Well name
~Parameter Information Block
#_______________________________________________________________________________
#
#PARAMETER_NAME    .UNIT     VALUE                         : DESCRIPTION
#_______________________________________________________________________________
SET                .         Data_Output                   : 
TLFamily_BS        .         Bit Size                      : 
TLFamily_CALI      .         Caliper                       : 
TLFamily_DENS      .         Bulk Density                  : 
TLFamily_DT        .         Compressional Slowness        : 
TLFamily_DTS       .         Shear Slowness                : 
TLFamily_GR        .         Gamma Ray                     : 
TLFamily_MD        .         Measured Depth                : 
TLFamily_NPHI      .         Thermal Neutron Porosity      : 
TLFamily_RS        .         Resistivity - Phase Shift     : 
TLFamily_RT        .         Resistivity - True Formation  : 
~Curve Information
#_______________________________________________________________________________
#
#LOGNAME           .UNIT     LOG_ID                        : DESCRIPTION
#_______________________________________________________________________________
MD                 .m                                      :  
BS                 .inches                                 :  
CALI               .inches                                 :  
DENS               .g/cm3                                  :  
DT                 .us/ft                                  :  
DTS                .us/ft                                  :  
GR                 .API                                    :  
NPHI               .v/v                                    :  
RS                 .ohm.m                                  :  
RT                 .ohm.m                                  :  
~Ascii
# ...
4399.0000  8.5000     8.7030     2.4030     74.3320    120.6560   20.1780    0.1350     1.3570     1.4380    
4399.1000  8.5000     8.7030     2.4060     73.7980    120.2380   20.2640    0.1350     1.2860     1.2740    
4399.2000  8.5000     8.6720     2.4070     73.1800    119.9380   19.8820    0.1390     1.2410     1.2180    
4399.3000  8.5000     8.6720     2.4090     72.3240    119.6960   20.3980    0.1410     1.2180     1.2590    
4399.4000  8.5000     8.6720     2.4120     71.6620    119.4780   20.4840    0.1440     1.1780     1.2790    
4399.5000  8.5000     8.6720     2.4160     71.1110    119.2590   20.0410    0.1470     1.1000     1.1670    
4399.6000  8.5000     8.6720     2.4200     70.6830    118.9910   20.4490    0.1490     1.0240     1.0260    
4399.7000  8.5000     8.6720     2.4220     70.4760    118.6600   21.8810    0.1490     0.9470     0.9160    
4399.8000  8.5000     8.6720     2.4240     70.3710    118.2890   22.0080    0.1480     0.8810     0.8180    
4399.9000  8.5000     8.6720     2.4250     70.1070    117.8800   22.2240    0.1460     0.8580     0.7830    
4400.0000  8.5000     8.6870     2.4250     69.9510    117.5250   22.2990    0.1420     0.8250     0.7470    
4400.1000  8.5000     8.6720     2.4260     69.8820    117.2180   21.7000    0.1410     0.8170     0.7430    
4400.2000  8.5000     8.6720     2.4280     69.9610    117.0650   21.6630    0.1390     0.8280     0.7710    
4400.3000  8.5000     8.7030     2.4310     70.0870    117.1080   21.3250    0.1340     0.8430     0.7980    
4400.4000  8.5000     8.6820     2.4370     70.2500    117.3200   21.7650    0.1330     0.8570     0.8410    
4400.5000  8.5000     8.6720     2.4460     70.4190    117.7580   21.8660    0.1310     0.8810     0.9040    
4400.6000  8.5000     8.6930     2.4550     70.6190    118.2520   21.6290    0.1290     0.9060     0.9960    
4400.7000  8.5000     8.6720     2.4610     70.8520    118.8050   23.2990    0.1330     0.9190     1.0550    
4400.8000  8.5000     8.6720     2.4620     71.3660    119.3370   23.5110    0.1360     0.9070     1.0140    
4400.9000  8.5000     8.6720     2.4560     71.9330    119.9120   22.0150    0.1390     0.8840     0.9350    
4401.0000  8.5000     8.6720     2.4480     72.5580    120.5380   21.9820    0.1420     0.8650     0.8910    
4401.1000  8.5000     8.6720     2.4410     73.1190    121.3920   22.2980    0.1440     0.8440     0.8400    
4401.2000  8.5000     8.6720     2.4350     73.5640    122.2680   22.1200    0.1470     0.8200     0.7930    
4401.3000  8.5000     8.6720     2.4320     73.8450    123.1500   22.7180    0.1520     0.8000     0.7560    
4401.4000  8.5000     8.6720     2.4300     74.0280    123.9460   23.8150    0.1570     0.7810     0.7230    
4401.5000  8.5000     8.6480     2.4290     74.1760    124.5250   25.1000    0.1610     0.7630     0.7010    
4401.6000  8.5000     8.6720     2.4270     74.2850    124.7360   24.7220    0.1620     0.7530     0.6830    
4401.7000  8.5000     8.6720     2.4220     74.4150    125.6850   24.6020    0.1630     0.7450     0.6710    
4401.8000  8.5000     8.6720     2.4160     74.4850    126.5650   24.5830    0.1620     0.7390     0.6690    
4401.9000  8.5000     8.6720     2.4100     74.4070    126.9470   25.1630    0.1610     0.7340     0.6590    
4402.0000  8.5000     8.6880     2.4070     74.3320    126.8640   24.2500    0.1590     0.7270     0.6500    
4402.1000  8.5000     8.7030     2.4070     74.2710    126.4970   24.7870    0.1580     0.7210     0.6420    
4402.2000  8.5000     8.7030     2.4110     74.2450    125.6870   24.1180    0.1580     0.7180     0.6350    
4402.3000  8.5000     8.6720     2.4170     74.2660    124.8380   24.5120    0.1580     0.7220     0.6390    
4402.4000  8.5000     8.6720     2.4220     74.2650    124.2000   25.1170    0.1560     0.7350     0.6580    
4402.5000  8.5000     8.6720     2.4270     74.1160    124.4050   25.9840    0.1520     0.7570     0.7100    
4402.6000  8.5000     8.6930     2.4310     74.0530    124.5570   25.4350    0.1460     0.7970     0.7780    
4402.7000  8.5000     8.7030     2.4370     74.0320    124.6990   25.5580    0.1430     0.8290     0.8480    
4402.8000  8.5000     8.6870     2.4450     74.0230    124.9100   27.0470    0.1450     0.8550     0.8940    
4402.9000  8.5000     8.6820     2.4490     74.0750    124.8660   27.2820    0.1450     0.8690     0.9050    
4403.0000  8.5000     8.6720     2.4490     74.1390    124.6580   26.9750    0.1490     0.8730     0.8830    
4403.1000  8.5000     8.7030     2.4430     74.0400    124.3030   27.3360    0.1490     0.8560     0.8240    
4403.2000  8.5000     8.7030     2.4370     73.8190    123.5800   28.3100    0.1490     0.8370     0.7880    
4403.3000  8.5000     8.7030     2.4340     73.5130    122.6310   28.5440    0.1470     0.8220     0.7620    
4403.4000  8.5000     8.7030     2.4330     73.2050    122.1010   29.0920    0.1450     0.8110     0.7430    
4403.5000  8.5000     8.6720     2.4340     72.8880    121.6820   28.4770    0.1450     0.8010     0.7290    
4403.6000  8.5000     8.6720     2.4380     72.5630    121.3600   28.0030    0.1430     0.7940     0.7280    
4403.7000  8.5000     8.6720     2.4430     72.3660    121.2060   26.9950    0.1410     0.7910     0.7440    
4403.8000  8.5000     8.6720     2.4480     72.1000    120.9800   27.1170    0.1380     0.7890     0.7680    
4403.9000  8.5000     8.6720     2.4520     71.7650    120.6790   26.1620    0.1350     0.7890     0.7900    
4404.0000  8.5000     8.6720     2.4530     71.4540    120.1850   24.1740    0.1340     0.7910     0.7910    
4404.1000  8.5000     8.6930     2.4510     71.1870    119.7370   23.2210    0.1320     0.7920     0.7930    
4404.2000  8.5000     8.7030     2.4470     70.9730    119.3560   23.4220    0.1330     0.7940     0.7900    
4404.3000  8.5000     8.7030     2.4420     70.9690    119.3050   23.9800    0.1330     0.7920     0.7850    
4404.4000  8.5000     8.6820     2.4380     71.0250    119.4000   24.7160    0.1340     0.7880     0.7800    
4404.5000  8.5000     8.6720     2.4380     71.1460    119.6740   24.2370    0.1320     0.7800     0.7730    
4404.6000  8.5000     8.6720     2.4420     71.2780    119.9950   24.0840    0.1310     0.7680     0.7790    
4404.7000  8.5000     8.6720     2.4440     71.4240    120.2880   23.5230    0.1310     0.7490     0.7750    
4404.8000  8.5000     8.6870     2.4410     71.5910    120.5130   24.0840    0.1330     0.7270     0.7460    
4404.9000  8.5000     8.6720     2.4300     71.8510    120.8800   24.2010    0.1380     0.7090     0.7230    
4405.0000  8.5000     8.6720     2.4130     72.1530    121.3600   23.2570    0.1450     0.6740     0.7010    
4405.1000  8.5000     8.6720     2.3940     72.5040    122.0340   22.7540    0.1510     0.6360     0.6270    
4405.2000  8.5000     8.6720     2.3770     72.9470    122.8300   20.3170    0.1580     0.5970     0.5360    
4405.3000  8.5000     8.6720     2.3660     73.4090    123.6510   18.5610    0.1630     0.5550     0.4790    
4405.4000  8.5000     8.6720     2.3610     73.8490    124.4370   17.3650    0.1670     0.5370     0.4660    
4405.5000  8.5000     8.6720     2.3680     74.1210    125.1240   16.8780    0.1710     0.5230     0.4630    
4405.6000  8.5000     8.6720     2.3870     74.3450    125.7250   17.4610    0.1750     0.5080     0.4490    
4405.7000  8.5000     8.6720     2.4150     74.6190    126.1340   17.9210    0.1750     0.4750     0.4060    
4405.8000  8.5000     8.6720     2.4440     74.9200    126.5630   18.5350    0.1730     0.4480     0.4000    
4405.9000  8.5000     8.6720     2.4610     75.2250    126.9880   18.5920    0.1700     0.4570     0.3990    
4406.0000  8.5000     8.6720     2.4620     75.4800    127.3410   19.6110    0.1700     0.4750     0.3960    
4406.1000  8.5000     8.6720     2.4500     75.5610    127.8090   20.2070    0.1710     0.4730     0.3990    
4406.2000  8.5000     8.6720     2.4310     75.5660    128.3480   21.2310    0.1740     0.4720     0.4060    
