~Version
 VERS              .         2.0                           : CWLS LOG ASCII STANDARD - VERSION 2.0
 WRAP              .         NO                            : ONE LINE PER DEPTH STEP
 DLM               .         SPACE                         : DELIMITING CHARACTER(SPACE TAB OR COMMA)
~Well Information
#_______________________________________________________________________________
#
#PARAMETER_NAME    .UNIT     VALUE                         : DESCRIPTION
#_______________________________________________________________________________
STRT               .m        2605.0000                     : First reference value
STOP               .m        3675.0000                     : Last reference value
STEP               .m        0.1000                        : Step increment
NULL               .         -9999                         : Missing value
COMP               .                                       : Company
WELL               .         Well-B                        : Well name
~Parameter Information Block
#_______________________________________________________________________________
#
#PARAMETER_NAME    .UNIT     VALUE                         : DESCRIPTION
#_______________________________________________________________________________
SET                .         Data_Output                   : 
TLFamily_BS        .         Bit Size                      : 
TLFamily_CALI      .         Caliper                       : 
TLFamily_DENS      .         Bulk Density                  : 
TLFamily_DT        .         Compressional Slowness        : 
TLFamily_DTS       .         Shear Slowness                : 
TLFamily_GR        .         Gamma Ray                     : 
TLFamily_MD        .         Measured Depth                : 
TLFamily_NPHI      .         Thermal Neutron Porosity      : 
TLFamily_RS        .         Resistivity - Phase Shift     : 
TLFamily_RT        .         Resistivity - True Formation  : 
~Curve Information
#_______________________________________________________________________________
#
#LOGNAME           .UNIT     LOG_ID                        : DESCRIPTION
#_______________________________________________________________________________
MD                 .m                                      :  
BS                 .inches                                 :  
CALI               .inches                                 :  
DENS               .g/cm3                                  :  
DT                 .us/ft                                  :  
DTS                .us/ft                                  :  
GR                 .API                                    :  
NPHI               .v/v                                    :  
RS                 .ohm.m                                  :  
RT                 .ohm.m                                  :  
~Ascii
2605.0000  8.5000     8.7259     2.2693     -9999.0000 -9999.0000 30.4854    0.2388     1.0956     1.1329    
2605.1000  8.5000     8.4844     2.3208     -9999.0000 -9999.0000 30.1583    0.1985     1.0876     1.0648    
2605.2000  8.5000     8.4688     2.3443     -9999.0000 -9999.0000 32.5094    0.1761     1.0725     1.0538    
2605.3000  8.5000     8.4688     2.3499     -9999.0000 -9999.0000 38.9545    0.1691     1.0572     1.0523    
2605.4000  8.5000     8.4792     2.3484     -9999.0000 -9999.0000 53.1555    0.1764     1.0173     0.9912    
2605.5000  8.5000     8.4688     2.3439     -9999.0000 -9999.0000 68.7773    0.1999     0.9721     0.9140    
2605.6000  8.5000     8.4844     2.3396     -9999.0000 -9999.0000 78.5100    0.2421     0.9465     0.8842    
2605.7000  8.5000     8.5000     2.3406     -9999.0000 -9999.0000 83.1861    0.2959     0.9245     0.8565    
2605.8000  8.5000     8.5000     2.3495     -9999.0000 -9999.0000 80.2049    0.3465     0.8343     0.7331    
2605.9000  8.5000     8.5156     2.3642     -9999.0000 -9999.0000 72.4584    0.3775     0.7947     0.7180    
2606.0000  8.5000     8.5235     2.3770     -9999.0000 -9999.0000 67.8939    0.3792     0.8344     0.8241    
2606.1000  8.5000     8.5468     2.3805     -9999.0000 -9999.0000 65.4912    0.3671     0.8544     0.9191    
2606.2000  8.5000     8.5000     2.3734     -9999.0000 -9999.0000 60.7277    0.3462     0.7861     0.7253    
2606.3000  8.5000     8.5000     2.3614     -9999.0000 -9999.0000 58.0114    0.3264     0.8226     0.7585    
2606.4000  8.5000     8.5000     2.3526     -9999.0000 -9999.0000 56.4212    0.3104     0.8695     0.8115    
2606.5000  8.5000     8.5000     2.3502     -9999.0000 -9999.0000 51.9554    0.2955     0.9018     0.8173    
2606.6000  8.5000     8.5000     2.3522     -9999.0000 -9999.0000 44.4570    0.2783     0.9209     0.8306    
2606.7000  8.5000     8.5000     2.3539     -9999.0000 -9999.0000 39.6692    0.2586     1.0204     1.0873    
2606.8000  8.5000     8.5000     2.3515     -9999.0000 -9999.0000 37.3163    0.2361     1.3194     2.0124    
2606.9000  8.5000     8.5000     2.3459     -9999.0000 -9999.0000 36.0193    0.2133     1.4815     2.9996    
2607.0000  8.5000     8.4844     2.3441     -9999.0000 -9999.0000 37.2004    0.1919     1.6384     4.0925    
2607.1000  8.5000     8.5002     2.3508     -9999.0000 -9999.0000 38.0034    0.1713     1.6706     4.1120    
2607.2000  8.5000     8.5626     2.3638     -9999.0000 -9999.0000 38.6178    0.1579     1.5976     3.5356    
2607.3000  8.5000     8.6015     2.3779     -9999.0000 -9999.0000 38.5018    0.1526     1.5322     3.0313    
2607.4000  8.5000     8.5781     2.3913     -9999.0000 -9999.0000 41.2355    0.1518     1.4954     2.7598    
2607.5000  8.5000     8.5781     2.4063     -9999.0000 -9999.0000 47.1629    0.1545     1.4882     2.7023    
2607.6000  8.5000     8.5782     2.4234     -9999.0000 -9999.0000 54.4381    0.1625     1.4267     2.5538    
2607.7000  8.5000     8.6015     2.4361     -9999.0000 -9999.0000 60.9580    0.1764     1.1695     1.5709    
2607.8000  8.5000     8.5781     2.4378     -9999.0000 -9999.0000 68.1522    0.2073     0.9375     0.9692    
2607.9000  8.5000     8.5625     2.4292     -9999.0000 -9999.0000 72.4604    0.2461     0.9122     0.8485    
2608.0000  8.5000     8.5468     2.4166     -9999.0000 -9999.0000 78.6026    0.2952     0.9666     0.9859    
2608.1000  8.5000     8.5000     2.4082     -9999.0000 -9999.0000 85.9498    0.3472     0.9116     0.8915    
2608.2000  8.5000     8.5000     2.4085     -9999.0000 -9999.0000 91.1507    0.3941     0.8034     0.6729    
2608.3000  8.5000     8.5001     2.4157     -9999.0000 -9999.0000 92.6868    0.4339     0.7486     0.6057    
2608.4000  8.5000     8.5468     2.4230     -9999.0000 -9999.0000 90.1984    0.4612     0.7440     0.6044    
2608.5000  8.5000     8.5001     2.4215     -9999.0000 -9999.0000 86.0172    0.4799     0.7378     0.5941    
2608.6000  8.5000     8.5469     2.4078     -9999.0000 -9999.0000 81.6085    0.4769     0.7698     0.6426    
2608.7000  8.5000     8.5468     2.3883     -9999.0000 -9999.0000 79.8309    0.4612     0.8856     0.9138    
2608.8000  8.5000     8.5235     2.3729     -9999.0000 -9999.0000 76.6497    0.4289     1.1111     1.5465    
2608.9000  8.5000     8.5468     2.3696     -9999.0000 -9999.0000 69.8316    0.3921     1.3039     2.2417    
2609.0000  8.5000     8.5001     2.3815     -9999.0000 -9999.0000 67.7472    0.3595     1.1320     1.6255    
2609.1000  8.5000     8.5235     2.4050     -9999.0000 -9999.0000 71.5462    0.3356     0.9474     0.9441    
2609.2000  8.5000     8.5469     2.4318     -9999.0000 -9999.0000 74.5259    0.3371     0.8489     0.7096    
2609.3000  8.5000     8.5469     2.4493     -9999.0000 -9999.0000 74.9402    0.3582     0.8190     0.6902    
2609.4000  8.5000     8.5468     2.4469     -9999.0000 -9999.0000 73.0547    0.3839     0.8448     0.7574    
2609.5000  8.5000     8.5235     2.4262     -9999.0000 -9999.0000 71.6284    0.4038     0.8680     0.8243    
2609.6000  8.5000     8.5469     2.3978     -9999.0000 -9999.0000 70.8300    0.4060     0.9028     0.8921    
2609.7000  8.5000     8.5468     2.3744     -9999.0000 -9999.0000 70.8859    0.3984     0.9302     0.9471    
2609.8000  8.5000     8.5233     2.3677     -9999.0000 -9999.0000 70.4395    0.3835     0.9503     1.0124    
2609.9000  8.5000     8.5000     2.3800     -9999.0000 -9999.0000 66.0130    0.3603     0.9559     1.0647    
2610.0000  8.5000     8.5001     2.4046     -9999.0000 -9999.0000 62.7252    0.3381     0.9853     1.1858    
2610.1000  8.5000     8.5469     2.4268     -9999.0000 -9999.0000 67.5461    0.3235     0.9082     0.9884    
2610.2000  8.5000     8.5468     2.4330     -9999.0000 -9999.0000 74.1152    0.3288     0.8012     0.7408    
2610.3000  8.5000     8.5000     2.4191     -9999.0000 -9999.0000 77.0482    0.3539     0.7814     0.7232    
2610.4000  8.5000     8.5001     2.3934     -9999.0000 -9999.0000 78.2198    0.3844     0.7958     0.7597    
2610.5000  8.5000     8.5235     2.3692     -9999.0000 -9999.0000 78.3098    0.4085     0.8003     0.8010    
2610.6000  8.5000     8.5469     2.3549     -9999.0000 -9999.0000 78.5975    0.4155     0.7740     0.7840    
2610.7000  8.5000     8.5468     2.3502     -9999.0000 -9999.0000 80.9018    0.4151     0.7235     0.7133    
2610.8000  8.5000     8.5233     2.3503     -9999.0000 -9999.0000 82.9182    0.4188     0.7074     0.6862    
2610.9000  8.5000     8.5000     2.3520     -9999.0000 -9999.0000 83.5557    0.4281     0.6835     0.6406    
2611.0000  8.5000     8.5001     2.3531     -9999.0000 -9999.0000 84.1331    0.4404     0.6596     0.5930    
2611.1000  8.5000     8.5234     2.3544     -9999.0000 -9999.0000 85.1291    0.4496     0.6639     0.6089    
2611.2000  8.5000     8.5235     2.3574     -9999.0000 -9999.0000 85.5133    0.4528     0.6918     0.6833    
2611.3000  8.5000     8.5469     2.3615     -9999.0000 -9999.0000 85.9962    0.4511     0.7031     0.7008    
2611.4000  8.5000     8.5469     2.3641     -9999.0000 -9999.0000 87.4495    0.4527     0.6814     0.6425    
2611.5000  8.5000     8.5468     2.3627     -9999.0000 -9999.0000 87.8837    0.4562     0.6718     0.5954    
2611.6000  8.5000     8.5001     2.3585     -9999.0000 -9999.0000 84.7499    0.4532     0.6881     0.6282    
2611.7000  8.5000     8.5233     2.3542     -9999.0000 -9999.0000 81.4397    0.4400     0.7467     0.7580    
2611.8000  8.5000     8.5001     2.3524     -9999.0000 -9999.0000 78.2642    0.4197     0.8295     0.9580    
2611.9000  8.5000     8.5468     2.3552     -9999.0000 -9999.0000 73.9334    0.3841     0.8931     1.0920    
2612.0000  8.5000     8.5233     2.3632     -9999.0000 -9999.0000 72.6547    0.3522     0.8744     1.0426    
2612.1000  8.5000     8.5000     2.3742     -9999.0000 -9999.0000 78.3470    0.3406     0.8296     0.9192    
2612.2000  8.5000     8.5001     2.3834     -9999.0000 -9999.0000 84.4882    0.3525     0.7771     0.7713    
