~Version
 VERS              .         2.0                           : CWLS LOG ASCII STANDARD - VERSION 2.0
 WRAP              .         NO                            : ONE LINE PER DEPTH STEP
 DLM               .         SPACE                         : DELIMITING CHARACTER(SPACE TAB OR COMMA)
~Well Information
#_______________________________________________________________________________
#
#PARAMETER_NAME    .UNIT     VALUE                         : DESCRIPTION
#_______________________________________________________________________________
STRT               .m        2605.0000                     : First reference value
STOP               .m        3625.0000                     : Last reference value
STEP               .m        0.1000                        : Step increment
NULL               .         -9999                         : Missing value
COMP               .                                       : Company
WELL               .         Well-A                        : Well name
~Parameter Information Block
#_______________________________________________________________________________
#
#PARAMETER_NAME    .UNIT     VALUE                         : DESCRIPTION
#_______________________________________________________________________________
SET                .         Data_Output                   : 
TLFamily_BS        .         Bit Size                      : 
TLFamily_CALI      .         Caliper                       : 
TLFamily_DENS      .         Bulk Density                  : 
TLFamily_DT        .         Compressional Slowness        : 
TLFamily_GR        .         Gamma Ray                     : 
TLFamily_MD        .         Measured Depth                : 
TLFamily_NPHI      .         Thermal Neutron Porosity      : 
TLFamily_RS        .         Resistivity - Phase Shift     : 
TLFamily_RT        .         Resistivity - True Formation  : 
~Curve Information
#_______________________________________________________________________________
#
#LOGNAME           .UNIT     LOG_ID                        : DESCRIPTION
#_______________________________________________________________________________
MD                 .m                                      :  
BS                 .inches                                 :  
CALI               .inches                                 :  
DENS               .g/cm3                                  :  
DT                 .us/ft                                  :  
GR                 .API                                    :  
NPHI               .v/v                                    :  
RS                 .ohm.m                                  :  
RT                 .ohm.m                                  :  
~Ascii
# ...
3342.1000  8.5000     8.5781     2.4462     69.2288    30.8333    0.1857     0.6336     0.6071    
3342.2000  8.5000     8.5781     2.4444     69.5796    32.4469    0.1856     0.6312     0.5773    
3342.3000  8.5000     8.5781     2.4448     70.1078    31.1682    0.1827     0.6373     0.5637    
3342.4000  8.5000     8.5781     2.4482     70.9484    29.8684    0.1761     0.6743     0.6102    
3342.5000  8.5000     8.5781     2.4555     71.7606    30.5569    0.1660     0.7264     0.6984    
3342.6000  8.5000     8.5781     2.4655     72.5485    28.9700    0.1543     0.8190     0.8478    
3342.7000  8.5000     8.5781     2.4763     73.2726    29.5025    0.1430     0.9118     0.9695    
3342.8000  8.5000     8.5781     2.4865     73.9844    28.9994    0.1335     0.9796     1.0713    
3342.9000  8.5000     8.5781     2.4952     74.6691    27.7560    0.1272     1.0225     1.1238    
3343.0000  8.5000     8.5781     2.5020     75.0677    29.0040    0.1237     1.0474     1.1560    
3343.1000  8.5000     8.5781     2.5071     75.2130    30.8925    0.1224     1.0677     1.1850    
3343.2000  8.5000     8.5781     2.5108     75.1319    32.1992    0.1217     1.0840     1.1780    
3343.3000  8.5000     8.5781     2.5131     74.5498    31.5397    0.1202     1.1003     1.1820    
3343.4000  8.5000     8.5625     2.5148     74.3316    31.3953    0.1174     1.1317     1.2289    
3343.5000  8.5000     8.5781     2.5177     74.4970    31.9008    0.1150     1.1782     1.3010    
3343.6000  8.5000     8.5781     2.5219     74.2391    32.0810    0.1152     1.2129     1.3791    
3343.7000  8.5000     8.5781     2.5254     73.9025    31.1431    0.1186     1.2329     1.3984    
3343.8000  8.5000     8.5781     2.5247     73.4852    33.1187    0.1238     1.2521     1.3759    
3343.9000  8.5000     8.5781     2.5177     72.0883    35.6810    0.1297     1.2517     1.3498    
3344.0000  8.5000     8.5781     2.5051     70.4162    37.6604    0.1362     1.2228     1.2976    
3344.1000  8.5000     8.5781     2.4888     68.4583    38.8661    0.1436     1.1507     1.1789    
3344.2000  8.5000     8.6016     2.4717     66.2175    40.1170    0.1481     1.0691     1.0292    
3344.3000  8.5000     8.6250     2.4565     64.5470    41.0103    0.1544     0.9930     0.8578    
3344.4000  8.5000     8.6719     2.4432     64.0570    41.0376    0.1554     0.9319     0.7030    
3344.5000  8.5000     8.6250     2.4296     64.9066    40.8306    0.1634     0.9203     0.6597    
3344.6000  8.5000     8.5781     2.4154     65.8507    40.1192    0.1646     0.9693     0.7339    
3344.7000  8.5000     8.5781     2.4039     66.3071    40.5487    0.1659     1.0405     0.8274    
3344.8000  8.5000     8.6016     2.3994     66.7519    42.5992    0.1638     1.2152     0.9977    
3344.9000  8.5000     8.6250     2.4025     67.1938    44.1745    0.1631     1.5148     1.4535    
3345.0000  8.5000     8.6250     2.4092     67.6377    45.3952    0.1591     1.6822     1.7157    
3345.1000  8.5000     8.6250     2.4160     68.3361    48.5526    0.1503     1.9594     2.3207    
3345.2000  8.5000     8.6250     2.4239     69.0321    48.9516    0.1364     2.4445     3.8053    
3345.3000  8.5000     8.6719     2.4363     69.3238    47.6722    0.1166     3.0240     6.3596    
3345.4000  8.5000     8.6719     2.4558     69.4793    47.0925    0.0995     3.8965     10.5339   
3345.5000  8.5000     8.6719     2.4829     69.5552    46.8904    0.0839     4.9876     19.1642   
3345.6000  8.5000     8.6484     2.5156     69.5540    44.7281    0.0716     5.5271     19.6249   
3345.7000  8.5000     8.6250     2.5547     69.6313    42.3374    0.0665     5.6990     14.0316   
3345.8000  8.5000     8.6250     2.6006     69.7575    40.4255    0.0636     5.4185     10.2777   
3345.9000  8.5000     8.6250     2.6470     69.9035    39.1618    0.0646     5.2145     8.8038    
3346.0000  8.5000     8.6250     2.6815     70.2347    37.8787    0.0674     4.9207     7.3220    
3346.1000  8.5000     8.6250     2.6947     70.7081    38.1034    0.0703     4.8366     6.7993    
3346.2000  8.5000     8.6250     2.6867     71.3008    38.8597    0.0732     4.9050     7.2532    
3346.3000  8.5000     8.6250     2.6667     71.8092    39.2305    0.0772     5.0797     8.2910    
3346.4000  8.5000     8.6719     2.6445     72.2402    40.3917    0.0803     5.1864     9.1012    
3346.5000  8.5000     8.6719     2.6260     72.4385    40.6958    0.0878     5.1395     9.5716    
3346.6000  8.5000     8.6719     2.6106     72.6184    42.6568    0.0953     5.0033     9.4747    
3346.7000  8.5000     8.6719     2.5943     72.7797    44.4282    0.1019     4.6502     8.1257    
3346.8000  8.5000     8.6719     2.5752     72.7277    45.5359    0.1068     4.1955     6.8696    
3346.9000  8.5000     8.6719     2.5552     72.6971    45.6356    0.1101     3.9278     6.1544    
3347.0000  8.5000     8.7031     2.5386     72.7068    45.2677    0.1098     3.6629     5.3608    
3347.1000  8.5000     8.7031     2.5303     72.7724    45.7158    0.1101     3.4474     4.5827    
3347.2000  8.5000     8.7031     2.5301     72.9128    46.5788    0.1098     3.2569     4.1552    
3347.3000  8.5000     8.6875     2.5334     73.1630    45.0352    0.1121     2.9879     3.5696    
3347.4000  8.5000     8.6875     2.5356     73.4163    44.1974    0.1140     2.7481     3.1548    
3347.5000  8.5000     8.6719     2.5344     73.6742    41.5981    0.1163     2.5788     2.9098    
3347.6000  8.5000     8.6719     2.5300     73.9399    40.4128    0.1165     2.4470     2.6131    
3347.7000  8.5000     8.6875     2.5231     73.9750    41.0395    0.1119     2.2936     2.2801    
3347.8000  8.5000     8.6875     2.5155     73.9507    40.8325    0.1079     2.1951     2.0600    
3347.9000  8.5000     8.7031     2.5121     73.9099    39.7318    0.1066     2.1191     1.9741    
3348.0000  8.5000     8.7031     2.5162     73.4501    38.1214    0.1100     2.1043     2.0297    
3348.1000  8.5000     8.7031     2.5257     72.8298    38.6456    0.1174     2.0906     2.0771    
3348.2000  8.5000     8.7031     2.5336     72.1078    41.3845    0.1254     1.9840     1.9185    
3348.3000  8.5000     8.6719     2.5356     71.0620    46.1699    0.1323     1.9513     1.8701    
3348.4000  8.5000     8.6719     2.5331     70.1124    49.5383    0.1333     1.9563     1.9282    
3348.5000  8.5000     8.6719     2.5271     70.0859    54.2562    0.1312     1.9255     1.9134    
3348.6000  8.5000     8.6719     2.5179     70.3231    54.9118    0.1272     1.8625     1.8012    
3348.7000  8.5000     8.7031     2.5057     70.7214    50.7760    0.1214     1.7731     1.6609    
3348.8000  8.5000     8.7031     2.4929     71.3020    46.4489    0.1193     1.7137     1.6197    
3348.9000  8.5000     8.6875     2.4835     71.6789    43.8432    0.1211     1.5839     1.3984    
3349.0000  8.5000     8.6250     2.4789     71.9165    39.7961    0.1244     1.5563     1.3295    
3349.1000  8.5000     8.6484     2.4781     72.0096    37.9877    0.1210     1.5810     1.4085    
3349.2000  8.5000     8.6719     2.4822     71.9653    36.9921    0.1199     1.6277     1.5214    
3349.3000  8.5000     8.6719     2.4923     71.8214    38.1418    0.1185     1.6888     1.6617    
3349.4000  8.5000     8.6719     2.5055     71.7214    40.1749    0.1164     1.7219     1.6789    
3349.5000  8.5000     8.7031     2.5148     71.5731    42.1180    0.1102     1.6943     1.5719    
3349.6000  8.5000     8.7031     2.5170     71.3816    42.3983    0.1037     1.7046     1.5554    
3349.7000  8.5000     8.6875     2.5175     71.2236    42.3122    0.0981     1.7766     1.6852    
3349.8000  8.5000     8.6719     2.5241     71.0520    39.4395    0.0931     1.8572     1.8965    
3349.9000  8.5000     8.6719     2.5375     70.8653    35.6184    0.0928     1.9437     2.1923    
3350.0000  8.5000     8.6719     2.5482     70.6523    36.4963    0.0973     2.0450     2.4513    
3350.1000  8.5000     8.6719     2.5468     70.4202    38.2669    0.1043     2.0773     2.4037    
