~Version
 VERS              .         2.0                           : CWLS LOG ASCII STANDARD - VERSION 2.0
 WRAP              .         NO                            : ONE LINE PER DEPTH STEP
 DLM               .         SPACE                         : DELIMITING CHARACTER(SPACE TAB OR COMMA)
~Well Information
#_______________________________________________________________________________
#
#PARAMETER_NAME    .UNIT     VALUE                         : DESCRIPTION
#_______________________________________________________________________________
STRT               .m        2605.0000                     : First reference value
STOP               .m        3675.0000                     : Last reference value
STEP               .m        0.1000                        : Step increment
NULL               .         -9999                         : Missing value
COMP               .                                       : Company
WELL               .         Well-B                        : Well name
~Parameter Information Block
#_______________________________________________________________________________
#
#PARAMETER_NAME    .UNIT     VALUE                         : DESCRIPTION
#_______________________________________________________________________________
SET                .         Data_Output                   : 
TLFamily_BS        .         Bit Size                      : 
TLFamily_CALI      .         Caliper                       : 
TLFamily_DENS      .         Bulk Density                  : 
TLFamily_DT        .         Compressional Slowness        : 
TLFamily_DTS       .         Shear Slowness                : 
TLFamily_GR        .         Gamma Ray                     : 
TLFamily_MD        .         Measured Depth                : 
TLFamily_NPHI      .         Thermal Neutron Porosity      : 
TLFamily_RS        .         Resistivity - Phase Shift     : 
TLFamily_RT        .         Resistivity - True Formation  : 
~Curve Information
#_______________________________________________________________________________
#
#LOGNAME           .UNIT     LOG_ID                        : DESCRIPTION
#_______________________________________________________________________________
MD                 .m                                      :  
BS                 .inches                                 :  
CALI               .inches                                 :  
DENS               .g/cm3                                  :  
DT                 .us/ft                                  :  
DTS                .us/ft                                  :  
GR                 .API                                    :  
NPHI               .v/v                                    :  
RS                 .ohm.m                                  :  
RT                 .ohm.m                                  :  
~Ascii
# ...
3305.8000  8.5000     8.6719     2.5077     74.9707    134.5662   51.6979    0.1671     2.2463     2.3225    
3305.9000  8.5000     8.6718     2.5098     75.2169    134.9595   50.3618    0.1627     2.2425     2.3092    
3306.0000  8.5000     8.6250     2.5134     75.5655    135.4093   51.2990    0.1607     2.2425     2.3106    
3306.1000  8.5000     8.6250     2.5154     75.9140    135.8590   50.1551    0.1569     2.2437     2.3120    
3306.2000  8.5000     8.6250     2.5149     76.2231    136.2286   49.5704    0.1551     2.2375     2.3063    
3306.3000  8.5000     8.6250     2.5134     76.4572    136.4461   51.2779    0.1553     2.2456     2.3144    
3306.4000  8.5000     8.6250     2.5123     76.6912    136.6636   52.5544    0.1565     2.2475     2.3219    
3306.5000  8.5000     8.6250     2.5125     76.8985    136.9150   49.6652    0.1577     2.2425     2.3138    
3306.6000  8.5000     8.6250     2.5138     77.0426    137.2467   50.1604    0.1588     2.2463     2.3161    
3306.7000  8.5000     8.6250     2.5154     77.1868    137.5783   51.1637    0.1598     2.2400     2.3012    
3306.8000  8.5000     8.6250     2.5165     77.3279    137.8855   52.6926    0.1603     2.2375     2.3021    
3306.9000  8.5000     8.6250     2.5161     77.4596    138.1190   55.1726    0.1597     2.2487     2.3248    
3307.0000  8.5000     8.6250     2.5145     77.5914    138.3525   55.8739    0.1580     2.2545     2.3571    
3307.1000  8.5000     8.6250     2.5135     77.7244    138.5428   56.4164    0.1558     2.2715     2.3810    
3307.2000  8.5000     8.6250     2.5156     77.8622    138.5627   56.2076    0.1545     2.2729     2.3961    
3307.3000  8.5000     8.6250     2.5207     78.0001    138.5825   56.5653    0.1553     2.2703     2.3878    
3307.4000  8.5000     8.6250     2.5258     78.1612    138.5696   57.1089    0.1578     2.2691     2.3823    
3307.5000  8.5000     8.6250     2.5268     78.4509    138.3764   58.6093    0.1609     2.2646     2.3701    
3307.6000  8.5000     8.6250     2.5238     78.7405    138.1830   60.0947    0.1637     2.2576     2.3579    
3307.7000  8.5000     8.6250     2.5190     79.0070    137.8768   58.5205    0.1654     2.2601     2.3726    
3307.8000  8.5000     8.6250     2.5160     79.0762    136.6132   58.5715    0.1655     2.2715     2.3901    
3307.9000  8.5000     8.6250     2.5158     79.1455    135.3501   58.9746    0.1647     2.2678     2.3841    
3308.0000  8.5000     8.6250     2.5173     79.2165    134.2320   59.2958    0.1640     2.2614     2.3841    
3308.1000  8.5000     8.6250     2.5181     79.3167    135.4913   59.3665    0.1638     2.2697     2.3890    
3308.2000  8.5000     8.6250     2.5173     79.4169    136.7507   61.3292    0.1636     2.2678     2.3927    
3308.3000  8.5000     8.6250     2.5164     79.5163    137.9992   64.5057    0.1629     2.2755     2.4118    
3308.4000  8.5000     8.6250     2.5171     79.6223    138.6399   64.6403    0.1623     2.2793     2.4397    
3308.5000  8.5000     8.6250     2.5191     79.7273    139.2760   65.6528    0.1621     2.2729     2.4126    
3308.6000  8.5000     8.6250     2.5206     79.8325    139.9124   64.9359    0.1626     2.2552     2.3771    
3308.7000  8.5000     8.6250     2.5194     79.9739    140.7140   65.1852    0.1638     2.2513     2.3655    
3308.8000  8.5000     8.6250     2.5152     80.1168    141.5226   68.7583    0.1657     2.2351     2.3369    
3308.9000  8.5000     8.6250     2.5104     80.2596    142.3293   70.7322    0.1686     2.2252     2.3150    
3309.0000  8.5000     8.6250     2.5084     80.3221    142.3555   71.0092    0.1720     2.2207     2.3109    
3309.1000  8.5000     8.6250     2.5095     80.3768    142.3058   68.1537    0.1746     2.2079     2.2995    
3309.2000  8.5000     8.6250     2.5114     80.4308    142.2557   67.2451    0.1747     2.2017     2.2924    
3309.3000  8.5000     8.6250     2.5126     80.1753    142.0333   67.1431    0.1729     2.1909     2.2726    
3309.4000  8.5000     8.6250     2.5124     79.8709    141.7836   67.4603    0.1706     2.1860     2.2520    
3309.5000  8.5000     8.6250     2.5109     79.5666    141.5334   67.6744    0.1694     2.1717     2.2424    
3309.6000  8.5000     8.6250     2.5086     79.3274    141.0901   66.6346    0.1698     2.1740     2.2607    
3309.7000  8.5000     8.6250     2.5069     79.1028    140.6031   63.2941    0.1708     2.1770     2.2745    
3309.8000  8.5000     8.6250     2.5067     78.8780    140.1169   61.9934    0.1710     2.1800     2.2918    
3309.9000  8.5000     8.6250     2.5065     78.5931    140.0295   62.4099    0.1694     2.1728     2.2964    
3310.0000  8.5000     8.6250     2.5055     78.2899    140.0628   62.9831    0.1673     2.1593     2.2767    
3310.1000  8.5000     8.6250     2.5046     77.9872    140.0961   63.2449    0.1660     2.1470     2.2637    
3310.2000  8.5000     8.6250     2.5048     77.8425    140.1941   61.3465    0.1663     2.1480     2.2676    
3310.3000  8.5000     8.6250     2.5057     77.7594    140.3171   60.7640    0.1682     2.1399     2.2603    
3310.4000  8.5000     8.6250     2.5058     77.6762    140.4401   60.3638    0.1709     2.1318     2.2514    
3310.5000  8.5000     8.6248     2.5051     77.5529    140.5500   59.4735    0.1728     2.1289     2.2619    
3310.6000  8.5000     8.5625     2.5054     77.4099    140.6536   58.8632    0.1784     2.1294     2.2687    
3310.7000  8.5000     8.5471     2.5074     77.2670    140.7570   59.9586    0.1753     2.1225     2.2732    
3310.8000  8.5000     8.6017     2.5101     77.1752    140.7359   59.3622    0.1707     2.1191     2.2742    
3310.9000  8.5000     8.6250     2.5123     77.1141    140.6398   56.7712    0.1696     2.1078     2.2534    
3311.0000  8.5000     8.6250     2.5156     77.0530    140.5431   57.3148    0.1698     2.1043     2.2393    
3311.1000  8.5000     8.6251     2.5204     76.9975    140.2577   58.1287    0.1706     2.1037     2.2339    
3311.2000  8.5000     8.6718     2.5252     76.9462    139.8330   59.2969    0.1684     2.0931     2.2206    
3311.3000  8.5000     8.6250     2.5277     76.8951    139.4079   60.8649    0.1722     2.0885     2.2103    
3311.4000  8.5000     8.6250     2.5267     76.9328    138.7973   60.3806    0.1734     2.0874     2.2004    
3311.5000  8.5000     8.6249     2.5239     77.0499    138.0207   58.8363    0.1741     2.0841     2.1829    
3311.6000  8.5000     8.5783     2.5219     77.1671    137.2436   58.4047    0.1739     2.0813     2.1759    
3311.7000  8.5000     8.6485     2.5217     77.2786    136.2541   57.8099    0.1705     2.0763     2.1658    
3311.8000  8.5000     8.6719     2.5234     77.3843    135.0345   56.7112    0.1711     2.0697     2.1466    
3311.9000  8.5000     8.6718     2.5258     77.4900    133.8138   57.0925    0.1734     2.0730     2.1443    
3312.0000  8.5000     8.6483     2.5274     77.7176    132.1125   56.5165    0.1789     2.0735     2.1266    
3312.1000  8.5000     8.6250     2.5261     78.1049    129.7798   59.3873    0.1806     2.0653     2.1035    
3312.2000  8.5000     8.6250     2.5228     78.4922    127.4488   58.5419    0.1809     2.0719     2.1059    
3312.3000  8.5000     8.6250     2.5200     78.8823    125.7814   55.7910    0.1805     2.0796     2.1085    
3312.4000  8.5000     8.6250     2.5207     79.2772    125.1772   56.1504    0.1805     2.0830     2.1086    
3312.5000  8.5000     8.6251     2.5254     79.6722    124.5738   55.4663    0.1813     2.0998     2.1320    
3312.6000  8.5000     8.6485     2.5307     80.0923    124.3366   56.5640    0.1802     2.1179     2.1614    
3312.7000  8.5000     8.6718     2.5328     80.5620    124.8212   56.3270    0.1822     2.1237     2.1637    
3312.8000  8.5000     8.6250     2.5314     81.0317    125.3077   53.9474    0.1862     2.1248     2.1624    
3312.9000  8.5000     8.6250     2.5281     81.4707    126.5604   53.6275    0.1857     2.1318     2.1700    
3313.0000  8.5000     8.6250     2.5259     81.8336    129.7020   53.0506    0.1839     2.1364     2.1648    
