~Version
 VERS              .         2.0                           : CWLS LOG ASCII STANDARD - VERSION 2.0
 WRAP              .         NO                            : ONE LINE PER DEPTH STEP
 DLM               .         SPACE                         : DELIMITING CHARACTER(SPACE TAB OR COMMA)
~Well Information
#_______________________________________________________________________________
#
#PARAMETER_NAME    .UNIT     VALUE                         : DESCRIPTION
#_______________________________________________________________________________
STRT               .m        2605.0000                     : First reference value
STOP               .m        3625.0000                     : Last reference value
STEP               .m        0.1000                        : Step increment
NULL               .         -9999                         : Missing value
COMP               .                                       : Company
WELL               .         Well-A                        : Well name
~Parameter Information Block
#_______________________________________________________________________________
#
#PARAMETER_NAME    .UNIT     VALUE                         : DESCRIPTION
#_______________________________________________________________________________
SET                .         Data_Output                   : 
TLFamily_BS        .         Bit Size                      : 
TLFamily_CALI      .         Caliper                       : 
TLFamily_DENS      .         Bulk Density                  : 
TLFamily_DT        .         Compressional Slowness        : 
TLFamily_GR        .         Gamma Ray                     : 
TLFamily_MD        .         Measured Depth                : 
TLFamily_NPHI      .         Thermal Neutron Porosity      : 
TLFamily_RS        .         Resistivity - Phase Shift     : 
TLFamily_RT        .         Resistivity - True Formation  : 
~Curve Information
#_______________________________________________________________________________
#
#LOGNAME           .UNIT     LOG_ID                        : DESCRIPTION
#_______________________________________________________________________________
MD                 .m                                      :  
BS                 .inches                                 :  
CALI               .inches                                 :  
DENS               .g/cm3                                  :  
DT                 .us/ft                                  :  
GR                 .API                                    :  
NPHI               .v/v                                    :  
RS                 .ohm.m                                  :  
RT                 .ohm.m                                  :  
~Ascii
2605.0000  8.5000     8.7265     2.2693     -9999.0000 30.4858    0.2388     1.0956     1.1330    
2605.1000  8.5000     8.4844     2.3207     -9999.0000 30.1558    0.1986     1.0876     1.0648    
2605.2000  8.5000     8.4688     2.3443     -9999.0000 32.5024    0.1761     1.0725     1.0538    
2605.3000  8.5000     8.4688     2.3499     -9999.0000 38.9391    0.1691     1.0572     1.0524    
2605.4000  8.5000     8.4792     2.3484     -9999.0000 53.1386    0.1763     1.0173     0.9913    
2605.5000  8.5000     8.4688     2.3439     -9999.0000 68.7667    0.1999     0.9722     0.9140    
2605.6000  8.5000     8.4844     2.3396     -9999.0000 78.5049    0.2420     0.9466     0.8842    
2605.7000  8.5000     8.5000     2.3406     -9999.0000 83.1893    0.2959     0.9246     0.8567    
2605.8000  8.5000     8.5000     2.3495     -9999.0000 80.2133    0.3465     0.8343     0.7331    
2605.9000  8.5000     8.5156     2.3642     -9999.0000 72.4633    0.3775     0.7947     0.7179    
2606.0000  8.5000     8.5234     2.3770     -9999.0000 67.8965    0.3792     0.8343     0.8240    
2606.1000  8.5000     8.5469     2.3805     -9999.0000 65.4964    0.3672     0.8545     0.9193    
2606.2000  8.5000     8.5000     2.3734     -9999.0000 60.7306    0.3463     0.7861     0.7253    
2606.3000  8.5000     8.5000     2.3614     -9999.0000 58.0131    0.3264     0.8226     0.7584    
2606.4000  8.5000     8.5000     2.3526     -9999.0000 56.4261    0.3104     0.8695     0.8115    
2606.5000  8.5000     8.5000     2.3502     -9999.0000 51.9636    0.2955     0.9017     0.8173    
2606.6000  8.5000     8.5000     2.3522     -9999.0000 44.4622    0.2784     0.9208     0.8304    
2606.7000  8.5000     8.5000     2.3539     -9999.0000 39.6718    0.2587     1.0200     1.0864    
2606.8000  8.5000     8.5000     2.3515     -9999.0000 37.3177    0.2362     1.3192     2.0114    
2606.9000  8.5000     8.5000     2.3459     -9999.0000 36.0181    0.2134     1.4814     2.9985    
2607.0000  8.5000     8.4844     2.3441     -9999.0000 37.1996    0.1920     1.6384     4.0924    
2607.1000  8.5000     8.5000     2.3508     -9999.0000 38.0027    0.1713     1.6707     4.1125    
2607.2000  8.5000     8.5625     2.3638     -9999.0000 38.6180    0.1579     1.5977     3.5361    
2607.3000  8.5000     8.6016     2.3779     -9999.0000 38.4989    0.1526     1.5322     3.0316    
2607.4000  8.5000     8.5781     2.3913     -9999.0000 41.2291    0.1518     1.4954     2.7599    
2607.5000  8.5000     8.5781     2.4063     -9999.0000 47.1550    0.1545     1.4883     2.7024    
2607.6000  8.5000     8.5781     2.4234     -9999.0000 54.4310    0.1625     1.4269     2.5548    
2607.7000  8.5000     8.6016     2.4361     -9999.0000 60.9502    0.1764     1.1698     1.5715    
2607.8000  8.5000     8.5781     2.4378     -9999.0000 68.1476    0.2073     0.9376     0.9693    
2607.9000  8.5000     8.5625     2.4292     -9999.0000 72.4537    0.2461     0.9121     0.8484    
2608.0000  8.5000     8.5469     2.4166     -9999.0000 78.5946    0.2952     0.9667     0.9860    
2608.1000  8.5000     8.5000     2.4082     -9999.0000 85.9441    0.3472     0.9117     0.8917    
2608.2000  8.5000     8.5000     2.4085     -9999.0000 91.1490    0.3941     0.8035     0.6730    
2608.3000  8.5000     8.5000     2.4157     -9999.0000 92.6895    0.4338     0.7486     0.6057    
2608.4000  8.5000     8.5469     2.4230     -9999.0000 90.2030    0.4611     0.7440     0.6044    
2608.5000  8.5000     8.5000     2.4215     -9999.0000 86.0220    0.4799     0.7378     0.5941    
2608.6000  8.5000     8.5469     2.4079     -9999.0000 81.6105    0.4769     0.7697     0.6423    
2608.7000  8.5000     8.5469     2.3883     -9999.0000 79.8343    0.4612     0.8854     0.9132    
2608.8000  8.5000     8.5234     2.3729     -9999.0000 76.6571    0.4289     1.1109     1.5458    
2608.9000  8.5000     8.5469     2.3696     -9999.0000 69.8339    0.3921     1.3041     2.2424    
2609.0000  8.5000     8.5000     2.3814     -9999.0000 67.7430    0.3596     1.1322     1.6262    
2609.1000  8.5000     8.5234     2.4049     -9999.0000 71.5430    0.3356     0.9475     0.9444    
2609.2000  8.5000     8.5469     2.4318     -9999.0000 74.5255    0.3370     0.8489     0.7097    
2609.3000  8.5000     8.5469     2.4493     -9999.0000 74.9423    0.3581     0.8189     0.6901    
2609.4000  8.5000     8.5469     2.4470     -9999.0000 73.0563    0.3838     0.8447     0.7573    
2609.5000  8.5000     8.5234     2.4262     -9999.0000 71.6292    0.4038     0.8680     0.8242    
2609.6000  8.5000     8.5469     2.3979     -9999.0000 70.8299    0.4060     0.9028     0.8920    
2609.7000  8.5000     8.5469     2.3744     -9999.0000 70.8864    0.3984     0.9301     0.9470    
2609.8000  8.5000     8.5234     2.3677     -9999.0000 70.4443    0.3836     0.9503     1.0124    
2609.9000  8.5000     8.5000     2.3799     -9999.0000 66.0165    0.3604     0.9559     1.0646    
2610.0000  8.5000     8.5000     2.4045     -9999.0000 62.7200    0.3381     0.9854     1.1860    
2610.1000  8.5000     8.5469     2.4268     -9999.0000 67.5389    0.3235     0.9083     0.9886    
2610.2000  8.5000     8.5469     2.4330     -9999.0000 74.1120    0.3287     0.8013     0.7409    
2610.3000  8.5000     8.5000     2.4192     -9999.0000 77.0469    0.3539     0.7814     0.7232    
2610.4000  8.5000     8.5000     2.3935     -9999.0000 78.2197    0.3843     0.7958     0.7597    
2610.5000  8.5000     8.5234     2.3692     -9999.0000 78.3095    0.4085     0.8004     0.8010    
2610.6000  8.5000     8.5469     2.3549     -9999.0000 78.5950    0.4155     0.7740     0.7841    
2610.7000  8.5000     8.5469     2.3502     -9999.0000 80.8996    0.4151     0.7235     0.7133    
2610.8000  8.5000     8.5234     2.3503     -9999.0000 82.9175    0.4188     0.7075     0.6862    
2610.9000  8.5000     8.5000     2.3520     -9999.0000 83.5551    0.4281     0.6836     0.6406    
2611.0000  8.5000     8.5000     2.3531     -9999.0000 84.1320    0.4404     0.6596     0.5930    
2611.1000  8.5000     8.5234     2.3544     -9999.0000 85.1287    0.4496     0.6639     0.6088    
2611.2000  8.5000     8.5234     2.3574     -9999.0000 85.5128    0.4528     0.6918     0.6832    
2611.3000  8.5000     8.5469     2.3615     -9999.0000 85.9947    0.4511     0.7032     0.7009    
2611.4000  8.5000     8.5469     2.3641     -9999.0000 87.4490    0.4527     0.6814     0.6425    
2611.5000  8.5000     8.5469     2.3627     -9999.0000 87.8871    0.4562     0.6718     0.5954    
2611.6000  8.5000     8.5000     2.3585     -9999.0000 84.7534    0.4532     0.6880     0.6280    
2611.7000  8.5000     8.5234     2.3542     -9999.0000 81.4431    0.4401     0.7467     0.7578    
2611.8000  8.5000     8.5000     2.3524     -9999.0000 78.2689    0.4197     0.8294     0.9578    
2611.9000  8.5000     8.5469     2.3552     -9999.0000 73.9348    0.3841     0.8932     1.0920    
2612.0000  8.5000     8.5234     2.3632     -9999.0000 72.6485    0.3522     0.8744     1.0428    
2612.1000  8.5000     8.5000     2.3742     -9999.0000 78.3403    0.3406     0.8297     0.9193    
2612.2000  8.5000     8.5000     2.3834     -9999.0000 84.4839    0.3525     0.7771     0.7714    
2612.3000  8.5000     8.5469     2.3860     -9999.0000 88.5128    0.3818     0.7343     0.6827    
2612.4000  8.5000     8.5234     2.3802     -9999.0000 91.2385    0.4155     0.7231     0.6630    
2612.5000  8.5000     8.5469     2.3695     -9999.0000 94.9113    0.4373     0.7235     0.6668    
2612.6000  8.5000     8.5469     2.3600     -9999.0000 94.1055    0.4476     0.7328     0.6707    
2612.7000  8.5000     8.5234     2.3543     -9999.0000 93.4531    0.4539     0.7415     0.6764    
2612.8000  8.5000     8.5000     2.3526     -9999.0000 89.7890    0.4533     0.7594     0.6952    
2612.9000  8.5000     8.5469     2.3548     -9999.0000 83.8922    0.4396     0.8103     0.7653    
2613.0000  8.5000     8.5469     2.3591     -9999.0000 71.7393    0.4145     0.8887     0.9009    
