~Version
 VERS              .         2.0                           : CWLS LOG ASCII STANDARD - VERSION 2.0
 WRAP              .         NO                            : ONE LINE PER DEPTH STEP
 DLM               .         SPACE                         : DELIMITING CHARACTER(SPACE TAB OR COMMA)
~Well Information
#_______________________________________________________________________________
#
#PARAMETER_NAME    .UNIT     VALUE                         : DESCRIPTION
#_______________________________________________________________________________
STRT               .m        2605.0000                     : First reference value
STOP               .m        3675.0000                     : Last reference value
STEP               .m        0.1000                        : Step increment
NULL               .         -9999                         : Missing value
COMP               .                                       : Company
WELL               .         Well-B                        : Well name
~Parameter Information Block
#_______________________________________________________________________________
#
#PARAMETER_NAME    .UNIT     VALUE                         : DESCRIPTION
#_______________________________________________________________________________
SET                .         Data_Output                   : 
TLFamily_BS        .         Bit Size                      : 
TLFamily_CALI      .         Caliper                       : 
TLFamily_DENS      .         Bulk Density                  : 
TLFamily_DT        .         Compressional Slowness        : 
TLFamily_DTS       .         Shear Slowness                : 
TLFamily_GR        .         Gamma Ray                     : 
TLFamily_MD        .         Measured Depth                : 
TLFamily_NPHI      .         Thermal Neutron Porosity      : 
TLFamily_RS        .         Resistivity - Phase Shift     : 
TLFamily_RT        .         Resistivity - True Formation  : 
~Curve Information
#_______________________________________________________________________________
#
#LOGNAME           .UNIT     LOG_ID                        : DESCRIPTION
#_______________________________________________________________________________
MD                 .m                                      :  
BS                 .inches                                 :  
CALI               .inches                                 :  
DENS               .g/cm3                                  :  
DT                 .us/ft                                  :  
DTS                .us/ft                                  :  
GR                 .API                                    :  
NPHI               .v/v                                    :  
RS                 .ohm.m                                  :  
RT                 .ohm.m                                  :  
~Ascii
# ...
3444.5000  8.5000     8.5781     2.3069     81.6341    139.8306   33.0691    0.2119     0.5085     0.6216    
3444.6000  8.5000     8.5781     2.2966     81.9710    139.6917   31.4745    0.2121     0.4902     0.5797    
3444.7000  8.5000     8.5781     2.2877     82.3291    139.3470   30.3489    0.2147     0.4565     0.4844    
3444.8000  8.5000     8.5779     2.2804     82.6874    139.0024   30.1747    0.2239     0.4267     0.3991    
3444.9000  8.5000     8.5000     2.2737     83.1027    138.7173   28.2928    0.2288     0.4171     0.4120    
3445.0000  8.5000     8.5000     2.2672     83.5744    138.4905   27.3723    0.2342     0.4231     0.4443    
3445.1000  8.5000     8.5001     2.2624     84.0460    138.2642   26.7575    0.2378     0.4551     0.4833    
3445.2000  8.5000     8.5470     2.2621     84.4832    138.2800   25.7825    0.2444     0.4857     0.4986    
3445.3000  8.5000     8.5778     2.2744     84.8795    138.5842   27.7977    0.2478     0.4948     0.4947    
3445.4000  8.5000     8.4690     2.2867     85.2759    138.8889   28.4139    0.2511     0.4623     0.4721    
3445.5000  8.5000     8.5236     2.3075     85.6650    139.3697   27.8993    0.2445     0.4201     0.4219    
3445.6000  8.5000     8.5781     2.3240     86.0438    140.1058   28.4738    0.2371     0.3950     0.3672    
3445.7000  8.5000     8.5781     2.3293     86.4224    140.8419   28.1596    0.2332     0.3998     0.3375    
3445.8000  8.5000     8.5625     2.3243     86.7645    141.5327   29.2281    0.2349     0.4126     0.3416    
3445.9000  8.5000     8.5471     2.3158     87.0416    142.1431   30.0803    0.2377     0.4331     0.3640    
3446.0000  8.5000     8.6250     2.3098     87.3187    142.7535   33.3130    0.2353     0.4661     0.4430    
3446.1000  8.5000     8.6249     2.3090     87.6034    143.3429   39.4609    0.2346     0.5490     0.7242    
3446.2000  8.5000     8.5781     2.3133     87.9051    143.8860   40.6409    0.2349     0.6858     1.1116    
3446.3000  8.5000     8.5780     2.3248     88.2064    144.4284   41.5707    0.2354     0.7651     1.3734    
3446.4000  8.5000     8.5470     2.3443     88.3544    144.6240   43.7888    0.2375     0.8178     1.7251    
3446.5000  8.5000     8.5782     2.3714     88.0768    143.8566   45.8987    0.2403     0.8467     1.8900    
3446.6000  8.5000     8.6250     2.4024     87.7993    143.0888   46.7942    0.2421     0.8682     2.0943    
3446.7000  8.5000     8.6250     2.4332     87.4861    142.2118   47.5330    0.2438     0.8923     2.0882    
3446.8000  8.5000     8.6251     2.4606     87.0447    140.9399   50.6431    0.2412     0.8808     1.7316    
3446.9000  8.5000     8.6719     2.4821     86.6032    139.6682   49.6992    0.2315     0.8427     1.4097    
3447.0000  8.5000     8.6718     2.4967     86.2000    138.4996   49.0361    0.2222     0.7788     1.1172    
3447.1000  8.5000     8.6485     2.5040     85.9838    137.8377   50.4159    0.2161     0.7248     0.8964    
3447.2000  8.5000     8.6719     2.5012     85.7675    137.1760   52.1439    0.2079     0.7199     0.8988    
3447.3000  8.5000     8.6717     2.4850     85.5720    136.5545   54.3085    0.2098     0.7386     1.0803    
3447.4000  8.5000     8.6015     2.4574     85.5257    136.2247   55.4773    0.2146     0.7576     1.3391    
3447.5000  8.5000     8.5781     2.4252     85.4794    135.8951   58.4265    0.2161     0.7472     1.1869    
3447.6000  8.5000     8.5781     2.3942     85.4228    135.5984   59.6856    0.2163     0.7363     1.1055    
3447.7000  8.5000     8.5781     2.3661     85.2368    135.7169   59.5284    0.2170     0.7628     1.3286    
3447.8000  8.5000     8.5780     2.3380     85.0508    135.8354   60.6420    0.2199     0.7791     1.5111    
3447.9000  8.5000     8.5468     2.3087     84.8621    135.9385   61.8973    0.2256     0.7462     1.4198    
3448.0000  8.5000     8.5235     2.2825     84.5738    135.4529   58.2046    0.2304     0.6486     1.0808    
3448.1000  8.5000     8.5467     2.2653     84.2855    134.9673   52.5207    0.2262     0.5365     0.6475    
3448.2000  8.5000     8.4688     2.2577     83.9972    134.4815   46.9618    0.2263     0.4700     0.4512    
3448.3000  8.5000     8.4690     2.2561     83.7055    133.9159   43.1473    0.2236     0.4363     0.3762    
3448.4000  8.5000     8.5392     2.2558     83.4137    133.3484   39.2940    0.2173     0.4210     0.3566    
3448.5000  8.5000     8.5781     2.2554     83.1222    132.7817   37.7254    0.2181     0.4076     0.3586    
3448.6000  8.5000     8.5781     2.2549     82.9751    132.6106   34.7868    0.2204     0.3913     0.3630    
3448.7000  8.5000     8.5781     2.2546     82.8393    132.4704   33.7568    0.2227     0.3800     0.3688    
3448.8000  8.5000     8.5781     2.2545     82.7037    132.3308   33.4752    0.2239     0.3795     0.3621    
3448.9000  8.5000     8.5780     2.2552     82.7078    132.4708   31.1855    0.2236     0.3849     0.3577    
3449.0000  8.5000     8.5470     2.2574     82.7310    132.6491   31.1468    0.2248     0.4034     0.3588    
3449.1000  8.5000     8.5781     2.2621     82.7543    132.8288   30.5670    0.2224     0.4285     0.3791    
3449.2000  8.5000     8.5781     2.2698     82.8561    133.6112   31.1013    0.2225     0.4762     0.4338    
3449.3000  8.5000     8.5781     2.2800     82.9737    134.5157   32.9957    0.2233     0.5411     0.5275    
3449.4000  8.5000     8.5781     2.2921     83.0912    135.4205   32.9447    0.2246     0.6194     0.6555    
3449.5000  8.5000     8.5781     2.3071     83.1689    136.4843   32.9652    0.2259     0.7023     0.7778    
3449.6000  8.5000     8.5780     2.3257     83.2357    137.5920   34.8597    0.2267     0.7924     0.9357    
3449.7000  8.5000     8.5469     2.3477     83.3024    138.7000   37.7331    0.2289     0.8681     1.0617    
3449.8000  8.5000     8.5471     2.3716     83.3999    139.9379   38.4151    0.2278     0.9293     1.1604    
3449.9000  8.5000     8.6015     2.3944     83.5083    141.2224   39.7171    0.2268     0.9857     1.2508    
3450.0000  8.5000     8.5780     2.4151     83.6164    142.5056   41.3185    0.2328     1.0408     1.3890    
3450.1000  8.5000     8.5469     2.4333     83.6321    143.1949   42.0764    0.2380     1.1426     1.5810    
3450.2000  8.5000     8.5627     2.4494     83.6058    143.6144   43.7637    0.2388     1.2339     1.7563    
3450.3000  8.5000     8.6251     2.4644     83.5794    144.0331   46.2530    0.2382     1.3111     1.9076    
3450.4000  8.5000     8.6718     2.4788     83.5327    144.1113   49.2477    0.2379     1.3652     2.0079    
3450.5000  8.5000     8.6250     2.4914     83.4744    143.9979   51.5474    0.2445     1.3579     1.9602    
3450.6000  8.5000     8.6250     2.4989     83.4159    143.8834   57.1809    0.2487     1.2600     1.6990    
3450.7000  8.5000     8.6251     2.4973     83.2691    143.2854   60.2223    0.2510     1.1365     1.3154    
3450.8000  8.5000     8.6485     2.4859     83.0613    142.3541   62.4392    0.2466     1.1522     1.3768    
3450.9000  8.5000     8.6718     2.4690     82.8537    141.4224   65.5372    0.2413     1.1389     1.3774    
3451.0000  8.5000     8.6250     2.4528     82.6753    140.3130   69.4961    0.2374     1.1127     1.3673    
3451.1000  8.5000     8.6251     2.4432     82.5216    139.0547   68.1018    0.2308     1.0686     1.3325    
3451.2000  8.5000     8.6485     2.4418     82.3680    137.7973   67.9566    0.2224     1.0410     1.3817    
3451.3000  8.5000     8.6719     2.4460     82.2501    136.8939   67.6831    0.2190     1.0151     1.4070    
3451.4000  8.5000     8.6718     2.4496     82.1685    136.3504   67.9498    0.2207     0.9884     1.3658    
3451.5000  8.5000     8.6249     2.4471     82.0872    135.8080   68.3478    0.2208     0.9631     1.2913    
3451.6000  8.5000     8.5780     2.4380     82.1622    135.7425   70.0043    0.2250     0.9383     1.1833    
3451.7000  8.5000     8.5469     2.4254     82.4295    136.2642   71.7353    0.2273     0.9052     1.0464    
