~Version
 VERS              .         2.0                           : CWLS LOG ASCII STANDARD - VERSION 2.0
 WRAP              .         NO                            : ONE LINE PER DEPTH STEP
 DLM               .         SPACE                         : DELIMITING CHARACTER(SPACE TAB OR COMMA)
~Well Information
#_______________________________________________________________________________
#
#PARAMETER_NAME    .UNIT     VALUE                         : DESCRIPTION
#_______________________________________________________________________________
STRT               .m        2574.0000                     : First reference value
STOP               .m        4550.0000                     : Last reference value
STEP               .m        0.1000                        : Step increment
NULL               .         -9999                         : Missing value
COMP               .                                       : Company
WELL               .         Well-D                        : Well name
~Parameter Information Block
#_______________________________________________________________________________
#
#PARAMETER_NAME    .UNIT     VALUE                         : DESCRIPTION
#_______________________________________________________________________________
SET                .         Data_Output                   : 
TLFamily_BS        .         Bit Size                      : 
TLFamily_CALI      .         Caliper                       : 
TLFamily_DENS      .         Bulk Density                  : 
TLFamily_DT        .         Compressional Slowness        : 
TLFamily_DTS       .         Shear Slowness                : 
TLFamily_GR        .         Gamma Ray                     : 
TLFamily_MD        .         Measured Depth                : 
TLFamily_NPHI      .         Thermal Neutron Porosity      : 
TLFamily_RS        .         Resistivity - Phase Shift     : 
TLFamily_RT        .         Resistivity - True Formation  : 
~Curve Information
#_______________________________________________________________________________
#
#LOGNAME           .UNIT     LOG_ID                        : DESCRIPTION
#_______________________________________________________________________________
MD                 .m                                      :  
BS                 .inches                                 :  
CALI               .inches                                 :  
DENS               .g/cm3                                  :  
DT                 .us/ft                                  :  
DTS                .us/ft                                  :  
GR                 .API                                    :  
NPHI               .v/v                                    :  
RS                 .ohm.m                                  :  
RT                 .ohm.m                                  :  
~Ascii
# ...
4530.4000  8.5000     8.7810     2.5240     -9999.0000 -9999.0000 77.6450    0.1660     1.5450     1.5570    
4530.5000  8.5000     8.7600     2.5210     -9999.0000 -9999.0000 78.4830    0.1640     1.5280     1.5770    
4530.6000  8.5000     8.7500     2.5210     -9999.0000 -9999.0000 78.2390    0.1610     1.5220     1.5920    
4530.7000  8.5000     8.7030     2.5220     -9999.0000 -9999.0000 78.2830    0.1650     1.5120     1.5960    
4530.8000  8.5000     8.7270     2.5260     -9999.0000 -9999.0000 76.7190    0.1640     1.4920     1.5560    
4530.9000  8.5000     8.7340     2.5300     -9999.0000 -9999.0000 78.0460    0.1650     1.4600     1.5030    
4531.0000  8.5000     8.7270     2.5340     -9999.0000 -9999.0000 77.9070    0.1650     1.4400     1.4630    
4531.1000  8.5000     8.7500     2.5340     -9999.0000 -9999.0000 77.3990    0.1640     1.4210     1.4280    
4531.2000  8.5000     8.7500     2.5320     -9999.0000 -9999.0000 78.1950    0.1640     1.4070     1.3940    
4531.3000  8.5000     8.7810     2.5280     -9999.0000 -9999.0000 78.4670    0.1640     1.3880     1.3610    
4531.4000  8.5000     8.7710     2.5260     -9999.0000 -9999.0000 79.6250    0.1660     1.3670     1.3140    
4531.5000  8.5000     8.7500     2.5250     -9999.0000 -9999.0000 80.4960    0.1700     1.3570     1.2990    
4531.6000  8.5000     8.7500     2.5250     -9999.0000 -9999.0000 78.2630    0.1720     1.3550     1.3130    
4531.7000  8.5000     8.7500     2.5250     -9999.0000 -9999.0000 75.6260    0.1740     1.3450     1.3090    
4531.8000  8.5000     8.7660     2.5250     -9999.0000 -9999.0000 76.9080    0.1750     1.3290     1.2770    
4531.9000  8.5000     8.7500     2.5230     -9999.0000 -9999.0000 75.9850    0.1740     1.3150     1.2540    
4532.0000  8.5000     8.7500     2.5200     -9999.0000 -9999.0000 75.0610    0.1720     1.3020     1.2250    
4532.1000  8.5000     8.7810     2.5170     -9999.0000 -9999.0000 73.8120    0.1700     1.3010     1.2290    
4532.2000  8.5000     8.7810     2.5140     -9999.0000 -9999.0000 74.1170    0.1700     1.3060     1.2440    
4532.3000  8.5000     8.7500     2.5150     -9999.0000 -9999.0000 73.4610    0.1720     1.3080     1.2630    
4532.4000  8.5000     8.7500     2.5170     -9999.0000 -9999.0000 73.0390    0.1720     1.3100     1.2740    
4532.5000  8.5000     8.7660     2.5200     -9999.0000 -9999.0000 70.6700    0.1690     1.3140     1.2860    
4532.6000  8.5000     8.7810     2.5220     -9999.0000 -9999.0000 70.3410    0.1670     1.3230     1.2920    
4532.7000  8.5000     8.7810     2.5230     -9999.0000 -9999.0000 68.5300    0.1650     1.3380     1.3290    
4532.8000  8.5000     8.7500     2.5230     -9999.0000 -9999.0000 68.4910    0.1640     1.3550     1.3690    
4532.9000  8.5000     8.7500     2.5240     -9999.0000 -9999.0000 71.2930    0.1610     1.3600     1.3740    
4533.0000  8.5000     8.7500     2.5250     -9999.0000 -9999.0000 67.2990    0.1590     1.3610     1.3670    
4533.1000  8.5000     8.7500     2.5250     -9999.0000 -9999.0000 66.0080    0.1580     1.3660     1.3660    
4533.2000  8.5000     8.7500     2.5230     -9999.0000 -9999.0000 65.8130    0.1580     1.3710     1.3700    
4533.3000  8.5000     8.7500     2.5210     -9999.0000 -9999.0000 65.4400    0.1590     1.3740     1.3790    
4533.4000  8.5000     8.7600     2.5180     -9999.0000 -9999.0000 64.2300    0.1590     1.3810     1.3860    
4533.5000  8.5000     8.7810     2.5140     -9999.0000 -9999.0000 66.3360    0.1570     1.3830     1.3830    
4533.6000  8.5000     8.7810     2.5110     -9999.0000 -9999.0000 66.9470    0.1550     1.3810     1.3710    
4533.7000  8.5000     8.7810     2.5090     -9999.0000 -9999.0000 65.7780    0.1490     1.3800     1.3510    
4533.8000  8.5000     8.7810     2.5090     -9999.0000 -9999.0000 63.3690    0.1420     1.3820     1.3300    
4533.9000  8.5000     8.7600     2.5150     -9999.0000 -9999.0000 60.5590    0.1380     1.3900     1.3270    
4534.0000  8.5000     8.7810     2.5280     -9999.0000 -9999.0000 58.9740    0.1310     1.4260     1.3730    
4534.1000  8.5000     8.7810     2.5450     -9999.0000 -9999.0000 57.7590    0.1280     1.5160     1.5540    
4534.2000  8.5000     8.7810     2.5620     -9999.0000 -9999.0000 56.7240    0.1280     1.6660     1.9260    
4534.3000  8.5000     8.7810     2.5720     -9999.0000 -9999.0000 55.9400    0.1290     1.7480     2.0930    
4534.4000  8.5000     8.7710     2.5730     -9999.0000 -9999.0000 58.5070    0.1310     1.7740     2.0870    
4534.5000  8.5000     8.7500     2.5670     -9999.0000 -9999.0000 60.5670    0.1340     1.7760     2.0600    
4534.6000  8.5000     8.7500     2.5590     -9999.0000 -9999.0000 62.7510    0.1350     1.7720     2.0560    
4534.7000  8.5000     8.7500     2.5530     -9999.0000 -9999.0000 64.3180    0.1360     1.7680     2.0770    
4534.8000  8.5000     8.7500     2.5490     -9999.0000 -9999.0000 64.7040    0.1370     1.7660     2.0920    
4534.9000  8.5000     8.7600     2.5450     -9999.0000 -9999.0000 64.4890    0.1390     1.7460     2.0810    
4535.0000  8.5000     8.7500     2.5430     -9999.0000 -9999.0000 65.4220    0.1420     1.7190     2.0400    
4535.1000  8.5000     8.7810     2.5420     -9999.0000 -9999.0000 65.5700    0.1420     1.6750     2.0200    
4535.2000  8.5000     8.7500     2.5440     -9999.0000 -9999.0000 67.4310    0.1470     1.6530     2.1000    
4535.3000  8.5000     8.7660     2.5460     -9999.0000 -9999.0000 69.5030    0.1500     1.6420     2.2360    
4535.4000  8.5000     8.7810     2.5440     -9999.0000 -9999.0000 67.9400    0.1570     1.6050     2.3000    
4535.5000  8.5000     8.7810     2.5310     -9999.0000 -9999.0000 63.7180    0.1650     1.5230     2.0950    
4535.6000  8.5000     8.7810     2.5060     -9999.0000 -9999.0000 58.7910    0.1710     1.3710     1.6740    
4535.7000  8.5000     8.7810     2.4770     -9999.0000 -9999.0000 56.1580    0.1760     1.2680     1.4390    
4535.8000  8.5000     8.7810     2.4520     -9999.0000 -9999.0000 52.2880    0.1770     1.2170     1.3080    
4535.9000  8.5000     8.7810     2.4340     -9999.0000 -9999.0000 50.8070    0.1750     1.1650     1.2220    
4536.0000  8.5000     8.7270     2.4190     -9999.0000 -9999.0000 50.4530    0.1770     1.1060     1.1020    
4536.1000  8.5000     8.7030     2.4080     -9999.0000 -9999.0000 50.2190    0.1750     1.0380     0.9860    
4536.2000  8.5000     8.7500     2.4010     -9999.0000 -9999.0000 48.2550    0.1730     0.9300     0.8410    
4536.3000  8.5000     8.7500     2.4010     -9999.0000 -9999.0000 45.1830    -9999.0000 0.8240     0.7250    
4536.4000  8.5000     8.7500     2.4030     -9999.0000 -9999.0000 42.9020    -9999.0000 0.7240     0.6670    
4536.5000  8.5000     8.7500     2.4000     -9999.0000 -9999.0000 41.7550    -9999.0000 0.6740     0.6150    
4536.6000  8.5000     8.7500     2.3920     -9999.0000 -9999.0000 41.1550    -9999.0000 0.6640     0.6270    
4536.7000  8.5000     8.7810     2.3830     -9999.0000 -9999.0000 40.6350    -9999.0000 0.6600     0.6410    
4536.8000  8.5000     8.7660     2.3760     -9999.0000 -9999.0000 41.0640    -9999.0000 0.6570     0.6430    
4536.9000  8.5000     8.7500     2.3720     -9999.0000 -9999.0000 40.4010    -9999.0000 0.6520     0.6410    
4537.0000  8.5000     8.7500     2.3690     -9999.0000 -9999.0000 38.5320    -9999.0000 0.6440     0.6310    
4537.1000  8.5000     8.7380     2.3650     -9999.0000 -9999.0000 37.9690    -9999.0000 0.6200     0.5960    
4537.2000  8.5000     8.7810     2.3580     -9999.0000 -9999.0000 38.5700    -9999.0000 0.5620     0.5050    
4537.3000  8.5000     8.7810     2.3500     -9999.0000 -9999.0000 40.9260    -9999.0000 0.5420     0.4770    
4537.4000  8.5000     8.7500     2.3430     -9999.0000 -9999.0000 42.0550    -9999.0000 0.5570     0.5040    
4537.5000  8.5000     8.7500     2.3430     -9999.0000 -9999.0000 42.5450    -9999.0000 0.5870     0.5710    
4537.6000  8.5000     8.7270     2.3500     -9999.0000 -9999.0000 42.0300    -9999.0000 0.6180     0.6280    
