~Version
 VERS              .         2.0                           : CWLS LOG ASCII STANDARD - VERSION 2.0
 WRAP              .         NO                            : ONE LINE PER DEPTH STEP
 DLM               .         SPACE                         : DELIMITING CHARACTER(SPACE TAB OR COMMA)
~Well Information
#_______________________________________________________________________________
#
#PARAMETER_NAME    .UNIT     VALUE                         : DESCRIPTION
#_______________________________________________________________________________
STRT               .m        2605.0000                     : First reference value
STOP               .m        3625.0000                     : Last reference value
STEP               .m        0.1000                        : Step increment
NULL               .         -9999                         : Missing value
COMP               .                                       : Company
WELL               .         Well-A                        : Well name
~Parameter Information Block
#_______________________________________________________________________________
#
#PARAMETER_NAME    .UNIT     VALUE                         : DESCRIPTION
#_______________________________________________________________________________
SET                .         Data_Output                   : 
TLFamily_BS        .         Bit Size                      : 
TLFamily_CALI      .         Caliper                       : 
TLFamily_DENS      .         Bulk Density                  : 
TLFamily_DT        .         Compressional Slowness        : 
TLFamily_GR        .         Gamma Ray                     : 
TLFamily_MD        .         Measured Depth                : 
TLFamily_NPHI      .         Thermal Neutron Porosity      : 
TLFamily_RS        .         Resistivity - Phase Shift     : 
TLFamily_RT        .         Resistivity - True Formation  : 
~Curve Information
#_______________________________________________________________________________
#
#LOGNAME           .UNIT     LOG_ID                        : DESCRIPTION
#_______________________________________________________________________________
MD                 .m                                      :  
BS                 .inches                                 :  
CALI               .inches                                 :  
DENS               .g/cm3                                  :  
DT                 .us/ft                                  :  
GR                 .API                                    :  
NPHI               .v/v                                    :  
RS                 .ohm.m                                  :  
RT                 .ohm.m                                  :  
~Ascii
# ...
2742.7000  8.5000     8.5781     2.4182     98.8920    60.9713    0.3275     1.0317     0.8814    
2742.8000  8.5000     8.5781     2.4050     95.5648    63.1947    0.3392     1.0385     0.8302    
2742.9000  8.5000     8.5469     2.3964     91.2970    65.5794    0.3517     1.0941     0.8740    
2743.0000  8.5000     8.5625     2.3933     83.2938    67.2164    0.3553     1.1498     0.9183    
2743.1000  8.5000     8.5781     2.3918     77.3849    65.3498    0.3466     1.3386     1.2490    
2743.2000  8.5000     8.5781     2.3869     73.3867    60.0733    0.3141     1.3707     1.4530    
2743.3000  8.5000     8.5625     2.3779     72.1978    50.7050    0.2592     2.4813     3.5561    
2743.4000  8.5000     8.5469     2.3691     71.7145    36.0107    0.1947     4.6037     14.6808   
2743.5000  8.5000     8.5469     2.3659     72.0143    30.6481    0.1352     4.3757     28.7156   
2743.6000  8.5000     8.5781     2.3704     71.7591    27.5708    0.0968     4.5713     56.2125   
2743.7000  8.5000     8.5781     2.3794     70.8123    26.9883    0.0818     4.2617     146.0243  
2743.8000  8.5000     8.5781     2.3850     68.9758    26.7751    0.0855     3.6564     197.7940  
2743.9000  8.5000     8.5781     2.3790     67.7325    26.2716    0.1055     2.8048     102.0411  
2744.0000  8.5000     8.5469     2.3532     66.7967    25.2349    0.1415     1.9530     6.4532    
2744.1000  8.5000     8.5469     2.3052     66.2634    25.0724    0.1828     0.9669     1.0109    
2744.2000  8.5000     8.5469     2.2458     68.1188    27.1879    0.2234     0.6024     0.4668    
2744.3000  8.5000     8.5469     2.1973     70.7261    28.4562    0.2522     0.4731     0.3453    
2744.4000  8.5000     8.5469     2.1729     74.0332    29.7517    0.2634     0.4183     0.3601    
2744.5000  8.5000     8.5469     2.1719     80.0002    31.9633    0.2603     0.4422     0.4368    
2744.6000  8.5000     8.5469     2.1927     85.7220    31.2741    0.2464     0.5370     0.9438    
2744.7000  8.5000     8.5781     2.2365     89.1987    30.8121    0.2208     0.5792     1.2634    
2744.8000  8.5000     8.5469     2.3002     92.0620    28.8995    0.1901     0.7146     1.2621    
2744.9000  8.5000     8.5469     2.3713     94.5735    27.4980    0.1561     0.8004     1.7241    
2745.0000  8.5000     8.5469     2.4320     96.5746    28.6492    0.1260     0.8862     2.1862    
2745.1000  8.5000     8.5781     2.4718     98.1113    29.1994    0.1072     0.9884     2.6463    
2745.2000  8.5000     8.5781     2.4939     99.2628    27.3284    0.0973     1.1338     3.3515    
2745.3000  8.5000     8.5781     2.5073     99.5617    29.7565    0.0925     1.3056     4.9102    
2745.4000  8.5000     8.5781     2.5170     99.2622    31.7327    0.0930     1.5707     7.5034    
2745.5000  8.5000     8.5469     2.5239     98.6055    37.1143    0.0954     1.8893     8.4301    
2745.6000  8.5000     8.5781     2.5277     97.6278    45.8161    0.1019     1.9291     6.3340    
2745.7000  8.5000     8.5781     2.5260     96.5584    52.6805    0.1206     1.4949     3.4207    
2745.8000  8.5000     8.5469     2.5163     95.4371    59.3589    0.1556     1.1244     1.1787    
2745.9000  8.5000     8.5469     2.4979     94.3742    66.4253    0.2005     1.0859     0.8002    
2746.0000  8.5000     8.5469     2.4763     93.7522    69.7422    0.2486     1.1251     0.8328    
2746.1000  8.5000     8.5469     2.4576     93.4982    69.1422    0.2889     1.1644     0.8657    
2746.2000  8.5000     8.5469     2.4467     93.9174    68.1034    0.3148     1.2469     1.0249    
2746.3000  8.5000     8.5469     2.4460     94.4230    65.8845    0.3291     1.3085     1.2561    
2746.4000  8.5000     8.5469     2.4532     95.0099    59.7777    0.3370     1.3464     1.3743    
2746.5000  8.5000     8.5469     2.4630     93.7415    58.8653    0.3380     1.3417     1.3546    
2746.6000  8.5000     8.5469     2.4713     92.5154    60.3567    0.3311     1.2943     1.2283    
2746.7000  8.5000     8.5469     2.4760     91.3468    61.4440    0.3214     1.2599     1.1675    
2746.8000  8.5000     8.5469     2.4779     91.5047    62.5408    0.3153     1.2750     1.1979    
2746.9000  8.5000     8.5469     2.4797     91.5782    62.9082    0.3150     1.2901     1.2282    
2747.0000  8.5000     8.5469     2.4819     91.4318    62.9997    0.3185     1.3132     1.2292    
2747.1000  8.5000     8.5469     2.4835     90.2976    62.9353    0.3212     1.3003     1.1988    
2747.2000  8.5000     8.5469     2.4831     87.2382    63.1820    0.3196     1.3047     1.1611    
2747.3000  8.5000     8.5469     2.4811     81.1546    63.6409    0.3124     1.3608     1.2024    
2747.4000  8.5000     8.5469     2.4798     77.4469    59.4256    0.3030     1.4707     1.3746    
2747.5000  8.5000     8.5469     2.4817     74.0191    53.7765    0.2952     1.5427     1.5407    
2747.6000  8.5000     8.5469     2.4874     70.3078    50.9896    0.2891     1.6053     1.6505    
2747.7000  8.5000     8.5781     2.4950     69.3240    46.9126    0.2799     1.6906     1.8223    
2747.8000  8.5000     8.5625     2.5013     69.2799    46.1602    0.2724     1.7003     1.8069    
2747.9000  8.5000     8.5469     2.5062     69.9277    47.4233    0.2641     1.7099     1.7912    
2748.0000  8.5000     8.5469     2.5095     71.1295    51.0690    0.2599     1.6827     1.6310    
2748.1000  8.5000     8.5469     2.5098     72.4265    55.5956    0.2609     1.7200     1.6844    
2748.2000  8.5000     8.5469     2.5055     73.4395    56.4104    0.2656     1.7524     1.7048    
2748.3000  8.5000     8.5469     2.4969     74.8331    59.0240    0.2686     1.7191     1.7371    
2748.4000  8.5000     8.5469     2.4888     76.9378    54.3796    0.2584     1.7079     1.7442    
2748.5000  8.5000     8.5781     2.4882     81.5113    45.2891    0.2294     1.8508     2.2651    
2748.6000  8.5000     8.5781     2.5012     85.4202    35.7581    0.1847     1.9813     3.3606    
2748.7000  8.5000     8.5469     2.5257     88.8108    29.1738    0.1376     1.9970     4.5677    
2748.8000  8.5000     8.5781     2.5518     91.0896    27.7782    0.0945     2.1145     7.7831    
2748.9000  8.5000     8.5781     2.5675     92.1531    26.3867    0.0711     2.1015     10.7351   
2749.0000  8.5000     8.5781     2.5588     92.3827    26.4685    0.0668     2.0880     13.6680   
2749.1000  8.5000     8.5781     2.5216     92.0046    28.2122    0.0787     1.8166     6.1614    
2749.2000  8.5000     8.5781     2.4630     91.6534    27.5635    0.1063     1.0857     1.2394    
2749.3000  8.5000     8.5469     2.3968     91.3256    28.4929    0.1429     0.5947     0.4735    
2749.4000  8.5000     8.5469     2.3335     91.0565    29.4099    0.1846     0.4502     0.3441    
2749.5000  8.5000     8.5469     2.2757     90.9027    30.8732    0.2225     0.3931     0.3503    
2749.6000  8.5000     8.5469     2.2265     90.8575    31.9833    0.2498     0.3654     0.3547    
2749.7000  8.5000     8.5469     2.1934     90.9365    31.2853    0.2627     0.3500     0.3599    
2749.8000  8.5000     8.5469     2.1774     91.0511    31.6217    0.2651     0.3451     0.3584    
2749.9000  8.5000     8.5469     2.1731     91.2055    32.2920    0.2645     0.3402     0.3569    
2750.0000  8.5000     8.5469     2.1726     91.3322    33.2077    0.2646     0.3221     0.3265    
2750.1000  8.5000     8.5469     2.1717     91.3900    33.4261    0.2657     0.3077     0.3113    
2750.2000  8.5000     8.5469     2.1712     91.3544    31.9085    0.2681     0.3099     0.3076    
2750.3000  8.5000     8.5469     2.1721     91.1646    31.5898    0.2711     0.3075     0.3068    
2750.4000  8.5000     8.5469     2.1744     90.9648    30.9502    0.2734     0.3043     0.3040    
2750.5000  8.5000     8.5469     2.1771     90.7793    31.2164    0.2743     0.3063     0.3081    
2750.6000  8.5000     8.5469     2.1786     90.6347    32.7492    0.2743     0.3082     0.3141    
2750.7000  8.5000     8.5469     2.1787     90.5395    31.6661    0.2746     0.3129     0.3181    
