~Version
 VERS              .         2.0                           : CWLS LOG ASCII STANDARD - VERSION 2.0
 WRAP              .         NO                            : ONE LINE PER DEPTH STEP
 DLM               .         SPACE                         : DELIMITING CHARACTER(SPACE TAB OR COMMA)
~Well Information
#_______________________________________________________________________________
#
#PARAMETER_NAME    .UNIT     VALUE                         : DESCRIPTION
#_______________________________________________________________________________
STRT               .m        2605.0000                     : First reference value
STOP               .m        3625.0000                     : Last reference value
STEP               .m        0.1000                        : Step increment
NULL               .         -9999                         : Missing value
COMP               .                                       : Company
WELL               .         Well-A                        : Well name
~Parameter Information Block
#_______________________________________________________________________________
#
#PARAMETER_NAME    .UNIT     VALUE                         : DESCRIPTION
#_______________________________________________________________________________
SET                .         Data_Output                   : 
TLFamily_BS        .         Bit Size                      : 
TLFamily_CALI      .         Caliper                       : 
TLFamily_DENS      .         Bulk Density                  : 
TLFamily_DT        .         Compressional Slowness        : 
TLFamily_GR        .         Gamma Ray                     : 
TLFamily_MD        .         Measured Depth                : 
TLFamily_NPHI      .         Thermal Neutron Porosity      : 
TLFamily_RS        .         Resistivity - Phase Shift     : 
TLFamily_RT        .         Resistivity - True Formation  : 
~Curve Information
#_______________________________________________________________________________
#
#LOGNAME           .UNIT     LOG_ID                        : DESCRIPTION
#_______________________________________________________________________________
MD                 .m                                      :  
BS                 .inches                                 :  
CALI               .inches                                 :  
DENS               .g/cm3                                  :  
DT                 .us/ft                                  :  
GR                 .API                                    :  
NPHI               .v/v                                    :  
RS                 .ohm.m                                  :  
RT                 .ohm.m                                  :  
~Ascii
# ...
3471.7000  8.5000     8.6719     2.4882     73.1514    54.7191    0.1452     1.3909     1.6327    
3471.8000  8.5000     8.6719     2.4697     74.7683    55.3808    0.1522     1.4241     1.7909    
3471.9000  8.5000     8.6875     2.4509     76.8058    55.9224    0.1569     1.5083     2.0541    
3472.0000  8.5000     8.7031     2.4334     79.2181    56.7274    0.1622     1.5917     2.3008    
3472.1000  8.5000     8.7266     2.4197     82.4213    51.9189    0.1663     1.5637     2.1472    
3472.2000  8.5000     8.7031     2.4095     84.2391    51.1454    0.1690     1.5421     2.0837    
3472.3000  8.5000     8.6484     2.4013     85.3592    49.7848    0.1761     1.5117     1.9807    
3472.4000  8.5000     8.6250     2.3942     85.9375    47.6256    0.1785     1.4718     1.8360    
3472.5000  8.5000     8.6250     2.3879     85.8872    45.5424    0.1816     1.4419     1.7247    
3472.6000  8.5000     8.6250     2.3816     85.4769    43.3281    0.1839     1.4251     1.6570    
3472.7000  8.5000     8.5781     2.3777     84.8518    41.9178    0.1861     1.4164     1.5981    
3472.8000  8.5000     8.6250     2.3783     83.8888    39.4908    0.1787     1.4258     1.6328    
3472.9000  8.5000     8.6250     2.3849     82.6991    36.5135    0.1718     1.4400     1.6294    
3473.0000  8.5000     8.6250     2.3971     81.3949    34.7550    0.1675     1.4527     1.6613    
3473.1000  8.5000     8.6016     2.4104     80.0436    34.9115    0.1591     1.4667     1.6934    
3473.2000  8.5000     8.6250     2.4216     78.6818    35.7557    0.1590     1.4778     1.7266    
3473.3000  8.5000     8.6016     2.4302     77.9588    35.9734    0.1551     1.4923     1.7560    
3473.4000  8.5000     8.5781     2.4357     77.4934    34.7398    0.1578     1.4956     1.7565    
3473.5000  8.5000     8.6016     2.4383     77.2693    35.3879    0.1543     1.4755     1.6704    
3473.6000  8.5000     8.5781     2.4387     77.3632    34.8171    0.1568     1.4507     1.5748    
3473.7000  8.5000     8.5781     2.4393     77.6467    36.1913    0.1579     1.4268     1.5141    
3473.8000  8.5000     8.6250     2.4402     78.1466    36.2140    0.1584     1.3690     1.4039    
3473.9000  8.5000     8.5781     2.4385     78.7650    36.7820    0.1662     1.2790     1.2130    
3474.0000  8.5000     8.5781     2.4325     79.4070    37.5735    0.1692     1.2234     1.1287    
3474.1000  8.5000     8.6250     2.4250     80.0712    40.3347    0.1707     1.1767     1.0554    
3474.2000  8.5000     8.6016     2.4220     80.5585    41.9131    0.1711     1.1599     1.0632    
3474.3000  8.5000     8.6250     2.4257     80.8336    46.3013    0.1795     1.1619     1.0859    
3474.4000  8.5000     8.6016     2.4326     80.7829    50.7212    0.1942     1.1427     1.0770    
3474.5000  8.5000     8.5781     2.4386     80.0655    57.5612    0.2034     1.0736     0.9744    
3474.6000  8.5000     8.6250     2.4432     79.1926    66.1358    0.2023     1.0176     0.8622    
3474.7000  8.5000     8.6719     2.4475     78.2488    71.1656    0.1934     1.0396     0.8835    
3474.8000  8.5000     8.6719     2.4537     77.6485    72.6875    0.1804     1.1386     1.0964    
3474.9000  8.5000     8.6875     2.4657     77.1954    71.5748    0.1705     1.1979     1.3254    
3475.0000  8.5000     8.6719     2.4873     76.9018    69.8543    0.1592     1.2869     1.6267    
3475.1000  8.5000     8.6250     2.5154     76.5745    65.9988    0.1544     1.3716     1.8787    
3475.2000  8.5000     8.6484     2.5378     76.1818    60.3786    0.1502     1.2919     1.6258    
3475.3000  8.5000     8.6719     2.5404     75.6039    54.0439    0.1558     1.1414     1.3151    
3475.4000  8.5000     8.6484     2.5181     74.9761    51.6558    0.1649     0.9625     1.0070    
3475.5000  8.5000     8.6250     2.4786     74.3762    49.5721    0.1761     0.8765     0.8717    
3475.6000  8.5000     8.6250     2.4386     74.0021    50.0106    0.1807     0.8352     0.8343    
3475.7000  8.5000     8.6250     2.4091     73.7589    50.8365    0.1800     0.8436     0.9067    
3475.8000  8.5000     8.6250     2.3926     73.5871    52.7784    0.1736     0.8806     0.9929    
3475.9000  8.5000     8.6250     2.3906     73.4291    53.3779    0.1633     0.8973     0.9876    
3476.0000  8.5000     8.6719     2.4047     73.4469    55.3135    0.1501     0.9122     0.9714    
3476.1000  8.5000     8.6250     2.4337     73.5858    56.2543    0.1455     0.9434     1.0340    
3476.2000  8.5000     8.6484     2.4692     73.8038    56.4550    0.1424     0.9899     1.1397    
3476.3000  8.5000     8.6250     2.4986     74.0715    55.3168    0.1421     1.0255     1.2021    
3476.4000  8.5000     8.6250     2.5118     74.3568    52.5714    0.1409     1.0374     1.1923    
3476.5000  8.5000     8.6250     2.5126     74.0507    51.5041    0.1366     1.0822     1.2932    
3476.6000  8.5000     8.6250     2.5158     73.5349    46.1027    0.1313     1.1765     1.5760    
3476.7000  8.5000     8.6250     2.5302     72.8169    41.1304    0.1287     1.2475     1.8160    
3476.8000  8.5000     8.6250     2.5468     71.5450    40.2814    0.1309     1.2694     1.7993    
3476.9000  8.5000     8.6250     2.5539     70.7709    40.6479    0.1385     1.2280     1.5379    
3477.0000  8.5000     8.6016     2.5521     70.5852    43.0331    0.1529     1.2161     1.4412    
3477.1000  8.5000     8.5781     2.5494     71.1191    50.3259    0.1649     1.2508     1.5637    
3477.2000  8.5000     8.6250     2.5484     71.8422    65.8528    0.1715     1.2477     1.5825    
3477.3000  8.5000     8.6250     2.5411     72.7646    79.3528    0.1775     1.1858     1.4238    
3477.4000  8.5000     8.6250     2.5174     73.1512    75.0882    0.1810     1.0871     1.1741    
3477.5000  8.5000     8.6250     2.4810     73.5115    60.5676    0.1811     0.9882     0.9203    
3477.6000  8.5000     8.6250     2.4453     73.9407    51.9825    0.1752     0.9335     0.7948    
3477.7000  8.5000     8.6016     2.4230     74.5951    46.3937    0.1666     0.9349     0.7998    
3477.8000  8.5000     8.6250     2.4231     75.3119    41.6403    0.1514     0.9631     0.8822    
3477.9000  8.5000     8.5781     2.4456     76.0714    37.3382    0.1454     1.0381     1.0787    
3478.0000  8.5000     8.6250     2.4766     76.6843    35.1970    0.1487     1.1021     1.2436    
3478.1000  8.5000     8.6250     2.4981     77.1647    34.4845    0.1593     1.0312     1.1447    
3478.2000  8.5000     8.6250     2.5001     77.3900    35.1976    0.1714     0.9151     0.8478    
3478.3000  8.5000     8.6250     2.4828     77.4316    37.5740    0.1810     0.8826     0.8013    
3478.4000  8.5000     8.6250     2.4536     77.3921    40.1129    0.1873     0.8539     0.7743    
3478.5000  8.5000     8.6250     2.4275     77.2874    42.4233    0.1926     0.8288     0.7410    
3478.6000  8.5000     8.6250     2.4155     77.3610    44.9263    0.1961     0.8078     0.7079    
3478.7000  8.5000     8.6250     2.4184     77.5776    47.0656    0.1950     0.8036     0.7128    
3478.8000  8.5000     8.6016     2.4332     78.1054    50.4260    0.1881     0.8401     0.8108    
3478.9000  8.5000     8.6250     2.4525     78.8192    57.4092    0.1746     0.8882     0.9748    
3479.0000  8.5000     8.6719     2.4638     79.5501    61.3496    0.1650     0.8942     1.0221    
3479.1000  8.5000     8.6250     2.4604     79.7105    57.6562    0.1659     0.8505     0.8583    
3479.2000  8.5000     8.5781     2.4470     79.5671    46.8125    0.1667     0.8349     0.8348    
3479.3000  8.5000     8.5781     2.4358     79.1854    42.9280    0.1721     0.8492     0.8629    
3479.4000  8.5000     8.5781     2.4352     78.3648    50.7798    0.1785     0.8585     0.8647    
3479.5000  8.5000     8.5781     2.4451     77.5816    64.4196    0.1831     0.9077     0.9504    
3479.6000  8.5000     8.6250     2.4652     76.8376    75.7797    0.1828     0.9972     1.1838    
3479.7000  8.5000     8.6484     2.4906     76.3697    80.3729    0.1828     1.0393     1.4120    
