~Version
 VERS              .         2.0                           : CWLS LOG ASCII STANDARD - VERSION 2.0
 WRAP              .         NO                            : ONE LINE PER DEPTH STEP
 DLM               .         SPACE                         : DELIMITING CHARACTER(SPACE TAB OR COMMA)
~Well Information
#_______________________________________________________________________________
#
#PARAMETER_NAME    .UNIT     VALUE                         : DESCRIPTION
#_______________________________________________________________________________
STRT               .m        2605.0000                     : First reference value
STOP               .m        3675.0000                     : Last reference value
STEP               .m        0.1000                        : Step increment
NULL               .         -9999                         : Missing value
COMP               .                                       : Company
WELL               .         Well-B                        : Well name
~Parameter Information Block
#_______________________________________________________________________________
#
#PARAMETER_NAME    .UNIT     VALUE                         : DESCRIPTION
#_______________________________________________________________________________
SET                .         Data_Output                   : 
TLFamily_BS        .         Bit Size                      : 
TLFamily_CALI      .         Caliper                       : 
TLFamily_DENS      .         Bulk Density                  : 
TLFamily_DT        .         Compressional Slowness        : 
TLFamily_DTS       .         Shear Slowness                : 
TLFamily_GR        .         Gamma Ray                     : 
TLFamily_MD        .         Measured Depth                : 
TLFamily_NPHI      .         Thermal Neutron Porosity      : 
TLFamily_RS        .         Resistivity - Phase Shift     : 
TLFamily_RT        .         Resistivity - True Formation  : 
~Curve Information
#_______________________________________________________________________________
#
#LOGNAME           .UNIT     LOG_ID                        : DESCRIPTION
#_______________________________________________________________________________
MD                 .m                                      :  
BS                 .inches                                 :  
CALI               .inches                                 :  
DENS               .g/cm3                                  :  
DT                 .us/ft                                  :  
DTS                .us/ft                                  :  
GR                 .API                                    :  
NPHI               .v/v                                    :  
RS                 .ohm.m                                  :  
RT                 .ohm.m                                  :  
~Ascii
# ...
2955.4000  8.5000     8.5781     2.6179     63.0155    116.4656   8.6559     0.0611     6.7586     6.9241    
2955.5000  8.5000     8.5781     2.6217     62.8399    116.3992   8.2954     0.0598     6.8171     6.9301    
2955.6000  8.5000     8.5781     2.6232     62.6643    116.3328   8.4762     0.0588     6.8130     6.9698    
2955.7000  8.5000     8.5781     2.6223     62.5143    116.2643   9.1550     0.0580     6.7701     6.9094    
2955.8000  8.5000     8.5781     2.6207     62.3855    116.1939   8.5670     0.0571     6.7624     6.8688    
2955.9000  8.5000     8.5781     2.6206     62.2566    116.1235   8.6078     0.0558     6.7857     6.8858    
2956.0000  8.5000     8.5781     2.6208     62.0967    116.0484   9.7718     0.0544     6.7698     6.7880    
2956.1000  8.5000     8.5781     2.6190     61.9052    115.9687   10.5205    0.0536     6.6817     6.7291    
2956.2000  8.5000     8.5781     2.6157     61.7140    115.8893   10.4047    0.0538     6.7466     6.7682    
2956.3000  8.5000     8.5781     2.6145     61.6497    115.9185   9.4270     0.0547     6.6848     6.7058    
2956.4000  8.5000     8.5781     2.6173     61.7413    116.0818   9.4704     0.0560     6.5210     6.4252    
2956.5000  8.5000     8.5781     2.6237     61.8330    116.2450   10.0352    0.0578     6.4589     6.2317    
2956.6000  8.5000     8.5781     2.6298     61.9608    116.4359   9.8935     0.0604     6.4661     6.2636    
2956.7000  8.5000     8.5781     2.6326     62.1428    116.6681   8.9875     0.0644     6.4515     6.1996    
2956.8000  8.5000     8.5781     2.6311     62.3248    116.9001   8.1953     0.0694     6.3875     6.1033    
2956.9000  8.5000     8.5781     2.6263     62.5349    117.1119   7.2216     0.0729     6.4339     6.1707    
2957.0000  8.5000     8.5781     2.6201     62.7965    117.2863   7.4530     0.0734     6.4660     6.2537    
2957.1000  8.5000     8.5781     2.6142     63.0580    117.4605   7.9994     0.0721     6.4264     6.1908    
2957.2000  8.5000     8.5781     2.6101     63.2528    117.5788   7.8627     0.0694     6.3452     6.0510    
2957.3000  8.5000     8.5781     2.6086     63.2957    117.5693   7.3979     0.0665     6.3453     6.0372    
2957.4000  8.5000     8.5781     2.6088     63.3384    117.5597   7.5525     0.0649     6.3914     6.1399    
2957.5000  8.5000     8.5781     2.6097     63.3465    117.5245   7.1437     0.0649     6.4809     6.3146    
2957.6000  8.5000     8.5781     2.6109     63.2539    117.4153   6.1619     0.0653     6.6007     6.5378    
2957.7000  8.5000     8.5781     2.6121     63.1612    117.3061   7.3480     0.0649     6.6098     6.6074    
2957.8000  8.5000     8.5781     2.6130     63.0421    117.1829   7.2831     0.0628     6.6325     6.6213    
2957.9000  8.5000     8.5781     2.6135     62.8227    117.0065   7.5369     0.0603     6.6856     6.7352    
2958.0000  8.5000     8.5781     2.6133     62.6032    116.8303   8.8473     0.0590     6.7700     6.8978    
2958.1000  8.5000     8.5781     2.6131     62.4037    116.6885   9.5558     0.0591     6.7314     6.8904    
2958.2000  8.5000     8.5781     2.6138     62.3077    116.7266   9.7658     0.0602     6.6930     6.7829    
2958.3000  8.5000     8.5781     2.6160     62.2116    116.7647   10.9558    0.0619     6.7085     6.8949    
2958.4000  8.5000     8.5781     2.6189     62.1206    116.8030   10.5017    0.0640     6.7621     6.8930    
2958.5000  8.5000     8.5781     2.6204     62.0688    116.8426   9.8765     0.0663     6.6700     6.7066    
2958.6000  8.5000     8.5781     2.6192     62.0170    116.8823   9.8633     0.0680     6.6402     6.7102    
2958.7000  8.5000     8.5781     2.6159     61.9712    116.9231   9.2422     0.0685     6.7386     6.8105    
2958.8000  8.5000     8.5781     2.6125     62.0105    116.9790   9.0469     0.0666     6.5671     6.6145    
2958.9000  8.5000     8.5781     2.6117     62.0497    117.0349   9.0006     0.0628     6.4303     6.3266    
2959.0000  8.5000     8.5781     2.6148     62.0881    117.0877   9.5719     0.0579     6.4515     6.3187    
2959.1000  8.5000     8.5781     2.6205     62.0760    116.9633   9.7500     0.0534     6.3731     6.2301    
2959.2000  8.5000     8.5781     2.6267     62.0639    116.8389   8.9089     0.0508     6.3173     6.0674    
2959.3000  8.5000     8.5781     2.6324     62.0517    116.7141   7.9417     0.0497     6.3208     6.0477    
2959.4000  8.5000     8.5781     2.6365     61.9533    116.3809   7.8136     0.0495     6.3280     6.1252    
2959.5000  8.5000     8.5781     2.6381     61.8520    116.0407   7.7401     0.0491     6.4230     6.2637    
2959.6000  8.5000     8.5781     2.6379     61.7504    115.6999   8.0707     0.0484     6.4125     6.2367    
2959.7000  8.5000     8.5781     2.6383     61.5188    115.1614   8.5116     0.0473     6.4628     6.2746    
2959.8000  8.5000     8.5781     2.6408     61.2760    114.6055   10.1425    0.0463     6.5061     6.3747    
2959.9000  8.5000     8.5781     2.6439     61.0333    114.0495   10.1927    0.0456     6.4735     6.2842    
2960.0000  8.5000     8.5781     2.6466     60.8408    113.4372   9.3095     0.0450     6.5214     6.4110    
2960.1000  8.5000     8.5781     2.6499     60.6557    112.8167   8.8368     0.0447     6.6779     6.6132    
2960.2000  8.5000     8.5781     2.6540     60.4705    112.1974   8.8647     0.0445     6.7469     6.7362    
2960.3000  8.5000     8.5781     2.6574     60.2909    112.0251   8.2351     0.0439     6.7934     6.7568    
2960.4000  8.5000     8.5781     2.6585     60.1126    111.9487   7.2552     0.0431     6.7546     6.6428    
2960.5000  8.5000     8.5781     2.6558     59.9344    111.8723   7.4253     0.0422     6.7703     6.5965    
2960.6000  8.5000     8.5781     2.6516     59.8539    111.8255   7.7594     0.0418     6.7896     6.5667    
2960.7000  8.5000     8.5781     2.6491     59.8015    111.7873   6.8789     0.0422     6.7470     6.4845    
2960.8000  8.5000     8.5781     2.6489     59.7492    111.7498   6.8816     0.0433     6.8214     6.6001    
2960.9000  8.5000     8.5781     2.6499     59.7123    111.9938   7.2540     0.0446     6.9289     6.7082    
2961.0000  8.5000     8.5781     2.6505     59.6811    112.3433   7.4387     0.0457     7.0106     6.7688    
2961.1000  8.5000     8.5781     2.6496     59.6503    112.6927   7.3090     0.0466     7.1237     6.9222    
2961.2000  8.5000     8.5781     2.6461     59.7262    112.9794   5.9566     0.0479     7.3318     7.1618    
2961.3000  8.5000     8.5781     2.6419     59.8525    113.2367   6.0962     0.0499     7.5711     7.5763    
2961.4000  8.5000     8.5781     2.6384     59.9786    113.4940   6.8088     0.0519     7.5994     7.6210    
2961.5000  8.5000     8.5781     2.6354     60.0712    113.7764   7.4067     0.0532     7.7332     7.8107    
2961.6000  8.5000     8.5781     2.6323     60.1441    114.0734   8.2997     0.0537     7.9392     8.1589    
2961.7000  8.5000     8.5781     2.6291     60.2171    114.3703   8.1287     0.0537     7.9595     8.0692    
2961.8000  8.5000     8.5781     2.6266     60.3138    114.5661   7.9693     0.0533     7.9962     8.1287    
2961.9000  8.5000     8.5781     2.6254     60.4274    114.6901   7.2378     0.0520     8.1766     8.3664    
2962.0000  8.5000     8.5781     2.6263     60.5408    114.8138   7.8739     0.0500     8.2885     8.5272    
2962.1000  8.5000     8.5781     2.6299     60.6115    114.8472   8.4979     0.0474     8.3103     8.4747    
2962.2000  8.5000     8.5781     2.6361     60.6453    114.8024   8.5184     0.0449     8.3924     8.6103    
2962.3000  8.5000     8.5781     2.6428     60.6788    114.7575   8.9556     0.0430     8.5092     8.7589    
2962.4000  8.5000     8.5781     2.6484     60.6135    114.6706   8.7410     0.0416     8.4697     8.5849    
2962.5000  8.5000     8.5781     2.6517     60.4444    114.5398   9.2606     0.0411     8.4043     8.5477    
2962.6000  8.5000     8.5781     2.6526     60.2751    114.4087   9.7363     0.0413     8.7230     8.9029    
