~Version
 VERS              .         2.0                           : CWLS LOG ASCII STANDARD - VERSION 2.0
 WRAP              .         NO                            : ONE LINE PER DEPTH STEP
 DLM               .         SPACE                         : DELIMITING CHARACTER(SPACE TAB OR COMMA)
~Well Information
#_______________________________________________________________________________
#
#PARAMETER_NAME    .UNIT     VALUE                         : DESCRIPTION
#_______________________________________________________________________________
STRT               .m        2605.0000                     : First reference value
STOP               .m        3675.0000                     : Last reference value
STEP               .m        0.1000                        : Step increment
NULL               .         -9999                         : Missing value
COMP               .                                       : Company
WELL               .         Well-B                        : Well name
~Parameter Information Block
#_______________________________________________________________________________
#
#PARAMETER_NAME    .UNIT     VALUE                         : DESCRIPTION
#_______________________________________________________________________________
SET                .         Data_Output                   : 
TLFamily_BS        .         Bit Size                      : 
TLFamily_CALI      .         Caliper                       : 
TLFamily_DENS      .         Bulk Density                  : 
TLFamily_DT        .         Compressional Slowness        : 
TLFamily_DTS       .         Shear Slowness                : 
TLFamily_GR        .         Gamma Ray                     : 
TLFamily_MD        .         Measured Depth                : 
TLFamily_NPHI      .         Thermal Neutron Porosity      : 
TLFamily_RS        .         Resistivity - Phase Shift     : 
TLFamily_RT        .         Resistivity - True Formation  : 
~Curve Information
#_______________________________________________________________________________
#
#LOGNAME           .UNIT     LOG_ID                        : DESCRIPTION
#_______________________________________________________________________________
MD                 .m                                      :  
BS                 .inches                                 :  
CALI               .inches                                 :  
DENS               .g/cm3                                  :  
DT                 .us/ft                                  :  
DTS                .us/ft                                  :  
GR                 .API                                    :  
NPHI               .v/v                                    :  
RS                 .ohm.m                                  :  
RT                 .ohm.m                                  :  
~Ascii
# ...
3167.1000  8.5000     8.6719     2.5515     75.7848    149.0814   39.1148    0.1545     2.3118     2.3690    
3167.2000  8.5000     8.6719     2.5527     76.1405    149.2368   40.0930    0.1552     2.2799     2.3102    
3167.3000  8.5000     8.6719     2.5505     76.5806    149.1034   40.1202    0.1555     2.2655     2.2903    
3167.4000  8.5000     8.6719     2.5461     77.0206    148.9700   38.7529    0.1553     2.2570     2.2869    
3167.5000  8.5000     8.6719     2.5428     77.4397    148.8137   38.4331    0.1544     2.2494     2.2795    
3167.6000  8.5000     8.6718     2.5431     77.7666    148.5564   37.6753    0.1530     2.2395     2.2708    
3167.7000  8.5000     8.6251     2.5464     78.0934    148.2991   35.4353    0.1537     2.2349     2.2629    
3167.8000  8.5000     8.6483     2.5496     78.4042    148.0562   34.5094    0.1479     2.2446     2.2936    
3167.9000  8.5000     8.6251     2.5523     78.6142    147.9038   32.7613    0.1489     2.2564     2.3351    
3168.0000  8.5000     8.6718     2.5554     78.8241    147.7515   32.5787    0.1451     2.2777     2.3773    
3168.1000  8.5000     8.6251     2.5590     79.0080    147.5890   31.2289    0.1477     2.2920     2.4042    
3168.2000  8.5000     8.6718     2.5617     78.9265    147.3222   29.4328    0.1468     2.3174     2.4422    
3168.3000  8.5000     8.6485     2.5619     78.8451    147.0555   29.9774    0.1417     2.3292     2.4645    
3168.4000  8.5000     8.6718     2.5609     78.7601    146.7894   31.3616    0.1422     2.3483     2.4857    
3168.5000  8.5000     8.6250     2.5593     78.5928    146.5372   30.4746    0.1401     2.3622     2.4959    
3168.6000  8.5000     8.6250     2.5573     78.4255    146.2851   29.9578    0.1389     2.3736     2.5122    
3168.7000  8.5000     8.6250     2.5542     78.2563    146.0303   29.8143    0.1378     2.3989     2.5458    
3168.8000  8.5000     8.6251     2.5509     77.8917    145.5778   29.5544    0.1367     2.4299     2.5901    
3168.9000  8.5000     8.6718     2.5495     77.5239    145.1214   29.2904    0.1319     2.4693     2.6375    
3169.0000  8.5000     8.6483     2.5504     77.1564    144.6646   27.5915    0.1328     2.4908     2.6481    
3169.1000  8.5000     8.6251     2.5527     76.9194    143.9768   26.6419    0.1275     2.5195     2.6830    
3169.2000  8.5000     8.6718     2.5551     76.6901    143.2754   26.2570    0.1251     2.5330     2.6821    
3169.3000  8.5000     8.6250     2.5571     76.4605    142.5739   25.2410    0.1259     2.5839     2.7484    
3169.4000  8.5000     8.6250     2.5592     76.1516    141.8597   25.2907    0.1242     2.6460     2.8303    
3169.5000  8.5000     8.6250     2.5605     75.8336    141.1440   25.7217    0.1236     2.6875     2.8882    
3169.6000  8.5000     8.6250     2.5605     75.5156    140.4285   26.6746    0.1235     2.7130     2.9104    
3169.7000  8.5000     8.6250     2.5607     75.2404    139.7995   27.3447    0.1235     2.7394     2.9225    
3169.8000  8.5000     8.6250     2.5631     74.9727    139.1861   27.0492    0.1241     2.7592     2.9199    
3169.9000  8.5000     8.6251     2.5682     74.7049    138.5735   26.7410    0.1249     2.7824     2.9302    
3170.0000  8.5000     8.6483     2.5734     74.4124    138.3224   26.7805    0.1228     2.8093     2.9569    
3170.1000  8.5000     8.6250     2.5759     74.1136    138.1620   26.8447    0.1256     2.8559     3.0340    
3170.2000  8.5000     8.6250     2.5745     73.8150    138.0020   25.5913    0.1243     2.8932     3.0950    
3170.3000  8.5000     8.6250     2.5708     73.6012    138.0011   24.7564    0.1220     2.9171     3.1333    
3170.4000  8.5000     8.6250     2.5686     73.4153    138.0528   23.0031    0.1188     2.9391     3.1576    
3170.5000  8.5000     8.6250     2.5695     73.2294    138.1045   22.1903    0.1152     2.9665     3.2047    
3170.6000  8.5000     8.6250     2.5727     73.0626    138.1775   23.3192    0.1116     3.0187     3.3105    
3170.7000  8.5000     8.6250     2.5766     72.9040    138.2594   23.2232    0.1089     3.0482     3.3727    
3170.8000  8.5000     8.6250     2.5795     72.7453    138.3410   22.7142    0.1074     3.0694     3.4171    
3170.9000  8.5000     8.6250     2.5809     72.5719    138.2574   21.7594    0.1063     3.0728     3.4340    
3171.0000  8.5000     8.6250     2.5808     72.3908    138.0871   22.5051    0.1051     3.0863     3.4431    
3171.1000  8.5000     8.6250     2.5802     72.2096    137.9166   23.6272    0.1033     3.1038     3.4701    
3171.2000  8.5000     8.6249     2.5814     71.9987    137.6386   23.2034    0.1013     3.1237     3.5093    
3171.3000  8.5000     8.5782     2.5844     71.7687    137.2913   23.4556    0.1025     3.1330     3.5166    
3171.4000  8.5000     8.6249     2.5870     71.5387    136.9440   23.4936    0.1011     3.1177     3.4860    
3171.5000  8.5000     8.5781     2.5877     71.3252    136.6035   24.8393    0.1007     3.1080     3.4535    
3171.6000  8.5000     8.5781     2.5863     71.1248    136.2684   25.7995    0.1011     3.0997     3.4275    
3171.7000  8.5000     8.5781     2.5835     70.9245    135.9336   27.4123    0.1022     3.0767     3.3669    
3171.8000  8.5000     8.5781     2.5805     70.8086    135.7225   29.3230    0.1033     3.0463     3.2767    
3171.9000  8.5000     8.5781     2.5782     70.7729    135.6293   30.9889    0.1045     3.0080     3.1613    
3172.0000  8.5000     8.5782     2.5772     70.7374    135.5365   31.4138    0.1055     2.9747     3.0687    
3172.1000  8.5000     8.6250     2.5769     70.7497    135.6414   32.0564    0.1031     2.9538     3.0154    
3172.2000  8.5000     8.6250     2.5765     70.8169    135.9744   34.4318    0.1037     2.9407     2.9774    
3172.3000  8.5000     8.6250     2.5768     70.8844    136.3079   34.4060    0.1055     2.9283     2.9512    
3172.4000  8.5000     8.6250     2.5770     71.0706    136.8054   33.1327    0.1094     2.9233     2.9359    
3172.5000  8.5000     8.6250     2.5769     71.4233    137.5333   31.0124    0.1151     2.9181     2.9262    
3172.6000  8.5000     8.6250     2.5762     71.7759    138.2612   29.9586    0.1209     2.9262     2.9472    
3172.7000  8.5000     8.6250     2.5752     72.1221    139.0187   27.8079    0.1256     2.9428     2.9871    
3172.8000  8.5000     8.6250     2.5744     72.4571    139.8271   25.8604    0.1285     2.9549     3.0182    
3172.9000  8.5000     8.6250     2.5734     72.7919    140.6354   25.1639    0.1295     2.9544     3.0240    
3173.0000  8.5000     8.6249     2.5720     73.0944    141.3437   25.8724    0.1286     2.9448     3.0113    
3173.1000  8.5000     8.6015     2.5715     73.3279    141.8404   24.2087    0.1293     2.9430     3.0233    
3173.2000  8.5000     8.5781     2.5728     73.5611    142.3367   23.8342    0.1264     2.9688     3.1101    
3173.3000  8.5000     8.5781     2.5747     73.7481    142.6848   23.5717    0.1235     3.0244     3.2513    
3173.4000  8.5000     8.5781     2.5756     73.8109    142.6372   25.3843    0.1211     3.0429     3.3028    
3173.5000  8.5000     8.5781     2.5744     73.8736    142.5894   26.3667    0.1196     3.0297     3.2783    
3173.6000  8.5000     8.5781     2.5719     73.8633    142.4554   26.7323    0.1189     3.0203     3.2379    
3173.7000  8.5000     8.5782     2.5700     73.6011    142.0247   26.8102    0.1185     3.0026     3.2008    
3173.8000  8.5000     8.6250     2.5699     73.3389    141.5938   26.9933    0.1150     2.9831     3.1748    
3173.9000  8.5000     8.6249     2.5713     73.0810    141.1490   27.7926    0.1142     2.9833     3.1865    
3174.0000  8.5000     8.6015     2.5733     72.8437    140.6387   26.1384    0.1160     2.9968     3.2167    
3174.1000  8.5000     8.5782     2.5744     72.6064    140.1285   25.3161    0.1145     3.0228     3.2760    
3174.2000  8.5000     8.6250     2.5739     72.3788    139.6329   25.1223    0.1097     3.0353     3.3229    
3174.3000  8.5000     8.6250     2.5722     72.2169    139.2355   25.9231    0.1085     3.0351     3.3334    
