~Version
 VERS              .         2.0                           : CWLS LOG ASCII STANDARD - VERSION 2.0
 WRAP              .         NO                            : ONE LINE PER DEPTH STEP
 DLM               .         SPACE                         : DELIMITING CHARACTER(SPACE TAB OR COMMA)
~Well Information
#_______________________________________________________________________________
#
#PARAMETER_NAME    .UNIT     VALUE                         : DESCRIPTION
#_______________________________________________________________________________
STRT               .m        2605.0000                     : First reference value
STOP               .m        3675.0000                     : Last reference value
STEP               .m        0.1000                        : Step increment
NULL               .         -9999                         : Missing value
COMP               .                                       : Company
WELL               .         Well-B                        : Well name
~Parameter Information Block
#_______________________________________________________________________________
#
#PARAMETER_NAME    .UNIT     VALUE                         : DESCRIPTION
#_______________________________________________________________________________
SET                .         Data_Output                   : 
TLFamily_BS        .         Bit Size                      : 
TLFamily_CALI      .         Caliper                       : 
TLFamily_DENS      .         Bulk Density                  : 
TLFamily_DT        .         Compressional Slowness        : 
TLFamily_DTS       .         Shear Slowness                : 
TLFamily_GR        .         Gamma Ray                     : 
TLFamily_MD        .         Measured Depth                : 
TLFamily_NPHI      .         Thermal Neutron Porosity      : 
TLFamily_RS        .         Resistivity - Phase Shift     : 
TLFamily_RT        .         Resistivity - True Formation  : 
~Curve Information
#_______________________________________________________________________________
#
#LOGNAME           .UNIT     LOG_ID                        : DESCRIPTION
#_______________________________________________________________________________
MD                 .m                                      :  
BS                 .inches                                 :  
CALI               .inches                                 :  
DENS               .g/cm3                                  :  
DT                 .us/ft                                  :  
DTS                .us/ft                                  :  
GR                 .API                                    :  
NPHI               .v/v                                    :  
RS                 .ohm.m                                  :  
RT                 .ohm.m                                  :  
~Ascii
# ...
3656.2000  8.5000     8.6720     2.6234     -9999.0000 -9999.0000 104.5281   0.1949     2.2280     2.1713    
3656.3000  8.5000     8.6927     2.6172     -9999.0000 -9999.0000 103.3991   0.1950     2.2524     2.2220    
3656.4000  8.5000     8.7030     2.6133     -9999.0000 -9999.0000 104.2723   0.1960     2.2710     2.2535    
3656.5000  8.5000     8.6781     2.6127     -9999.0000 -9999.0000 103.0782   0.1971     2.2761     2.2558    
3656.6000  8.5000     8.6719     2.6133     -9999.0000 -9999.0000 102.2345   0.1948     2.2747     2.2349    
3656.7000  8.5000     8.6719     2.6125     -9999.0000 -9999.0000 102.5040   0.1922     2.2485     2.1543    
3656.8000  8.5000     8.6719     2.6104     -9999.0000 -9999.0000 101.3726   0.1900     2.2483     2.1512    
3656.9000  8.5000     8.6719     2.6084     -9999.0000 -9999.0000 101.8537   0.1886     2.3336     2.3281    
3657.0000  8.5000     8.6720     2.6083     -9999.0000 -9999.0000 101.8200   0.1880     2.4124     2.5325    
3657.1000  8.5000     8.6927     2.6096     -9999.0000 -9999.0000 100.4968   0.1917     2.3912     2.4761    
3657.2000  8.5000     8.7030     2.6107     -9999.0000 -9999.0000 97.6597    0.2204     2.3671     2.4062    
3657.3000  8.5000     8.6719     2.6109     -9999.0000 -9999.0000 95.4315    0.2108     2.3656     2.3991    
3657.4000  8.5000     8.6719     2.6115     -9999.0000 -9999.0000 96.9069    -9999.0000 2.3638     2.3955    
3657.5000  8.5000     8.6719     2.6141     -9999.0000 -9999.0000 97.2937    -9999.0000 2.3639     2.3989    
3657.6000  8.5000     8.6719     2.6185     -9999.0000 -9999.0000 96.8099    -9999.0000 2.3775     2.4267    
3657.7000  8.5000     8.6718     2.6214     -9999.0000 -9999.0000 96.5068    -9999.0000 2.3785     2.4274    
3657.8000  8.5000     8.6485     2.6203     -9999.0000 -9999.0000 96.4275    -9999.0000 2.3609     2.4012    
3657.9000  8.5000     8.6719     2.6152     -9999.0000 -9999.0000 95.2286    -9999.0000 2.3827     2.4628    
3658.0000  8.5000     8.6720     2.6089     -9999.0000 -9999.0000 91.0201    -9999.0000 2.4158     2.5596    
3658.1000  8.5000     8.7030     2.6040     -9999.0000 -9999.0000 89.2755    -9999.0000 2.4122     2.5693    
3658.2000  8.5000     8.6823     2.6025     -9999.0000 -9999.0000 88.7075    -9999.0000 2.3985     2.5538    
3658.3000  8.5000     8.6719     2.6045     -9999.0000 -9999.0000 89.0179    -9999.0000 2.3880     2.5451    
3658.4000  8.5000     8.6824     2.6087     -9999.0000 -9999.0000 92.2192    -9999.0000 2.3599     2.4945    
3658.5000  8.5000     8.7031     2.6133     -9999.0000 -9999.0000 97.3194    -9999.0000 2.3234     2.4292    
3658.6000  8.5000     8.6953     2.6166     -9999.0000 -9999.0000 100.1574   -9999.0000 2.2528     2.2998    
3658.7000  8.5000     8.7031     2.6182     -9999.0000 -9999.0000 100.0642   -9999.0000 2.1495     2.1032    
3658.8000  8.5000     8.6906     2.6186     -9999.0000 -9999.0000 100.1692   -9999.0000 2.0708     1.9534    
3658.9000  8.5000     8.6924     2.6186     -9999.0000 -9999.0000 101.3937   -9999.0000 2.0465     1.9014    
3659.0000  8.5000     8.6942     2.6176     -9999.0000 -9999.0000 105.3033   -9999.0000 2.0296     1.8813    
3659.1000  8.5000     8.6960     2.6153     -9999.0000 -9999.0000 107.5910   -9999.0000 2.0273     1.8852    
3659.2000  8.5000     8.6978     2.6120     -9999.0000 -9999.0000 110.6561   -9999.0000 2.0216     1.8873    
3659.3000  8.5000     8.6996     2.6087     -9999.0000 -9999.0000 110.4567   -9999.0000 2.0213     1.9015    
3659.4000  8.5000     8.7013     2.6062     -9999.0000 -9999.0000 108.3930   -9999.0000 2.0433     1.9650    
3659.5000  8.5000     -9999.0000 2.6048     -9999.0000 -9999.0000 106.3393   -9999.0000 2.0933     2.1039    
3659.6000  8.5000     -9999.0000 2.6041     -9999.0000 -9999.0000 104.1817   -9999.0000 2.1447     2.2631    
3659.7000  8.5000     -9999.0000 2.6037     -9999.0000 -9999.0000 101.9953   -9999.0000 2.1639     2.3248    
3659.8000  8.5000     -9999.0000 2.6000     -9999.0000 -9999.0000 100.0418   -9999.0000 2.1601     2.3274    
3659.9000  8.5000     -9999.0000 2.5806     -9999.0000 -9999.0000 101.7882   -9999.0000 2.1402     2.2872    
3660.0000  8.5000     -9999.0000 2.5779     -9999.0000 -9999.0000 103.6847   -9999.0000 2.0930     2.1639    
3660.1000  8.5000     -9999.0000 -9999.0000 -9999.0000 -9999.0000 107.3375   -9999.0000 2.0015     1.9665    
3660.2000  8.5000     -9999.0000 -9999.0000 -9999.0000 -9999.0000 111.5120   -9999.0000 1.9539     1.8656    
3660.3000  8.5000     -9999.0000 -9999.0000 -9999.0000 -9999.0000 110.3542   -9999.0000 1.9367     1.8246    
3660.4000  8.5000     -9999.0000 -9999.0000 -9999.0000 -9999.0000 109.8107   -9999.0000 1.9286     1.8037    
3660.5000  8.5000     -9999.0000 -9999.0000 -9999.0000 -9999.0000 109.5362   -9999.0000 1.9267     1.7988    
3660.6000  8.5000     -9999.0000 -9999.0000 -9999.0000 -9999.0000 109.4536   -9999.0000 1.9447     1.8276    
3660.7000  8.5000     -9999.0000 -9999.0000 -9999.0000 -9999.0000 110.5975   -9999.0000 1.9664     1.8700    
3660.8000  8.5000     -9999.0000 -9999.0000 -9999.0000 -9999.0000 112.0844   -9999.0000 1.9874     1.9085    
3660.9000  8.5000     -9999.0000 -9999.0000 -9999.0000 -9999.0000 108.8713   -9999.0000 2.0211     1.9703    
3661.0000  8.5000     -9999.0000 -9999.0000 -9999.0000 -9999.0000 103.7133   -9999.0000 2.0527     2.0408    
3661.1000  8.5000     -9999.0000 -9999.0000 -9999.0000 -9999.0000 101.8319   -9999.0000 2.0711     2.0777    
3661.2000  8.5000     -9999.0000 -9999.0000 -9999.0000 -9999.0000 102.6623   -9999.0000 2.0922     2.0987    
3661.3000  8.5000     -9999.0000 -9999.0000 -9999.0000 -9999.0000 102.3500   -9999.0000 2.1081     2.0912    
3661.4000  8.5000     -9999.0000 -9999.0000 -9999.0000 -9999.0000 103.8721   -9999.0000 2.1277     2.1170    
3661.5000  8.5000     -9999.0000 -9999.0000 -9999.0000 -9999.0000 107.7171   -9999.0000 2.1860     2.2590    
3661.6000  8.5000     -9999.0000 -9999.0000 -9999.0000 -9999.0000 111.6454   -9999.0000 2.2482     2.3954    
3661.7000  8.5000     -9999.0000 -9999.0000 -9999.0000 -9999.0000 114.8491   -9999.0000 2.2611     2.4024    
3661.8000  8.5000     -9999.0000 -9999.0000 -9999.0000 -9999.0000 116.6777   -9999.0000 2.2397     2.3272    
3661.9000  8.5000     -9999.0000 -9999.0000 -9999.0000 -9999.0000 115.2646   -9999.0000 2.2215     2.2815    
3662.0000  8.5000     -9999.0000 -9999.0000 -9999.0000 -9999.0000 111.3013   -9999.0000 2.1947     2.2176    
3662.1000  8.5000     -9999.0000 -9999.0000 -9999.0000 -9999.0000 109.2942   -9999.0000 2.1775     2.1673    
3662.2000  8.5000     -9999.0000 -9999.0000 -9999.0000 -9999.0000 107.9171   -9999.0000 2.1773     2.1626    
3662.3000  8.5000     -9999.0000 -9999.0000 -9999.0000 -9999.0000 107.6549   -9999.0000 2.1784     2.1625    
3662.4000  8.5000     -9999.0000 -9999.0000 -9999.0000 -9999.0000 108.4366   -9999.0000 2.1595     2.1265    
3662.5000  8.5000     -9999.0000 -9999.0000 -9999.0000 -9999.0000 108.2898   -9999.0000 2.1413     2.0886    
3662.6000  8.5000     -9999.0000 -9999.0000 -9999.0000 -9999.0000 107.1258   -9999.0000 2.1576     2.1253    
3662.7000  8.5000     -9999.0000 -9999.0000 -9999.0000 -9999.0000 105.1863   -9999.0000 2.1652     2.1471    
3662.8000  8.5000     -9999.0000 -9999.0000 -9999.0000 -9999.0000 104.0116   -9999.0000 2.1535     2.1164    
3662.9000  8.5000     -9999.0000 -9999.0000 -9999.0000 -9999.0000 105.8857   -9999.0000 2.1317     2.0601    
3663.0000  8.5000     -9999.0000 -9999.0000 -9999.0000 -9999.0000 107.8666   -9999.0000 2.1099     2.0062    
3663.1000  8.5000     -9999.0000 -9999.0000 -9999.0000 -9999.0000 107.5092   -9999.0000 2.1059     2.0038    
3663.2000  8.5000     -9999.0000 -9999.0000 -9999.0000 -9999.0000 105.3609   -9999.0000 2.1052     2.0162    
3663.3000  8.5000     -9999.0000 -9999.0000 -9999.0000 -9999.0000 105.8398   -9999.0000 2.1313     2.0845    
3663.4000  8.5000     -9999.0000 -9999.0000 -9999.0000 -9999.0000 104.7939   -9999.0000 2.1305     2.0928    
