~Version
 VERS              .         2.0                           : CWLS LOG ASCII STANDARD - VERSION 2.0
 WRAP              .         NO                            : ONE LINE PER DEPTH STEP
 DLM               .         SPACE                         : DELIMITING CHARACTER(SPACE TAB OR COMMA)
~Well Information
#_______________________________________________________________________________
#
#PARAMETER_NAME    .UNIT     VALUE                         : DESCRIPTION
#_______________________________________________________________________________
STRT               .m        2574.0000                     : First reference value
STOP               .m        4550.0000                     : Last reference value
STEP               .m        0.1000                        : Step increment
NULL               .         -9999                         : Missing value
COMP               .                                       : Company
WELL               .         Well-D                        : Well name
~Parameter Information Block
#_______________________________________________________________________________
#
#PARAMETER_NAME    .UNIT     VALUE                         : DESCRIPTION
#_______________________________________________________________________________
SET                .         Data_Output                   : 
TLFamily_BS        .         Bit Size                      : 
TLFamily_CALI      .         Caliper                       : 
TLFamily_DENS      .         Bulk Density                  : 
TLFamily_DT        .         Compressional Slowness        : 
TLFamily_DTS       .         Shear Slowness                : 
TLFamily_GR        .         Gamma Ray                     : 
TLFamily_MD        .         Measured Depth                : 
TLFamily_NPHI      .         Thermal Neutron Porosity      : 
TLFamily_RS        .         Resistivity - Phase Shift     : 
TLFamily_RT        .         Resistivity - True Formation  : 
~Curve Information
#_______________________________________________________________________________
#
#LOGNAME           .UNIT     LOG_ID                        : DESCRIPTION
#_______________________________________________________________________________
MD                 .m                                      :  
BS                 .inches                                 :  
CALI               .inches                                 :  
DENS               .g/cm3                                  :  
DT                 .us/ft                                  :  
DTS                .us/ft                                  :  
GR                 .API                                    :  
NPHI               .v/v                                    :  
RS                 .ohm.m                                  :  
RT                 .ohm.m                                  :  
~Ascii
# ...
2836.8000  8.5000     8.6250     2.4520     72.4860    135.7430   9.7010     0.1680     1.9270     1.9440    
2836.9000  8.5000     8.6250     2.4580     72.5180    135.2620   10.0260    0.1680     1.9440     1.9930    
2837.0000  8.5000     8.6250     2.4650     72.4410    135.0260   10.6720    0.1670     1.9980     2.0990    
2837.1000  8.5000     8.6250     2.4730     72.3200    134.8830   10.8150    0.1670     2.0330     2.1810    
2837.2000  8.5000     8.6250     2.4810     72.1840    134.7610   10.5460    0.1660     2.0360     2.1760    
2837.3000  8.5000     8.6250     2.4870     72.0970    134.1300   10.1280    0.1620     2.0370     2.1930    
2837.4000  8.5000     8.6250     2.4910     72.0090    133.4010   10.0740    0.1570     2.0600     2.2470    
2837.5000  8.5000     8.6250     2.4930     71.7950    133.3200   11.1290    0.1540     2.0950     2.3080    
2837.6000  8.5000     8.6250     2.4920     71.5440    133.0160   10.1150    0.1530     2.1370     2.3910    
2837.7000  8.5000     8.6250     2.4920     71.2440    132.6840   10.3700    0.1530     2.1680     2.4300    
2837.8000  8.5000     8.6250     2.4930     70.7310    133.0610   10.9650    0.1550     2.1900     2.4640    
2837.9000  8.5000     8.6250     2.4940     70.4670    133.0550   11.6620    0.1580     2.1900     2.4640    
2838.0000  8.5000     8.6250     2.4930     70.3860    132.8400   12.1330    0.1600     2.1980     2.4530    
2838.1000  8.5000     8.6250     2.4920     70.4790    133.2880   12.2570    0.1610     2.2000     2.4550    
2838.2000  8.5000     8.6250     2.4900     70.6970    133.1730   12.1070    0.1620     2.2510     2.5220    
2838.3000  8.5000     8.6250     2.4890     71.0130    132.6100   13.8580    0.1640     2.2710     2.5290    
2838.4000  8.5000     8.6250     2.4900     71.1530    132.7080   13.6000    0.1660     2.2790     2.5490    
2838.5000  8.5000     8.6250     2.4920     71.3830    132.7500   12.8540    0.1660     2.2840     2.5600    
2838.6000  8.5000     8.6250     2.4960     71.7050    132.7370   13.4240    0.1640     2.2840     2.5600    
2838.7000  8.5000     8.6250     2.5000     71.8550    132.6930   13.7080    0.1600     2.3310     2.6300    
2838.8000  8.5000     8.6250     2.5030     71.9950    132.6550   13.4390    0.1570     2.3590     2.7290    
2838.9000  8.5000     8.6250     2.5070     72.1270    132.6260   13.1070    0.1550     2.3610     2.7610    
2839.0000  8.5000     8.6250     2.5110     71.9770    132.5980   12.8180    0.1540     2.3630     2.7620    
2839.1000  8.5000     8.6250     2.5130     71.7610    132.8950   13.2760    0.1540     2.3540     2.7660    
2839.2000  8.5000     8.6250     2.5150     71.4790    133.6710   13.3000    0.1520     2.3560     2.7720    
2839.3000  8.5000     8.6250     2.5150     71.3640    133.8250   14.0230    0.1480     2.3550     2.7810    
2839.4000  8.5000     8.6250     2.5150     71.3400    133.9820   14.3400    0.1440     2.3480     2.8270    
2839.5000  8.5000     8.6250     2.5170     71.4390    134.3000   13.9170    0.1430     2.3420     2.8050    
2839.6000  8.5000     8.6250     2.5200     71.3260    134.2940   13.4450    0.1440     2.3310     2.7970    
2839.7000  8.5000     8.6250     2.5230     71.1660    134.2700   13.4750    0.1480     2.2990     2.7610    
2839.8000  8.5000     8.6250     2.5230     70.9970    134.3540   14.3370    0.1520     2.2780     2.7330    
2839.9000  8.5000     8.6250     2.5200     70.9460    134.2620   14.4850    0.1560     2.2440     2.7260    
2840.0000  8.5000     8.6250     2.5130     70.9620    134.2120   12.7470    0.1600     2.2420     2.6930    
2840.1000  8.5000     8.6250     2.5050     71.0770    134.4190   13.4030    0.1650     2.2000     2.5730    
2840.2000  8.5000     8.6250     2.4950     71.2540    134.0010   12.8350    0.1680     2.1560     2.4640    
2840.3000  8.5000     8.6250     2.4840     71.4270    133.6290   12.4470    0.1710     2.0980     2.2930    
2840.4000  8.5000     8.6250     2.4740     71.4980    134.2730   11.3480    0.1750     2.0320     2.1630    
2840.5000  8.5000     8.6250     2.4680     71.7770    134.4480   11.3810    0.1780     2.0020     2.0760    
2840.6000  8.5000     8.6250     2.4660     72.1390    134.6250   11.2650    0.1820     1.9700     2.0360    
2840.7000  8.5000     8.6250     2.4680     72.4430    135.9120   12.5150    0.1940     1.9560     2.0020    
2840.8000  8.5000     8.6250     2.4700     72.8440    136.9970   12.4830    0.1870     1.9760     2.0570    
2840.9000  8.5000     8.6250     2.4700     73.3070    137.8800   12.9660    0.1890     1.9730     2.0870    
2841.0000  8.5000     8.6250     2.4700     73.8260    138.0780   13.6670    0.1900     1.9330     1.9640    
2841.1000  8.5000     8.6250     2.4690     74.3480    138.2670   13.0830    0.1880     1.8700     1.8110    
2841.2000  8.5000     8.6720     2.4680     74.8670    138.4160   13.7550    0.1890     1.8610     1.7680    
2841.3000  8.5000     8.6720     2.4680     75.3090    138.1240   14.5400    0.1900     1.8800     1.8550    
2841.4000  8.5000     8.6720     2.4660     75.7320    138.2760   13.9610    0.1940     1.8800     1.8550    
2841.5000  8.5000     8.6250     2.4650     76.1290    138.7800   13.7440    0.1920     1.9400     1.9700    
2841.6000  8.5000     8.6250     2.4640     76.0910    138.2130   13.1380    0.1880     1.8950     1.8650    
2841.7000  8.5000     8.6250     2.4640     75.8420    137.9790   12.0580    0.1840     1.8930     1.8470    
2841.8000  8.5000     8.6250     2.4650     75.3770    138.0820   12.3010    0.1810     1.9110     1.8760    
2841.9000  8.5000     8.6250     2.4670     75.1500    137.3360   13.0710    0.1780     1.9740     2.0180    
2842.0000  8.5000     8.6250     2.4690     74.8650    136.4920   12.0590    0.1760     2.0380     2.1240    
2842.1000  8.5000     8.6250     2.4720     74.4990    135.5580   11.9090    0.1740     2.0570     2.1720    
2842.2000  8.5000     8.6250     2.4770     74.4280    135.7110   11.3030    0.1710     2.0910     2.1810    
2842.3000  8.5000     8.6250     2.4820     74.3380    135.7970   12.1160    0.1680     2.1410     2.2770    
2842.4000  8.5000     8.6250     2.4880     74.1790    135.6470   12.1510    0.1650     2.1800     2.3770    
2842.5000  8.5000     8.6250     2.4950     74.2210    136.3400   12.6120    0.1620     2.2330     2.5220    
2842.6000  8.5000     8.6250     2.5020     74.1890    136.7810   14.2230    0.1590     2.3250     2.6420    
2842.7000  8.5000     8.6250     2.5100     73.9680    136.5320   14.5640    0.1560     2.3760     2.7430    
2842.8000  8.5000     8.6250     2.5190     73.8820    137.2630   15.2180    0.1530     2.4200     2.8900    
2842.9000  8.5000     8.6250     2.5260     73.8280    137.9860   16.8100    0.1510     2.4660     2.9320    
2843.0000  8.5000     8.6250     2.5310     73.7830    138.2180   17.3270    0.1500     2.5040     2.9900    
2843.1000  8.5000     8.6250     2.5340     73.7930    138.8130   17.2940    0.1490     2.5590     3.0590    
2843.2000  8.5000     8.6250     2.5360     73.7920    139.3120   16.7170    0.1470     2.6180     3.1390    
2843.3000  8.5000     8.6250     2.5380     73.7140    139.2300   15.6900    0.1460     2.6390     3.1780    
2843.4000  8.5000     8.6250     2.5380     73.6120    139.3030   15.2550    0.1450     2.6520     3.1770    
2843.5000  8.5000     8.6250     2.5380     73.5020    139.2740   14.4700    0.1440     2.6890     3.1980    
2843.6000  8.5000     8.6250     2.5370     73.3960    138.6350   14.2710    0.1430     2.6980     3.2070    
2843.7000  8.5000     8.6250     2.5350     73.2090    138.5580   14.8950    0.1410     2.7190     3.1780    
2843.8000  8.5000     8.6250     2.5360     73.0000    138.6650   15.4820    0.1400     2.7360     3.1540    
2843.9000  8.5000     8.6250     2.5400     72.8720    138.3670   14.3770    0.1400     2.7440     3.1200    
2844.0000  8.5000     8.6250     2.5440     72.7990    138.0270   13.6060    0.1420     2.7450     3.0910    
