~Version
 VERS              .         2.0                           : CWLS LOG ASCII STANDARD - VERSION 2.0
 WRAP              .         NO                            : ONE LINE PER DEPTH STEP
 DLM               .         SPACE                         : DELIMITING CHARACTER(SPACE TAB OR COMMA)
~Well Information
#_______________________________________________________________________________
#
#PARAMETER_NAME    .UNIT     VALUE                         : DESCRIPTION
#_______________________________________________________________________________
STRT               .m        2605.0000                     : First reference value
STOP               .m        3675.0000                     : Last reference value
STEP               .m        0.1000                        : Step increment
NULL               .         -9999                         : Missing value
COMP               .                                       : Company
WELL               .         Well-B                        : Well name
~Parameter Information Block
#_______________________________________________________________________________
#
#PARAMETER_NAME    .UNIT     VALUE                         : DESCRIPTION
#_______________________________________________________________________________
SET                .         Data_Output                   : 
TLFamily_BS        .         Bit Size                      : 
TLFamily_CALI      .         Caliper                       : 
TLFamily_DENS      .         Bulk Density                  : 
TLFamily_DT        .         Compressional Slowness        : 
TLFamily_DTS       .         Shear Slowness                : 
TLFamily_GR        .         Gamma Ray                     : 
TLFamily_MD        .         Measured Depth                : 
TLFamily_NPHI      .         Thermal Neutron Porosity      : 
TLFamily_RS        .         Resistivity - Phase Shift     : 
TLFamily_RT        .         Resistivity - True Formation  : 
~Curve Information
#_______________________________________________________________________________
#
#LOGNAME           .UNIT     LOG_ID                        : DESCRIPTION
#_______________________________________________________________________________
MD                 .m                                      :  
BS                 .inches                                 :  
CALI               .inches                                 :  
DENS               .g/cm3                                  :  
DT                 .us/ft                                  :  
DTS                .us/ft                                  :  
GR                 .API                                    :  
NPHI               .v/v                                    :  
RS                 .ohm.m                                  :  
RT                 .ohm.m                                  :  
~Ascii
# ...
2816.7000  8.5000     8.5781     2.5433     70.0783    129.5308   5.0462     0.1002     3.8589     4.2518    
2816.8000  8.5000     8.5781     2.5277     70.7163    130.4735   4.0664     0.1089     3.5320     3.7878    
2816.9000  8.5000     8.5781     2.5144     71.3541    131.4159   3.8302     0.1164     3.2060     3.3211    
2817.0000  8.5000     8.5781     2.5042     71.9151    132.2170   3.1692     0.1227     2.8794     2.8802    
2817.1000  8.5000     8.5781     2.4969     72.3533    132.7920   2.8047     0.1280     2.5894     2.5538    
2817.2000  8.5000     8.5782     2.4907     72.7913    133.3669   3.5217     0.1298     2.3789     2.3642    
2817.3000  8.5000     8.6250     2.4837     73.1691    133.9243   3.6023     0.1351     2.2162     2.2454    
2817.4000  8.5000     8.6250     2.4740     73.4283    134.4474   3.7804     0.1417     2.0690     2.1531    
2817.5000  8.5000     8.6250     2.4612     73.6873    134.9704   4.0684     0.1502     1.9248     2.0116    
2817.6000  8.5000     8.6250     2.4468     73.9011    135.4981   3.9107     0.1593     1.7861     1.8473    
2817.7000  8.5000     8.6250     2.4337     74.0037    136.0372   3.8685     0.1667     1.6739     1.6946    
2817.8000  8.5000     8.6250     2.4244     74.1062    136.5762   3.3948     0.1714     1.5747     1.5568    
2817.9000  8.5000     8.6251     2.4191     74.1716    137.0711   2.9836     0.1740     1.4522     1.4240    
2818.0000  8.5000     8.6483     2.4154     74.1299    137.3596   3.0421     0.1732     1.3577     1.3364    
2818.1000  8.5000     8.6250     2.4108     74.1123    137.4810   3.0789     0.1793     1.2878     1.2774    
2818.2000  8.5000     8.6251     2.4059     74.0947    137.6024   2.4040     0.1802     1.2199     1.2119    
2818.3000  8.5000     8.6719     2.4022     74.0771    137.7237   1.8898     0.1831     1.1532     1.1510    
2818.4000  8.5000     8.6719     2.4002     74.0536    137.8221   2.2638     0.1827     1.0925     1.1048    
2818.5000  8.5000     8.6718     2.4000     74.0245    137.8981   1.8601     0.1824     1.0404     1.0514    
2818.6000  8.5000     8.6250     2.4017     73.9954    137.9738   1.8998     0.1787     0.9940     1.0026    
2818.7000  8.5000     8.6250     2.4049     73.9383    137.9405   2.2232     0.1767     0.9668     0.9865    
2818.8000  8.5000     8.6250     2.4069     73.8602    137.8247   2.4350     0.1780     0.9535     0.9786    
2818.9000  8.5000     8.6250     2.4046     73.7821    137.7089   2.5943     0.1822     0.9449     0.9707    
2819.0000  8.5000     8.6250     2.3973     73.7041    137.5931   2.4239     0.1881     0.9328     0.9540    
2819.1000  8.5000     8.6250     2.3875     73.6261    137.4773   3.0577     0.1934     0.9165     0.9142    
2819.2000  8.5000     8.6250     2.3781     73.5480    137.3616   3.9762     0.1968     0.8946     0.8613    
2819.3000  8.5000     8.6250     2.3715     73.4600    137.2196   4.1038     0.1990     0.8767     0.8202    
2819.4000  8.5000     8.6250     2.3690     73.3675    137.0664   3.4821     0.2008     0.8705     0.8026    
2819.5000  8.5000     8.6250     2.3706     73.2748    136.9128   2.8294     0.2010     0.8738     0.8022    
2819.6000  8.5000     8.6250     2.3757     73.1173    136.5899   3.2086     0.1980     0.8835     0.8062    
2819.7000  8.5000     8.6250     2.3836     72.9390    136.2128   3.4230     0.1914     0.8970     0.8048    
2819.8000  8.5000     8.6250     2.3939     72.7606    135.8358   3.1541     0.1829     0.9188     0.8103    
2819.9000  8.5000     8.6250     2.4078     72.5823    135.4588   3.3982     0.1737     0.9554     0.8333    
2820.0000  8.5000     8.6250     2.4261     72.4039    135.0817   3.4807     0.1640     0.9998     0.8737    
2820.1000  8.5000     8.6250     2.4500     72.2256    134.7047   4.0216     0.1529     1.0533     0.9339    
2820.2000  8.5000     8.6249     2.4785     72.0426    134.3085   4.4641     0.1427     1.1361     1.0454    
2820.3000  8.5000     8.5781     2.5047     71.8590    133.9098   4.6076     0.1290     1.2531     1.2411    
2820.4000  8.5000     8.5781     2.5206     71.6746    133.5088   3.3099     0.1185     1.4185     1.5228    
2820.5000  8.5000     8.5781     2.5216     71.1508    132.1568   3.0820     0.1141     1.5954     1.8388    
2820.6000  8.5000     8.5782     2.5118     70.2222    129.7503   3.3318     0.1169     1.7465     2.0852    
2820.7000  8.5000     8.6250     2.4967     69.3399    127.2582   1.3878     0.1206     1.8386     2.2141    
2820.8000  8.5000     8.6250     2.4827     68.5362    124.6203   1.0416     0.1265     1.8962     2.2553    
2820.9000  8.5000     8.6250     2.4759     67.7675    121.9488   1.9740     0.1278     1.9552     2.2903    
2821.0000  8.5000     8.6250     2.4816     67.2355    119.0589   1.2951     0.1237     2.0024     2.3436    
2821.1000  8.5000     8.6250     2.4952     66.7037    116.1701   1.6607     0.1167     2.0450     2.3574    
2821.2000  8.5000     8.6250     2.5073     66.2768    114.1328   1.6952     0.1094     2.0935     2.3972    
2821.3000  8.5000     8.6250     2.5126     65.8644    112.2142   2.3762     0.1036     2.1454     2.4648    
2821.4000  8.5000     8.6249     2.5131     65.5915    111.4823   3.8348     0.1002     2.1843     2.5138    
2821.5000  8.5000     8.5781     2.5135     65.3980    111.4245   4.3967     0.1019     2.2149     2.5954    
2821.6000  8.5000     8.5781     2.5156     65.3740    112.1576   4.0987     0.1026     2.2627     2.7603    
2821.7000  8.5000     8.5781     2.5171     65.5675    113.9018   3.6473     0.1037     2.2924     2.8803    
2821.8000  8.5000     8.5781     2.5167     65.8754    115.6284   3.7914     0.1034     2.2652     2.8371    
2821.9000  8.5000     8.5781     2.5164     66.4854    117.1040   3.2674     0.1015     2.1872     2.6119    
2822.0000  8.5000     8.5781     2.5202     67.1381    118.5544   3.6724     0.1007     2.0994     2.3604    
2822.1000  8.5000     8.5781     2.5295     67.8484    120.1113   3.7132     0.1072     2.0464     2.2420    
2822.2000  8.5000     8.5781     2.5396     68.5708    121.6912   4.2557     0.1230     2.0176     2.2239    
2822.3000  8.5000     8.5781     2.5419     69.4143    123.7805   4.3253     0.1445     2.0145     2.3267    
2822.4000  8.5000     8.5781     2.5304     70.3245    126.1521   3.1996     0.1646     2.0115     2.4812    
2822.5000  8.5000     8.5782     2.5068     71.1280    128.5672   2.3881     0.1748     1.9642     2.4859    
2822.6000  8.5000     8.6250     2.4755     71.7961    131.0367   2.4228     0.1809     1.8146     2.1820    
2822.7000  8.5000     8.6250     2.4444     72.2960    133.1661   2.8667     0.1824     1.5595     1.6998    
2822.8000  8.5000     8.6250     2.4218     72.4255    134.5019   2.8081     0.1843     1.3518     1.3191    
2822.9000  8.5000     8.6250     2.4107     72.4062    135.4754   2.9959     0.1875     1.2423     1.1369    
2823.0000  8.5000     8.6250     2.4083     71.9844    135.3567   2.6010     0.1905     1.1696     1.0461    
2823.1000  8.5000     8.6250     2.4060     71.4248    134.8608   2.8681     0.1919     1.1164     1.0065    
2823.2000  8.5000     8.6250     2.3983     70.9405    134.0874   2.8231     0.1917     1.0716     0.9673    
2823.3000  8.5000     8.6250     2.3869     70.4971    133.1642   3.0760     0.1899     1.0345     0.9162    
2823.4000  8.5000     8.6250     2.3768     70.1626    132.5060   3.3163     0.1855     0.9909     0.8666    
2823.5000  8.5000     8.6250     2.3725     69.9866    132.2340   3.1864     0.1775     0.9381     0.8095    
2823.6000  8.5000     8.6249     2.3766     69.8679    131.9379   3.7307     0.1675     0.8988     0.7668    
2823.7000  8.5000     8.6017     2.3879     69.9022    131.5777   4.1073     0.1612     0.8839     0.7565    
2823.8000  8.5000     8.6249     2.4046     69.9559    131.2729   4.6506     0.1520     0.8851     0.7648    
2823.9000  8.5000     8.5782     2.4212     70.0053    131.2560   3.7467     0.1524     0.9031     0.7966    
