~Version
 VERS              .         2.0                           : CWLS LOG ASCII STANDARD - VERSION 2.0
 WRAP              .         NO                            : ONE LINE PER DEPTH STEP
 DLM               .         SPACE                         : DELIMITING CHARACTER(SPACE TAB OR COMMA)
~Well Information
#_______________________________________________________________________________
#
#PARAMETER_NAME    .UNIT     VALUE                         : DESCRIPTION
#_______________________________________________________________________________
STRT               .m        2574.0000                     : First reference value
STOP               .m        4550.0000                     : Last reference value
STEP               .m        0.1000                        : Step increment
NULL               .         -9999                         : Missing value
COMP               .                                       : Company
WELL               .         Well-D                        : Well name
~Parameter Information Block
#_______________________________________________________________________________
#
#PARAMETER_NAME    .UNIT     VALUE                         : DESCRIPTION
#_______________________________________________________________________________
SET                .         Data_Output                   : 
TLFamily_BS        .         Bit Size                      : 
TLFamily_CALI      .         Caliper                       : 
TLFamily_DENS      .         Bulk Density                  : 
TLFamily_DT        .         Compressional Slowness        : 
TLFamily_DTS       .         Shear Slowness                : 
TLFamily_GR        .         Gamma Ray                     : 
TLFamily_MD        .         Measured Depth                : 
TLFamily_NPHI      .         Thermal Neutron Porosity      : 
TLFamily_RS        .         Resistivity - Phase Shift     : 
TLFamily_RT        .         Resistivity - True Formation  : 
~Curve Information
#_______________________________________________________________________________
#
#LOGNAME           .UNIT     LOG_ID                        : DESCRIPTION
#_______________________________________________________________________________
MD                 .m                                      :  
BS                 .inches                                 :  
CALI               .inches                                 :  
DENS               .g/cm3                                  :  
DT                 .us/ft                                  :  
DTS                .us/ft                                  :  
GR                 .API                                    :  
NPHI               .v/v                                    :  
RS                 .ohm.m                                  :  
RT                 .ohm.m                                  :  
~Ascii
# ...
4012.1000  8.5000     8.7030     2.6150     65.8190    114.3620   20.9460    0.0690     6.5080     7.2940    
4012.2000  8.5000     8.7030     2.6150     65.9780    114.3720   21.1940    0.0720     6.7100     7.5200    
4012.3000  8.5000     8.7030     2.6110     66.1700    113.4570   23.0950    0.0760     6.8160     7.6320    
4012.4000  8.5000     8.7030     2.6040     66.3580    112.4000   24.6090    0.0800     6.8780     7.7080    
4012.5000  8.5000     8.7030     2.5990     66.3840    113.7590   24.4700    0.0830     6.7790     7.3740    
4012.6000  8.5000     8.7030     2.5970     66.5380    115.3470   23.9350    0.0850     6.5880     6.8620    
4012.7000  8.5000     8.7030     2.5980     66.7770    117.0310   23.3400    0.0870     6.7140     6.8670    
4012.8000  8.5000     8.7030     2.5980     67.0120    118.0900   21.2040    0.0890     6.9490     7.3790    
4012.9000  8.5000     8.7030     2.5950     67.2380    118.7330   20.1600    0.0920     7.1440     7.6620    
4013.0000  8.5000     8.7030     2.5910     67.4530    119.0460   22.2620    0.0960     7.3690     8.1160    
4013.1000  8.5000     8.7030     2.5880     67.5860    119.4830   22.7880    0.1010     7.4610     8.2700    
4013.2000  8.5000     8.7500     2.5880     67.6080    120.0550   24.0080    0.1020     7.2310     7.4490    
4013.3000  8.5000     8.7270     2.5900     67.5210    120.7560   26.5140    0.1040     6.5620     6.4900    
4013.4000  8.5000     8.7030     2.5930     67.2650    120.3410   29.1510    0.1060     6.0330     5.3680    
4013.5000  8.5000     8.7030     2.5930     66.9220    119.2990   31.4370    0.1030     5.8750     5.0040    
4013.6000  8.5000     8.7030     2.5930     66.4790    117.5410   30.9980    0.0970     6.0860     5.3250    
4013.7000  8.5000     8.7030     2.5920     65.6320    115.0790   28.0980    0.0900     6.6110     6.2610    
4013.8000  8.5000     8.7030     2.5930     64.6870    112.4710   25.5420    0.0820     7.0210     6.9100    
4013.9000  8.5000     8.7030     2.5930     63.6400    109.7260   21.6100    0.0750     7.3530     7.6560    
4014.0000  8.5000     8.7030     2.5940     62.5640    108.1900   18.3200    0.0700     7.6860     8.2780    
4014.1000  8.5000     8.7030     2.5970     61.5640    106.7950   16.6830    0.0680     7.9430     9.0060    
4014.2000  8.5000     8.7030     2.6010     60.7040    105.3790   15.7230    0.0680     8.2150     9.5510    
4014.3000  8.5000     8.7030     2.6050     60.2050    105.1600   15.5140    0.0690     8.3350     10.0990   
4014.4000  8.5000     8.7030     2.6080     59.8380    105.4790   15.0370    0.0690     8.4380     10.2060   
4014.5000  8.5000     8.7030     2.6090     59.6120    106.4660   14.5950    0.0690     8.4930     10.5200   
4014.6000  8.5000     8.7030     2.6090     59.4760    108.1090   15.9930    0.0680     8.5980     10.9870   
4014.7000  8.5000     8.7030     2.6080     59.3590    109.7350   17.4720    0.0660     8.6660     11.5300   
4014.8000  8.5000     8.7030     2.6080     59.2230    110.8340   16.8570    0.0640     8.7630     12.2690   
4014.9000  8.5000     8.6880     2.6100     59.1580    109.7150   15.7670    0.0640     8.7810     12.4470   
4015.0000  8.5000     8.7030     2.6150     59.1450    108.0040   14.3510    0.0620     8.6710     12.3280   
4015.1000  8.5000     8.7030     2.6200     59.2260    106.9200   13.2210    0.0630     8.6090     12.0870   
4015.2000  8.5000     8.7030     2.6250     59.4320    106.1870   13.0950    0.0660     8.4380     11.4830   
4015.3000  8.5000     8.7030     2.6270     59.7380    105.8670   14.7130    0.0710     8.3300     11.3750   
4015.4000  8.5000     8.7030     2.6270     60.2640    106.8050   16.4400    0.0780     8.4000     11.8130   
4015.5000  8.5000     8.7030     2.6230     60.9220    108.7380   17.4950    0.0850     8.4270     12.2240   
4015.6000  8.5000     8.7270     2.6190     61.7230    111.4060   18.5990    0.0900     8.3570     12.6460   
4015.7000  8.5000     8.7270     2.6150     63.0200    115.4450   20.0150    0.1000     8.1790     12.6460   
4015.8000  8.5000     8.7500     2.6110     64.5760    119.5370   21.0760    0.1120     7.6510     11.6460   
4015.9000  8.5000     8.7500     2.6060     66.2780    123.5820   20.9110    0.1210     7.0530     10.5480   
4016.0000  8.5000     8.7500     2.6010     67.6240    126.6350   21.4490    0.1240     6.6000     9.5240    
4016.1000  8.5000     8.7500     2.5960     68.8670    129.6030   22.5300    0.1250     6.3890     8.9430    
4016.2000  8.5000     8.7500     2.5930     70.0120    132.5060   23.2060    0.1240     6.4830     9.7310    
4016.3000  8.5000     8.7810     2.5900     70.6790    135.5850   26.4680    0.1220     6.5060     9.9040    
4016.4000  8.5000     8.7270     2.5870     71.5650    138.4930   30.1150    0.1230     5.9970     8.8900    
4016.5000  8.5000     8.7030     2.5840     72.6680    141.2290   32.8790    0.1220     4.9860     6.1120    
4016.6000  8.5000     8.7030     2.5810     73.3840    141.9820   33.5370    0.1220     4.2360     4.6240    
4016.7000  8.5000     8.7030     2.5790     74.0430    142.2890   32.3080    0.1220     3.7020     3.5220    
4016.8000  8.5000     8.7030     2.5790     74.6410    142.1100   33.3290    0.1220     3.5820     3.4470    
4016.9000  8.5000     8.7030     2.5790     74.8720    140.2660   33.2550    0.1210     3.4780     3.4270    
4017.0000  8.5000     8.7030     2.5770     75.0060    138.7440   32.7400    0.1210     3.2970     3.1420    
4017.1000  8.5000     8.7030     2.5760     75.0370    137.8740   32.0650    0.1200     3.0820     2.9320    
4017.2000  8.5000     8.7030     2.5750     74.6680    136.5020   30.8930    0.1190     2.9460     2.8320    
4017.3000  8.5000     8.7030     2.5750     74.2110    134.9610   30.6640    0.1180     2.9000     2.8390    
4017.4000  8.5000     8.7030     2.5750     73.6910    133.2360   30.0970    0.1170     2.8970     2.9800    
4017.5000  8.5000     8.7030     2.5740     73.1620    132.2860   28.9750    0.1140     2.8860     3.0290    
4017.6000  8.5000     8.7030     2.5720     72.7390    131.7700   29.5010    0.1100     2.8870     3.0640    
4017.7000  8.5000     8.7030     2.5720     72.5540    131.8730   29.3910    0.1060     2.8830     3.0920    
4017.8000  8.5000     8.7030     2.5730     72.3320    131.9940   27.5400    0.1020     2.9060     3.1530    
4017.9000  8.5000     8.7030     2.5740     72.0790    132.0790   27.1030    0.0990     2.9180     3.2670    
4018.0000  8.5000     8.7030     2.5750     71.7690    132.0560   27.2640    0.0980     2.9190     3.3520    
4018.1000  8.5000     8.7030     2.5770     71.7660    131.9550   26.7190    0.0990     2.9210     3.4170    
4018.2000  8.5000     8.7030     2.5790     71.9210    132.1240   25.6440    0.1000     2.9210     3.4730    
4018.3000  8.5000     8.7030     2.5810     72.2590    133.3730   24.6470    0.1010     2.9250     3.5100    
4018.4000  8.5000     8.7030     2.5820     72.7170    133.5590   24.6110    0.1020     2.9280     3.5690    
4018.5000  8.5000     8.7030     2.5780     73.1920    133.4540   24.1050    0.1030     2.9290     3.6120    
4018.6000  8.5000     8.7030     2.5730     73.4860    134.2670   25.1940    0.1050     2.8740     3.5010    
4018.7000  8.5000     8.7030     2.5690     73.7580    134.5770   25.6700    0.1090     2.8270     3.4200    
4018.8000  8.5000     8.7030     2.5670     74.0170    134.7220   26.3500    0.1140     2.8240     3.4140    
4018.9000  8.5000     8.7030     2.5650     74.2750    135.7120   27.7610    0.1180     2.8060     3.3570    
4019.0000  8.5000     8.7030     2.5640     74.6080    136.6650   29.9820    0.1210     2.7930     3.3210    
4019.1000  8.5000     8.7030     2.5640     74.9770    137.5830   30.4050    0.1240     2.7650     3.2500    
4019.2000  8.5000     8.7030     2.5650     75.1310    138.3550   29.9570    0.1250     2.7120     3.1010    
4019.3000  8.5000     8.7030     2.5660     75.2130    138.7160   31.1160    0.1230     2.6960     3.0260    
