~Version
 VERS              .         2.0                           : CWLS LOG ASCII STANDARD - VERSION 2.0
 WRAP              .         NO                            : ONE LINE PER DEPTH STEP
 DLM               .         SPACE                         : DELIMITING CHARACTER(SPACE TAB OR COMMA)
~Well Information
#_______________________________________________________________________________
#
#PARAMETER_NAME    .UNIT     VALUE                         : DESCRIPTION
#_______________________________________________________________________________
STRT               .m        2605.0000                     : First reference value
STOP               .m        3625.0000                     : Last reference value
STEP               .m        0.1000                        : Step increment
NULL               .         -9999                         : Missing value
COMP               .                                       : Company
WELL               .         Well-A                        : Well name
~Parameter Information Block
#_______________________________________________________________________________
#
#PARAMETER_NAME    .UNIT     VALUE                         : DESCRIPTION
#_______________________________________________________________________________
SET                .         Data_Output                   : 
TLFamily_BS        .         Bit Size                      : 
TLFamily_CALI      .         Caliper                       : 
TLFamily_DENS      .         Bulk Density                  : 
TLFamily_DT        .         Compressional Slowness        : 
TLFamily_GR        .         Gamma Ray                     : 
TLFamily_MD        .         Measured Depth                : 
TLFamily_NPHI      .         Thermal Neutron Porosity      : 
TLFamily_RS        .         Resistivity - Phase Shift     : 
TLFamily_RT        .         Resistivity - True Formation  : 
~Curve Information
#_______________________________________________________________________________
#
#LOGNAME           .UNIT     LOG_ID                        : DESCRIPTION
#_______________________________________________________________________________
MD                 .m                                      :  
BS                 .inches                                 :  
CALI               .inches                                 :  
DENS               .g/cm3                                  :  
DT                 .us/ft                                  :  
GR                 .API                                    :  
NPHI               .v/v                                    :  
RS                 .ohm.m                                  :  
RT                 .ohm.m                                  :  
~Ascii
# ...
3204.4000  8.5000     8.5781     2.5551     78.8913    41.5135    0.1489     2.5666     2.8227    
3204.5000  8.5000     8.5781     2.5553     79.1441    42.2809    0.1465     2.5901     2.8473    
3204.6000  8.5000     8.5469     2.5546     79.3160    43.0211    0.1447     2.5868     2.8020    
3204.7000  8.5000     8.5781     2.5533     79.4275    41.5365    0.1435     2.5511     2.7123    
3204.8000  8.5000     8.5781     2.5528     79.4434    41.4829    0.1426     2.5480     2.7134    
3204.9000  8.5000     8.5781     2.5534     79.3584    41.2955    0.1421     2.5744     2.7603    
3205.0000  8.5000     8.5781     2.5539     79.2018    43.4816    0.1424     2.6027     2.8045    
3205.1000  8.5000     8.5781     2.5534     78.9245    44.0694    0.1439     2.6075     2.8211    
3205.2000  8.5000     8.5781     2.5527     78.8105    44.1645    0.1435     2.5831     2.7485    
3205.3000  8.5000     8.6250     2.5522     78.7443    43.0541    0.1462     2.5603     2.6725    
3205.4000  8.5000     8.5781     2.5519     78.6595    43.7883    0.1509     2.5759     2.6989    
3205.5000  8.5000     8.5781     2.5515     78.6490    43.8939    0.1509     2.5806     2.7249    
3205.6000  8.5000     8.5875     2.5516     78.5562    43.8160    0.1492     2.5901     2.7197    
3205.7000  8.5000     8.5781     2.5528     77.9572    41.5966    0.1464     2.5705     2.6493    
3205.8000  8.5000     8.5938     2.5554     77.5352    40.8893    0.1432     2.5512     2.6458    
3205.9000  8.5000     8.5781     2.5587     77.2325    39.7161    0.1404     2.5885     2.6983    
3206.0000  8.5000     8.5781     2.5604     77.1057    39.3121    0.1389     2.6156     2.7493    
3206.1000  8.5000     8.5781     2.5595     77.1190    37.0058    0.1388     2.6576     2.8614    
3206.2000  8.5000     8.5781     2.5575     77.2156    36.1636    0.1402     2.6542     2.8777    
3206.3000  8.5000     8.5781     2.5554     77.2468    37.2297    0.1422     2.6268     2.8117    
3206.4000  8.5000     8.5781     2.5530     77.2084    37.1630    0.1440     2.6059     2.7551    
3206.5000  8.5000     8.5781     2.5502     77.1208    37.5036    0.1454     2.6139     2.8014    
3206.6000  8.5000     8.5781     2.5478     77.1539    38.4899    0.1460     2.6299     2.7954    
3206.7000  8.5000     8.5781     2.5473     77.2323    39.1556    0.1464     2.6154     2.7743    
3206.8000  8.5000     8.5781     2.5491     77.3546    38.0526    0.1463     2.5877     2.7198    
3206.9000  8.5000     8.5781     2.5510     77.5986    38.7359    0.1456     2.5838     2.7322    
3207.0000  8.5000     8.5781     2.5516     77.8558    40.0005    0.1448     2.5869     2.7453    
3207.1000  8.5000     8.5781     2.5509     78.1250    37.9732    0.1447     2.5650     2.7163    
3207.2000  8.5000     8.5781     2.5500     78.1285    37.4499    0.1457     2.5806     2.7526    
3207.3000  8.5000     8.5781     2.5509     77.8937    40.6283    0.1476     2.5853     2.8083    
3207.4000  8.5000     8.5781     2.5535     77.3510    39.4418    0.1500     2.5775     2.8044    
3207.5000  8.5000     8.5781     2.5568     77.0252    38.8639    0.1528     2.5666     2.7706    
3207.6000  8.5000     8.5781     2.5593     76.7807    41.8784    0.1552     2.5588     2.7735    
3207.7000  8.5000     8.5781     2.5596     76.6307    44.7246    0.1561     2.5448     2.7445    
3207.8000  8.5000     8.5781     2.5579     76.5991    45.6108    0.1558     2.4825     2.6118    
3207.9000  8.5000     8.5781     2.5555     76.6294    45.9458    0.1555     2.4468     2.5809    
3208.0000  8.5000     8.5781     2.5536     76.7442    45.7078    0.1562     2.4325     2.5621    
3208.1000  8.5000     8.5781     2.5522     76.7974    44.8964    0.1585     2.4084     2.5362    
3208.2000  8.5000     8.5781     2.5503     76.8354    45.1061    0.1620     2.3902     2.5257    
3208.3000  8.5000     8.5781     2.5469     76.8740    45.2680    0.1664     2.4084     2.5788    
3208.4000  8.5000     8.5781     2.5417     76.8106    43.2504    0.1706     2.4140     2.6331    
3208.5000  8.5000     8.5781     2.5361     76.7236    43.0476    0.1734     2.3902     2.5909    
3208.6000  8.5000     8.5781     2.5322     76.6727    43.9848    0.1745     2.3653     2.5183    
3208.7000  8.5000     8.5781     2.5309     76.7111    46.7513    0.1740     2.3223     2.4205    
3208.8000  8.5000     8.5781     2.5314     76.8338    50.3106    0.1723     2.2590     2.3017    
3208.9000  8.5000     8.5781     2.5325     77.1707    50.7279    0.1699     2.2437     2.3091    
3209.0000  8.5000     8.5781     2.5336     77.6960    51.6758    0.1679     2.2287     2.2867    
3209.1000  8.5000     8.5781     2.5356     78.3076    51.4794    0.1668     2.1944     2.2397    
3209.2000  8.5000     8.5781     2.5386     78.8300    53.3044    0.1671     2.1921     2.2410    
3209.3000  8.5000     8.5781     2.5410     79.1101    50.3560    0.1679     2.2363     2.3592    
3209.4000  8.5000     8.5781     2.5411     79.2398    47.7286    0.1688     2.2275     2.4170    
3209.5000  8.5000     8.5781     2.5389     79.4480    47.5378    0.1699     2.2091     2.3902    
3209.6000  8.5000     8.5781     2.5360     79.6378    46.6119    0.1721     2.1981     2.3764    
3209.7000  8.5000     8.5781     2.5327     79.8199    47.3536    0.1754     2.1993     2.4102    
3209.8000  8.5000     8.5781     2.5282     80.1864    48.2028    0.1792     2.1734     2.3587    
3209.9000  8.5000     8.5781     2.5221     80.5876    47.0874    0.1823     2.1225     2.2748    
3210.0000  8.5000     8.5781     2.5165     81.0221    50.4657    0.1840     2.0964     2.2264    
3210.1000  8.5000     8.6250     2.5144     81.5721    50.6542    0.1818     2.0696     2.1875    
3210.2000  8.5000     8.5781     2.5161     81.9967    53.0991    0.1845     2.0294     2.1354    
3210.3000  8.5000     8.5781     2.5189     82.2733    55.2095    0.1831     1.9665     2.0071    
3210.4000  8.5000     8.5781     2.5202     82.4237    54.8116    0.1808     1.9488     1.9820    
3210.5000  8.5000     8.5781     2.5207     82.5066    54.2669    0.1791     1.9368     1.9778    
3210.6000  8.5000     8.5781     2.5218     82.5057    56.0950    0.1808     1.9388     1.9979    
3210.7000  8.5000     8.5781     2.5233     82.4783    57.9882    0.1865     1.9499     2.0625    
3210.8000  8.5000     8.5781     2.5231     82.4809    55.2374    0.1947     2.0182     2.2867    
3210.9000  8.5000     8.6250     2.5199     82.5410    54.1216    0.2014     2.0930     2.4904    
3211.0000  8.5000     8.5781     2.5145     82.7534    55.2017    0.2046     2.0739     2.3765    
3211.1000  8.5000     8.5781     2.5091     83.0516    57.5036    0.2062     1.9668     2.1476    
3211.2000  8.5000     8.6250     2.5054     83.4723    58.1326    0.2048     1.8691     1.9219    
3211.3000  8.5000     8.6250     2.5042     83.7510    59.8408    0.2058     1.8295     1.8296    
3211.4000  8.5000     8.5781     2.5045     83.9625    61.8912    0.2076     1.8010     1.7856    
3211.5000  8.5000     8.6250     2.5048     84.0921    64.7961    0.2003     1.7921     1.7490    
3211.6000  8.5000     8.5781     2.5047     84.2001    68.8329    0.1949     1.7960     1.7674    
3211.7000  8.5000     8.5781     2.5059     84.2934    68.4771    0.1920     1.7998     1.7859    
3211.8000  8.5000     8.6250     2.5071     84.3613    68.1170    0.1891     1.8036     1.8045    
3211.9000  8.5000     8.5781     2.5103     84.5720    65.2590    0.1924     1.8200     1.8944    
3212.0000  8.5000     8.5781     2.5141     84.8593    64.0788    0.1933     1.9095     2.1461    
3212.1000  8.5000     8.6016     2.5172     85.2174    64.0018    0.1901     1.9721     2.2463    
3212.2000  8.5000     8.6250     2.5182     85.6721    63.7191    0.1893     1.9627     2.2505    
3212.3000  8.5000     8.5781     2.5161     86.1776    62.3769    0.1925     1.8704     2.0672    
3212.4000  8.5000     8.5781     2.5117     86.6752    62.9167    0.1952     1.8153     1.9007    
