~Version
 VERS              .         2.0                           : CWLS LOG ASCII STANDARD - VERSION 2.0
 WRAP              .         NO                            : ONE LINE PER DEPTH STEP
 DLM               .         SPACE                         : DELIMITING CHARACTER(SPACE TAB OR COMMA)
~Well Information
#_______________________________________________________________________________
#
#PARAMETER_NAME    .UNIT     VALUE                         : DESCRIPTION
#_______________________________________________________________________________
STRT               .m        2605.0000                     : First reference value
STOP               .m        3675.0000                     : Last reference value
STEP               .m        0.1000                        : Step increment
NULL               .         -9999                         : Missing value
COMP               .                                       : Company
WELL               .         Well-B                        : Well name
~Parameter Information Block
#_______________________________________________________________________________
#
#PARAMETER_NAME    .UNIT     VALUE                         : DESCRIPTION
#_______________________________________________________________________________
SET                .         Data_Output                   : 
TLFamily_BS        .         Bit Size                      : 
TLFamily_CALI      .         Caliper                       : 
TLFamily_DENS      .         Bulk Density                  : 
TLFamily_DT        .         Compressional Slowness        : 
TLFamily_DTS       .         Shear Slowness                : 
TLFamily_GR        .         Gamma Ray                     : 
TLFamily_MD        .         Measured Depth                : 
TLFamily_NPHI      .         Thermal Neutron Porosity      : 
TLFamily_RS        .         Resistivity - Phase Shift     : 
TLFamily_RT        .         Resistivity - True Formation  : 
~Curve Information
#_______________________________________________________________________________
#
#LOGNAME           .UNIT     LOG_ID                        : DESCRIPTION
#_______________________________________________________________________________
MD                 .m                                      :  
BS                 .inches                                 :  
CALI               .inches                                 :  
DENS               .g/cm3                                  :  
DT                 .us/ft                                  :  
DTS                .us/ft                                  :  
GR                 .API                                    :  
NPHI               .v/v                                    :  
RS                 .ohm.m                                  :  
RT                 .ohm.m                                  :  
~Ascii
# ...
3094.1000  8.5000     8.5781     2.5967     60.3114    105.4582   11.1636    0.0578     10.4133    9.8538    
3094.2000  8.5000     8.5781     2.5964     60.2979    105.2342   11.5653    0.0564     10.6470    10.2134   
3094.3000  8.5000     8.5781     2.5972     60.2844    105.0102   10.6935    0.0551     10.8326    10.4725   
3094.4000  8.5000     8.5781     2.5981     60.2692    104.7658   10.5864    0.0543     11.2876    11.1470   
3094.5000  8.5000     8.5781     2.5982     60.2533    104.5129   9.6177     0.0540     11.5497    11.5347   
3094.6000  8.5000     8.5781     2.5972     60.2373    104.2601   9.1526     0.0541     11.6024    11.5888   
3094.7000  8.5000     8.5781     2.5957     60.2230    104.0709   8.6862     0.0544     11.5781    11.5559   
3094.8000  8.5000     8.5781     2.5939     60.2097    103.9150   7.7726     0.0547     11.5589    11.5032   
3094.9000  8.5000     8.5781     2.5916     60.1963    103.7595   7.2318     0.0550     11.5807    11.5021   
3095.0000  8.5000     8.5781     2.5883     60.1761    103.7243   7.2083     0.0551     11.6282    11.5518   
3095.1000  8.5000     8.5781     2.5849     60.1518    103.7667   7.1328     0.0551     11.6652    11.5883   
3095.2000  8.5000     8.5781     2.5828     60.1274    103.8093   6.6780     0.0552     11.5991    11.4638   
3095.3000  8.5000     8.5781     2.5828     60.1054    103.9387   6.9829     0.0553     11.6267    11.5082   
3095.4000  8.5000     8.5782     2.5841     60.0850    104.1362   6.7601     0.0554     11.7741    11.6616   
3095.5000  8.5000     8.6250     2.5861     60.0647    104.3335   6.8102     0.0527     11.8251    11.7704   
3095.6000  8.5000     8.6250     2.5885     60.0522    104.5195   7.2613     0.0526     11.8570    11.7157   
3095.7000  8.5000     8.6133     2.5912     60.0470    104.6946   7.3452     0.0524     11.7145    11.4738   
3095.8000  8.5000     8.6250     2.5944     60.0419    104.8697   7.5902     0.0517     11.7080    11.4363   
3095.9000  8.5000     8.6249     2.5984     60.0482    105.0176   8.4214     0.0505     11.7224    11.4646   
3096.0000  8.5000     8.6015     2.6034     60.0678    105.1343   9.8154     0.0517     11.7284    11.4190   
3096.1000  8.5000     8.5781     2.6084     60.0874    105.2509   10.7002    0.0502     11.7302    11.4029   
3096.2000  8.5000     8.5781     2.6117     60.1029    105.3322   10.9494    0.0492     11.6885    11.3516   
3096.3000  8.5000     8.5781     2.6121     60.1128    105.3641   10.5449    0.0488     11.5665    11.1355   
3096.4000  8.5000     8.5781     2.6108     60.1226    105.3959   10.1500    0.0490     11.4683    10.9370   
3096.5000  8.5000     8.5781     2.6098     60.1192    105.4106   11.1675    0.0492     11.5178    10.9938   
3096.6000  8.5000     8.5781     2.6098     60.0930    105.3959   10.5619    0.0492     11.7257    11.2009   
3096.7000  8.5000     8.5938     2.6097     60.0668    105.3810   10.1454    0.0462     11.7685    11.3101   
3096.8000  8.5000     8.5781     2.6081     60.0353    105.3524   9.8369     0.0487     11.7350    11.2783   
3096.9000  8.5000     8.5781     2.6060     59.9925    105.2943   9.4831     0.0484     11.7113    11.1970   
3097.0000  8.5000     8.5938     2.6049     59.9496    105.2361   9.3153     0.0453     11.6852    11.1479   
3097.1000  8.5000     8.5898     2.6057     59.9106    105.1477   8.5535     0.0451     11.6847    11.1127   
3097.2000  8.5000     8.5781     2.6076     59.8818    104.9788   8.1309     0.0479     11.7187    11.1529   
3097.3000  8.5000     8.5781     2.6097     59.8532    104.8098   8.0933     0.0481     11.8343    11.2838   
3097.4000  8.5000     8.5781     2.6116     59.8335    104.6590   8.5919     0.0484     11.9181    11.3720   
3097.5000  8.5000     8.5781     2.6126     59.8452    104.5701   8.2576     0.0485     11.9879    11.4402   
3097.6000  8.5000     8.5781     2.6125     59.8569    104.4813   8.1657     0.0486     11.9285    11.4294   
3097.7000  8.5000     8.5781     2.6113     59.8725    104.4080   8.5083     0.0488     11.9485    11.4163   
3097.8000  8.5000     8.5782     2.6095     59.9063    104.4066   8.3888     0.0485     12.0454    11.5189   
3097.9000  8.5000     8.6017     2.6073     59.9401    104.4052   8.7915     0.0450     12.1507    11.6752   
3098.0000  8.5000     8.6250     2.6052     59.9742    104.4063   8.3959     0.0441     12.1781    11.7188   
3098.1000  8.5000     8.6249     2.6040     60.0110    104.4244   8.5747     0.0435     12.1332    11.6720   
3098.2000  8.5000     8.5898     2.6041     60.0478    104.4426   9.0854     0.0433     12.1533    11.6973   
3098.3000  8.5000     8.5782     2.6046     60.0847    104.4642   9.5731     0.0463     12.2836    11.8841   
3098.4000  8.5000     8.6250     2.6047     60.1232    104.5248   10.0123    0.0439     12.5281    12.1994   
3098.5000  8.5000     8.6132     2.6045     60.1618    104.5853   10.0876    0.0442     12.6465    12.4021   
3098.6000  8.5000     8.5781     2.6057     60.2005    104.6417   9.9950     0.0471     12.6623    12.4334   
3098.7000  8.5000     8.5781     2.6095     60.2452    104.5797   9.0771     0.0471     12.6305    12.3888   
3098.8000  8.5000     8.5899     2.6142     60.2900    104.5177   8.8881     0.0469     12.5673    12.3479   
3098.9000  8.5000     8.6249     2.6169     60.3347    104.4559   8.8581     0.0436     12.6211    12.3811   
3099.0000  8.5000     8.6016     2.6153     60.3762    104.5156   8.1068     0.0429     12.7330    12.4596   
3099.1000  8.5000     8.6094     2.6112     60.4176    104.5773   8.5363     0.0423     12.5820    12.3603   
3099.2000  8.5000     8.6093     2.6072     60.4591    104.6391   8.5138     0.0447     12.3035    12.0155   
3099.3000  8.5000     8.5782     2.6038     60.4913    104.7301   8.3628     0.0450     12.0081    11.5306   
3099.4000  8.5000     8.6094     2.6001     60.5230    104.8231   8.4246     0.0431     11.7370    11.1575   
3099.5000  8.5000     8.6250     2.5960     60.5545    104.9163   8.6918     0.0440     11.4763    10.9056   
3099.6000  8.5000     8.6250     2.5944     60.5703    105.0530   8.8759     0.0448     11.3142    10.7370   
3099.7000  8.5000     8.6249     2.5970     60.5841    105.1952   8.7548     0.0453     11.1782    10.5715   
3099.8000  8.5000     8.5781     2.6020     60.5980    105.3373   8.0177     0.0482     11.0630    10.4487   
3099.9000  8.5000     8.5781     2.6059     60.6212    105.4351   7.8635     0.0482     10.9399    10.3265   
3100.0000  8.5000     8.5781     2.6067     60.6463    105.5244   8.3222     0.0481     10.7642    10.1810   
3100.1000  8.5000     8.5781     2.6061     60.6713    105.6136   8.5168     0.0481     10.6273    10.0395   
3100.2000  8.5000     8.5781     2.6063     60.7070    105.7153   8.3134     0.0483     10.5432    9.9846    
3100.3000  8.5000     8.5781     2.6078     60.7455    105.8204   8.6389     0.0486     10.4359    9.9122    
3100.4000  8.5000     8.5781     2.6091     60.7840    105.9253   8.2602     0.0488     10.3483    9.8524    
3100.5000  8.5000     8.5781     2.6083     60.8489    105.9985   8.7009     0.0490     10.2560    9.8056    
3100.6000  8.5000     8.5781     2.6050     60.9230    106.0610   8.7252     0.0495     10.1817    9.7927    
3100.7000  8.5000     8.5781     2.6007     60.9969    106.1237   8.7694     0.0503     10.1892    9.8832    
3100.8000  8.5000     8.5781     2.5961     61.0543    106.3023   8.7219     0.0509     10.1217    9.8880    
3100.9000  8.5000     8.5781     2.5928     61.1045    106.5316   8.8655     0.0511     9.9183     9.7108    
3101.0000  8.5000     8.5781     2.5919     61.1547    106.7608   8.7423     0.0510     9.7579     9.6181    
3101.1000  8.5000     8.5781     2.5936     61.1826    106.9635   8.3343     0.0510     9.7616     9.7345    
3101.2000  8.5000     8.5781     2.5969     61.1986    107.1518   8.6925     0.0511     9.8357     9.9549    
3101.3000  8.5000     8.5781     2.5998     61.2145    107.3402   8.8395     0.0512     9.8360     10.0739   
