~Version
 VERS              .         2.0                           : CWLS LOG ASCII STANDARD - VERSION 2.0
 WRAP              .         NO                            : ONE LINE PER DEPTH STEP
 DLM               .         SPACE                         : DELIMITING CHARACTER(SPACE TAB OR COMMA)
~Well Information
#_______________________________________________________________________________
#
#PARAMETER_NAME    .UNIT     VALUE                         : DESCRIPTION
#_______________________________________________________________________________
STRT               .m        2605.0000                     : First reference value
STOP               .m        3675.0000                     : Last reference value
STEP               .m        0.1000                        : Step increment
NULL               .         -9999                         : Missing value
COMP               .                                       : Company
WELL               .         Well-B                        : Well name
~Parameter Information Block
#_______________________________________________________________________________
#
#PARAMETER_NAME    .UNIT     VALUE                         : DESCRIPTION
#_______________________________________________________________________________
SET                .         Data_Output                   : 
TLFamily_BS        .         Bit Size                      : 
TLFamily_CALI      .         Caliper                       : 
TLFamily_DENS      .         Bulk Density                  : 
TLFamily_DT        .         Compressional Slowness        : 
TLFamily_DTS       .         Shear Slowness                : 
TLFamily_GR        .         Gamma Ray                     : 
TLFamily_MD        .         Measured Depth                : 
TLFamily_NPHI      .         Thermal Neutron Porosity      : 
TLFamily_RS        .         Resistivity - Phase Shift     : 
TLFamily_RT        .         Resistivity - True Formation  : 
~Curve Information
#_______________________________________________________________________________
#
#LOGNAME           .UNIT     LOG_ID                        : DESCRIPTION
#_______________________________________________________________________________
MD                 .m                                      :  
BS                 .inches                                 :  
CALI               .inches                                 :  
DENS               .g/cm3                                  :  
DT                 .us/ft                                  :  
DTS                .us/ft                                  :  
GR                 .API                                    :  
NPHI               .v/v                                    :  
RS                 .ohm.m                                  :  
RT                 .ohm.m                                  :  
~Ascii
# ...
2678.0000  8.5000     8.5469     2.1325     94.0076    185.4941   45.2796    0.3591     0.3672     0.3601    
2678.1000  8.5000     8.5469     2.1452     93.1543    186.7795   44.1128    0.3450     0.3675     0.3693    
2678.2000  8.5000     8.5469     2.1612     92.3017    188.0648   44.4603    0.3264     0.3696     0.3781    
2678.3000  8.5000     8.5469     2.1754     91.7829    189.2725   44.7321    0.3105     0.3726     0.3783    
2678.4000  8.5000     8.5469     2.1851     92.4142    190.2133   47.3995    0.2992     0.3741     0.3669    
2678.5000  8.5000     8.5469     2.1890     93.0455    191.1538   48.4942    0.2893     0.3711     0.3492    
2678.6000  8.5000     8.5469     2.1870     93.7405    192.0025   51.8939    0.2802     0.3651     0.3440    
2678.7000  8.5000     8.5469     2.1805     94.7304    192.4245   51.1726    0.2749     0.3635     0.3495    
2678.8000  8.5000     8.5469     2.1731     95.7204    192.8465   51.0668    0.2765     0.3656     0.3525    
2678.9000  8.5000     8.5469     2.1675     96.6718    193.2388   49.8405    0.2821     0.3663     0.3588    
2679.0000  8.5000     8.5469     2.1636     97.3644    193.4312   47.0923    0.2885     0.3709     0.3757    
2679.1000  8.5000     8.5469     2.1602     98.0570    193.6235   44.7979    0.2943     0.3809     0.4009    
2679.2000  8.5000     8.5469     2.1564     98.7083    193.8037   44.1489    0.2970     0.3854     0.4090    
2679.3000  8.5000     8.5469     2.1539     98.8945    193.8470   45.2928    0.2931     0.3798     0.3938    
2679.4000  8.5000     8.5469     2.1545     99.0808    193.8902   43.9065    0.2849     0.3674     0.3711    
2679.5000  8.5000     8.5469     2.1575     99.2616    193.9261   41.9422    0.2793     0.3514     0.3488    
2679.6000  8.5000     8.5469     2.1610     99.2838    193.7520   40.1332    0.2784     0.3371     0.3307    
2679.7000  8.5000     8.5469     2.1630     99.3060    193.5779   37.4016    0.2810     0.3309     0.3266    
2679.8000  8.5000     8.5469     2.1631     99.3283    193.4028   37.4717    0.2856     0.3270     0.3251    
2679.9000  8.5000     8.5470     2.1627     99.4071    192.8185   35.5699    0.2880     0.3262     0.3276    
2680.0000  8.5000     8.5780     2.1627     99.4868    192.2272   34.3867    0.2896     0.3282     0.3330    
2680.1000  8.5000     8.5469     2.1634     99.5666    191.6356   33.4771    0.2837     0.3325     0.3384    
2680.2000  8.5000     8.5469     2.1652     99.6563    190.8685   33.5939    0.2774     0.3350     0.3396    
2680.3000  8.5000     8.5469     2.1682     99.7467    190.0892   32.6578    0.2736     0.3373     0.3401    
2680.4000  8.5000     8.5470     2.1715     99.8367    189.3103   33.4105    0.2692     0.3397     0.3416    
2680.5000  8.5000     8.5780     2.1739     99.7286    188.6416   34.0158    0.2682     0.3428     0.3446    
2680.6000  8.5000     8.5469     2.1755     99.5954    187.9868   35.4016    0.2648     0.3459     0.3490    
2680.7000  8.5000     8.5469     2.1773     99.4614    187.3326   34.6066    0.2613     0.3485     0.3530    
2680.8000  8.5000     8.5469     2.1803     99.0045    186.9895   36.5393    0.2576     0.3503     0.3552    
2680.9000  8.5000     8.5469     2.1830     98.4858    186.7058   36.5871    0.2525     0.3510     0.3552    
2681.0000  8.5000     8.5625     2.1830     97.9670    186.4226   34.4280    0.2546     0.3518     0.3534    
2681.1000  8.5000     8.5469     2.1810     97.4053    186.3092   33.5050    0.2585     0.3526     0.3523    
2681.2000  8.5000     8.5469     2.1803     96.8323    186.2407   32.3778    0.2634     0.3534     0.3529    
2681.3000  8.5000     8.5469     2.1831     96.2598    186.1728   33.7518    0.2648     0.3546     0.3539    
2681.4000  8.5000     8.5469     2.1880     95.9014    186.3773   34.7931    0.2636     0.3561     0.3572    
2681.5000  8.5000     8.5469     2.1919     95.6171    186.6757   35.1704    0.2622     0.3573     0.3591    
2681.6000  8.5000     8.5469     2.1935     95.3329    186.9737   36.6213    0.2615     0.3590     0.3605    
2681.7000  8.5000     8.5547     2.1942     95.1228    187.1152   34.8240    0.2606     0.3609     0.3621    
2681.8000  8.5000     8.5469     2.1948     94.9452    187.1882   33.9823    0.2570     0.3630     0.3639    
2681.9000  8.5000     8.5469     2.1952     94.7685    187.2608   33.8443    0.2520     0.3649     0.3654    
2682.0000  8.5000     8.5469     2.1946     94.9657    187.1640   33.7803    0.2498     0.3663     0.3670    
2682.1000  8.5000     8.5469     2.1941     95.3664    186.9750   32.9245    0.2523     0.3677     0.3692    
2682.2000  8.5000     8.5469     2.1953     95.7671    186.7856   32.2530    0.2581     0.3696     0.3717    
2682.3000  8.5000     8.5469     2.1977     96.1530    186.4530   32.5213    0.2632     0.3721     0.3742    
2682.4000  8.5000     8.5469     2.2000     96.5290    186.0247   33.0204    0.2645     0.3740     0.3772    
2682.5000  8.5000     8.5469     2.2010     96.9048    185.5966   33.6498    0.2630     0.3767     0.3796    
2682.6000  8.5000     8.5469     2.2009     97.1938    185.1961   33.4966    0.2598     0.3785     0.3823    
2682.7000  8.5000     8.5469     2.2007     97.4124    184.8181   33.2841    0.2567     0.3792     0.3834    
2682.8000  8.5000     8.5469     2.2014     97.6307    184.4405   32.2158    0.2548     0.3805     0.3835    
2682.9000  8.5000     8.5469     2.2018     97.7020    184.1685   31.8202    0.2531     0.3809     0.3835    
2683.0000  8.5000     8.5469     2.2016     97.6286    184.0005   31.0470    0.2513     0.3809     0.3822    
2683.1000  8.5000     8.5469     2.2014     97.5554    183.8328   32.2611    0.2504     0.3810     0.3810    
2683.2000  8.5000     8.5469     2.2019     97.5285    183.7527   33.1274    0.2511     0.3814     0.3812    
2683.3000  8.5000     8.5469     2.2040     97.5566    183.7769   32.5632    0.2535     0.3816     0.3821    
2683.4000  8.5000     8.5469     2.2077     97.5846    183.8009   29.8608    0.2551     0.3820     0.3830    
2683.5000  8.5000     8.5469     2.2116     97.6006    183.7130   29.9571    0.2531     0.3832     0.3838    
2683.6000  8.5000     8.5469     2.2141     97.5990    183.4633   30.9366    0.2482     0.3845     0.3854    
2683.7000  8.5000     8.5469     2.2141     97.5974    183.2133   31.4043    0.2432     0.3852     0.3873    
2683.8000  8.5000     8.5469     2.2114     97.6451    182.8910   31.4256    0.2406     0.3862     0.3872    
2683.9000  8.5000     8.5469     2.2079     97.7801    182.4402   31.3012    0.2407     0.3861     0.3870    
2684.0000  8.5000     8.5469     2.2054     97.9151    181.9894   29.9670    0.2424     0.3866     0.3870    
2684.1000  8.5000     8.5469     2.2046     98.0800    181.5324   28.9327    0.2451     0.3866     0.3872    
2684.2000  8.5000     8.5469     2.2053     98.3105    181.0619   29.3138    0.2480     0.3862     0.3872    
2684.3000  8.5000     8.5469     2.2063     98.5411    180.5916   29.5639    0.2505     0.3863     0.3868    
2684.4000  8.5000     8.5469     2.2072     98.8344    180.2724   29.6061    0.2520     0.3866     0.3867    
2684.5000  8.5000     8.5469     2.2074     99.3017    180.3724   29.3154    0.2525     0.3866     0.3877    
2684.6000  8.5000     8.5469     2.2066     99.7692    180.4727   29.6829    0.2529     0.3867     0.3887    
2684.7000  8.5000     8.5469     2.2052     100.3009   180.7053   30.8201    0.2533     0.3870     0.3881    
2684.8000  8.5000     8.5469     2.2044     101.0647   181.4155   30.2140    0.2535     0.3861     0.3878    
2684.9000  8.5000     8.5469     2.2060     101.8286   182.1258   30.2425    0.2530     0.3857     0.3879    
2685.0000  8.5000     8.5469     2.2101     102.6361   182.9038   29.9532    0.2511     0.3848     0.3871    
2685.1000  8.5000     8.5469     2.2142     103.6578   184.0141   28.7775    0.2475     0.3829     0.3849    
2685.2000  8.5000     8.5469     2.2164     104.6794   185.1242   30.0300    0.2421     0.3824     0.3831    
