~Version
 VERS              .         2.0                           : CWLS LOG ASCII STANDARD - VERSION 2.0
 WRAP              .         NO                            : ONE LINE PER DEPTH STEP
 DLM               .         SPACE                         : DELIMITING CHARACTER(SPACE TAB OR COMMA)
~Well Information
#_______________________________________________________________________________
#
#PARAMETER_NAME    .UNIT     VALUE                         : DESCRIPTION
#_______________________________________________________________________________
STRT               .m        2574.0000                     : First reference value
STOP               .m        4550.0000                     : Last reference value
STEP               .m        0.1000                        : Step increment
NULL               .         -9999                         : Missing value
COMP               .                                       : Company
WELL               .         Well-D                        : Well name
~Parameter Information Block
#_______________________________________________________________________________
#
#PARAMETER_NAME    .UNIT     VALUE                         : DESCRIPTION
#_______________________________________________________________________________
SET                .         Data_Output                   : 
TLFamily_BS        .         Bit Size                      : 
TLFamily_CALI      .         Caliper                       : 
TLFamily_DENS      .         Bulk Density                  : 
TLFamily_DT        .         Compressional Slowness        : 
TLFamily_DTS       .         Shear Slowness                : 
TLFamily_GR        .         Gamma Ray                     : 
TLFamily_MD        .         Measured Depth                : 
TLFamily_NPHI      .         Thermal Neutron Porosity      : 
TLFamily_RS        .         Resistivity - Phase Shift     : 
TLFamily_RT        .         Resistivity - True Formation  : 
~Curve Information
#_______________________________________________________________________________
#
#LOGNAME           .UNIT     LOG_ID                        : DESCRIPTION
#_______________________________________________________________________________
MD                 .m                                      :  
BS                 .inches                                 :  
CALI               .inches                                 :  
DENS               .g/cm3                                  :  
DT                 .us/ft                                  :  
DTS                .us/ft                                  :  
GR                 .API                                    :  
NPHI               .v/v                                    :  
RS                 .ohm.m                                  :  
RT                 .ohm.m                                  :  
~Ascii
# ...
2968.2000  8.5000     8.7030     2.5630     65.8900    118.3700   8.9370     0.0790     4.5570     4.9390    
2968.3000  8.5000     8.7270     2.5680     65.8150    118.4900   8.3050     0.0720     4.6360     5.1040    
2968.4000  8.5000     8.7030     2.5740     65.3360    118.4560   7.4630     0.0720     4.7170     5.2160    
2968.5000  8.5000     8.7030     2.5790     64.8330    118.3900   7.5220     0.0690     4.7640     5.3020    
2968.6000  8.5000     8.7030     2.5840     64.3090    118.2960   7.4890     0.0680     4.7910     5.3460    
2968.7000  8.5000     8.6820     2.5880     63.3880    117.7350   6.4640     0.0700     4.8010     5.3240    
2968.8000  8.5000     8.6880     2.5890     62.6510    117.1730   4.7330     0.0680     4.8040     5.2560    
2968.9000  8.5000     8.7030     2.5900     62.1130    116.6080   3.6720     0.0690     4.8030     5.2490    
2969.0000  8.5000     8.6870     2.5900     61.9190    115.8050   2.8090     0.0730     4.8130     5.2460    
2969.1000  8.5000     8.6820     2.5900     61.8130    115.1950   2.3830     0.0770     4.8310     5.2270    
2969.2000  8.5000     8.6820     2.5880     61.8020    114.8550   2.4480     0.0800     4.8360     5.1820    
2969.3000  8.5000     8.6880     2.5830     61.8890    114.2590   2.5210     0.0840     4.8230     5.1090    
2969.4000  8.5000     8.6870     2.5740     62.0150    114.0860   2.2210     0.0850     4.8030     5.0230    
2969.5000  8.5000     8.6820     2.5630     62.1880    114.6330   2.5680     0.0880     4.7980     4.9680    
2969.6000  8.5000     8.6720     2.5530     62.5360    114.8280   2.7280     0.0900     4.7640     4.8770    
2969.7000  8.5000     8.6820     2.5460     62.8010    115.0460   2.2030     0.0900     4.7430     4.8530    
2969.8000  8.5000     8.6880     2.5430     62.8430    115.4250   2.2220     0.0880     4.7220     4.8180    
2969.9000  8.5000     8.6950     2.5430     62.6320    115.2760   1.7660     0.0890     4.7710     4.8620    
2970.0000  8.5000     8.6820     2.5440     62.2400    114.7940   2.0360     0.0880     4.8130     4.9290    
2970.1000  8.5000     8.6950     2.5460     61.5420    113.7970   2.2600     0.0850     4.8390     4.9810    
2970.2000  8.5000     8.7030     2.5500     60.8860    112.7330   1.8440     0.0820     4.8790     5.0410    
2970.3000  8.5000     8.7030     2.5550     60.3040    111.5980   1.7690     0.0790     4.9370     5.1340    
2970.4000  8.5000     8.6950     2.5600     59.9180    110.3050   2.2190     0.0760     4.9880     5.2340    
2970.5000  8.5000     8.7030     2.5630     59.8080    110.1790   2.0610     0.0730     5.0400     5.3250    
2970.6000  8.5000     8.6950     2.5650     59.8630    110.5400   2.3050     0.0730     5.0780     5.4100    
2970.7000  8.5000     8.6820     2.5660     60.1480    110.9940   2.4450     0.0690     5.1140     5.5020    
2970.8000  8.5000     8.6800     2.5710     60.3180    112.0660   2.4150     0.0700     5.1710     5.5900    
2970.9000  8.5000     8.6720     2.5770     60.4650    113.4120   3.0510     0.0710     5.1970     5.6080    
2971.0000  8.5000     8.6720     2.5850     60.8100    114.5540   3.6310     0.0730     5.1960     5.5770    
2971.1000  8.5000     8.6800     2.5900     61.3030    115.8650   5.1820     0.0760     5.2130     5.5570    
2971.2000  8.5000     8.7030     2.5910     61.9010    117.2250   7.5880     0.0750     5.2090     5.5440    
2971.3000  8.5000     8.6600     2.5910     62.6230    118.0690   9.9790     0.0760     5.2020     5.5490    
2971.4000  8.5000     8.6250     2.5920     63.1850    118.8620   11.6440    0.0770     5.2050     5.5960    
2971.5000  8.5000     8.6250     2.5950     63.6140    119.5740   11.4340    0.0760     5.2420     5.6830    
2971.6000  8.5000     8.6250     2.5990     63.8390    119.4450   11.1160    0.0750     5.2750     5.7660    
2971.7000  8.5000     8.6250     2.6010     64.0490    119.1550   10.3810    0.0740     5.2980     5.8110    
2971.8000  8.5000     8.6250     2.6010     64.2460    118.7180   9.0220     0.0740     5.3180     5.8190    
2971.9000  8.5000     8.6250     2.5980     64.6830    118.7590   8.3940     0.0730     5.3320     5.8560    
2972.0000  8.5000     8.6250     2.5960     64.8170    118.5830   8.1060     0.0720     5.3260     5.8510    
2972.1000  8.5000     8.6720     2.5940     64.6150    118.1700   7.0660     0.0680     5.3410     5.8920    
2972.2000  8.5000     8.6480     2.5960     64.5520    118.2810   6.3430     0.0690     5.3900     6.0250    
2972.3000  8.5000     8.6480     2.5990     64.4670    118.3300   6.6010     0.0670     5.4450     6.1820    
2972.4000  8.5000     8.6250     2.6040     64.3440    118.2620   5.7850     0.0660     5.4770     6.2820    
2972.5000  8.5000     8.6250     2.6090     64.7960    119.2010   5.3690     0.0670     5.5200     6.4190    
2972.6000  8.5000     8.6250     2.6090     65.2180    120.0850   5.4520     0.0700     5.5510     6.5040    
2972.7000  8.5000     8.6720     2.6050     65.4880    120.7050   7.3530     0.0720     5.4750     6.3200    
2972.8000  8.5000     8.6720     2.5960     66.0350    121.0690   8.1630     0.0760     5.2990     5.9510    
2972.9000  8.5000     8.6720     2.5870     66.5140    121.2630   8.4450     0.0800     5.1520     5.7070    
2973.0000  8.5000     8.6720     2.5800     66.7590    121.2050   8.0690     0.0820     5.0620     5.5340    
2973.1000  8.5000     8.6720     2.5780     66.9140    120.9580   7.9420     0.0840     4.9490     5.3100    
2973.2000  8.5000     8.6720     2.5780     66.9840    120.7900   8.2720     0.0860     4.8390     5.1380    
2973.3000  8.5000     8.6720     2.5780     66.8950    120.9340   8.4260     0.0890     4.7300     4.9830    
2973.4000  8.5000     8.6720     2.5750     66.7690    120.7750   8.7740     0.0910     4.6100     4.7990    
2973.5000  8.5000     8.6720     2.5700     66.7080    120.5700   9.4240     0.0920     4.5160     4.6360    
2973.6000  8.5000     8.6720     2.5640     66.8950    120.5270   9.0120     0.0910     4.4710     4.5820    
2973.7000  8.5000     8.6720     2.5610     67.1460    120.4010   8.5290     0.0890     4.4300     4.5640    
2973.8000  8.5000     8.6720     2.5620     67.3910    120.4370   7.8010     0.0880     4.4220     4.5820    
2973.9000  8.5000     8.6720     2.5650     67.4890    121.3280   7.5130     0.0870     4.4140     4.6060    
2974.0000  8.5000     8.6720     2.5690     67.4430    121.8710   7.2750     0.0870     4.4140     4.6330    
2974.1000  8.5000     8.6720     2.5710     67.3330    122.1890   7.7450     0.0880     4.4110     4.6830    
2974.2000  8.5000     8.6720     2.5720     67.2770    122.2150   8.2220     0.0880     4.4060     4.6980    
2974.3000  8.5000     8.6720     2.5720     67.2540    122.5010   8.5310     0.0880     4.3770     4.6850    
2974.4000  8.5000     8.6720     2.5720     67.2380    122.9150   8.0290     0.0870     4.3710     4.7120    
2974.5000  8.5000     8.6720     2.5720     67.0980    122.9810   7.3290     0.0870     4.3450     4.7200    
2974.6000  8.5000     8.6720     2.5740     67.0310    123.8320   7.0520     0.0860     4.3100     4.6660    
2974.7000  8.5000     8.6720     2.5760     67.0260    125.1650   6.9440     0.0860     4.2960     4.6380    
2974.8000  8.5000     8.6720     2.5770     67.1580    123.9910   7.6150     0.0850     4.2760     4.6320    
2974.9000  8.5000     8.6720     2.5780     67.3390    122.6530   8.2090     0.0840     4.2390     4.5970    
2975.0000  8.5000     8.6720     2.5790     67.5670    121.1550   8.7310     0.0830     4.2350     4.5820    
2975.1000  8.5000     8.6720     2.5800     67.8630    120.1030   7.6350     0.0800     4.2340     4.5780    
2975.2000  8.5000     8.6720     2.5820     68.0210    119.3160   6.3500     0.0780     4.2240     4.5660    
2975.3000  8.5000     8.6720     2.5850     68.0230    118.8340   6.3930     0.0770     4.2080     4.5430    
2975.4000  8.5000     8.6720     2.5890     68.0520    118.9620   6.5800     0.0760     4.1960     4.5060    
