~Version
 VERS              .         2.0                           : CWLS LOG ASCII STANDARD - VERSION 2.0
 WRAP              .         NO                            : ONE LINE PER DEPTH STEP
 DLM               .         SPACE                         : DELIMITING CHARACTER(SPACE TAB OR COMMA)
~Well Information
#_______________________________________________________________________________
#
#PARAMETER_NAME    .UNIT     VALUE                         : DESCRIPTION
#_______________________________________________________________________________
STRT               .m        2574.0000                     : First reference value
STOP               .m        4550.0000                     : Last reference value
STEP               .m        0.1000                        : Step increment
NULL               .         -9999                         : Missing value
COMP               .                                       : Company
WELL               .         Well-D                        : Well name
~Parameter Information Block
#_______________________________________________________________________________
#
#PARAMETER_NAME    .UNIT     VALUE                         : DESCRIPTION
#_______________________________________________________________________________
SET                .         Data_Output                   : 
TLFamily_BS        .         Bit Size                      : 
TLFamily_CALI      .         Caliper                       : 
TLFamily_DENS      .         Bulk Density                  : 
TLFamily_DT        .         Compressional Slowness        : 
TLFamily_DTS       .         Shear Slowness                : 
TLFamily_GR        .         Gamma Ray                     : 
TLFamily_MD        .         Measured Depth                : 
TLFamily_NPHI      .         Thermal Neutron Porosity      : 
TLFamily_RS        .         Resistivity - Phase Shift     : 
TLFamily_RT        .         Resistivity - True Formation  : 
~Curve Information
#_______________________________________________________________________________
#
#LOGNAME           .UNIT     LOG_ID                        : DESCRIPTION
#_______________________________________________________________________________
MD                 .m                                      :  
BS                 .inches                                 :  
CALI               .inches                                 :  
DENS               .g/cm3                                  :  
DT                 .us/ft                                  :  
DTS                .us/ft                                  :  
GR                 .API                                    :  
NPHI               .v/v                                    :  
RS                 .ohm.m                                  :  
RT                 .ohm.m                                  :  
~Ascii
# ...
3092.3000  8.5000     8.6250     2.5820     69.0720    123.6160   10.0850    0.0980     4.3210     4.2330    
3092.4000  8.5000     8.6250     2.5820     68.7130    123.5310   9.2290     0.0960     4.3060     4.2150    
3092.5000  8.5000     8.6720     2.5780     68.3580    122.9290   9.2720     0.0910     4.3130     4.2170    
3092.6000  8.5000     8.6720     2.5730     68.1670    122.5530   9.7460     0.0890     4.3080     4.2330    
3092.7000  8.5000     8.6720     2.5710     68.0090    121.8860   9.7000     0.0880     4.3590     4.3240    
3092.8000  8.5000     8.6720     2.5730     67.8860    120.8950   8.9220     0.0860     4.3660     4.3870    
3092.9000  8.5000     8.6720     2.5760     67.7660    121.9180   8.6290     0.0850     4.3510     4.3940    
3093.0000  8.5000     8.6720     2.5790     67.5840    122.7470   8.4480     0.0840     4.3570     4.4110    
3093.1000  8.5000     8.6720     2.5790     67.3150    123.1350   9.0150     0.0830     4.4030     4.5230    
3093.2000  8.5000     8.6720     2.5790     67.0750    123.2110   8.7960     0.0830     4.4450     4.6700    
3093.3000  8.5000     8.6480     2.5780     66.8630    122.7120   9.2850     0.0870     4.4760     4.7390    
3093.4000  8.5000     8.6250     2.5760     66.6930    121.3030   8.8740     0.0870     4.4830     4.7940    
3093.5000  8.5000     8.6720     2.5760     66.4000    119.7490   8.8050     0.0820     4.4950     4.8580    
3093.6000  8.5000     8.6720     2.5780     66.0760    118.5260   8.3690     0.0790     4.5000     4.8820    
3093.7000  8.5000     8.6870     2.5820     65.7370    118.0530   7.8190     0.0750     4.4990     4.9660    
3093.8000  8.5000     8.6720     2.5870     65.2860    117.5590   7.5820     0.0740     4.5450     5.0580    
3093.9000  8.5000     8.6720     2.5920     64.8500    117.0870   7.6440     0.0720     4.5800     5.0940    
3094.0000  8.5000     8.6720     2.5950     64.5310    116.6840   7.3300     0.0720     4.5760     5.1390    
3094.1000  8.5000     8.6250     2.5960     64.4310    116.1300   8.6080     0.0740     4.5650     5.1740    
3094.2000  8.5000     8.6250     2.5980     64.4560    115.4770   8.8420     0.0720     4.5800     5.2140    
3094.3000  8.5000     8.6250     2.6000     64.6590    114.6590   8.0040     0.0710     4.5880     5.2190    
3094.4000  8.5000     8.6250     2.6020     64.8930    115.6230   8.2790     0.0690     4.6180     5.3180    
3094.5000  8.5000     8.6480     2.6030     65.1700    117.1550   8.2780     0.0630     4.6630     5.4370    
3094.6000  8.5000     8.6720     2.6030     65.5790    117.8380   9.0510     0.0620     4.6910     5.4920    
3094.7000  8.5000     8.6630     2.6030     65.8990    118.2840   7.5400     0.0600     4.6880     5.4790    
3094.8000  8.5000     8.6720     2.6030     66.1670    118.4710   6.6780     0.0600     4.6890     5.4650    
3094.9000  8.5000     8.6720     2.6030     66.4170    117.7750   6.2010     0.0600     4.6960     5.4810    
3095.0000  8.5000     8.6720     2.6050     66.6770    117.7710   6.5110     0.0600     4.7100     5.4720    
3095.1000  8.5000     8.6720     2.6070     66.9370    118.2890   7.4960     0.0610     4.7350     5.5200    
3095.2000  8.5000     8.6720     2.6100     67.1520    119.6080   6.8860     0.0610     4.7620     5.5690    
3095.3000  8.5000     8.6720     2.6120     66.9500    120.9570   6.2850     0.0620     4.7880     5.6360    
3095.4000  8.5000     8.6720     2.6140     66.4000    122.2240   6.5340     0.0620     4.8290     5.6540    
3095.5000  8.5000     8.6720     2.6160     65.3450    120.6770   6.8720     0.0620     4.8440     5.6660    
3095.6000  8.5000     8.6720     2.6200     63.7800    119.0890   6.2470     0.0610     4.8850     5.6900    
3095.7000  8.5000     8.6250     2.6220     61.7280    117.4630   6.1730     0.0630     4.8980     5.6970    
3095.8000  8.5000     8.6250     2.6240     61.1910    116.4410   5.4940     0.0630     4.9210     5.7390    
3095.9000  8.5000     8.6480     2.6230     60.8970    115.6520   5.6960     0.0620     4.9680     5.7940    
3096.0000  8.5000     8.6720     2.6210     60.8620    115.1250   5.6420     0.0580     5.0150     5.8730    
3096.1000  8.5000     8.6250     2.6210     61.3520    114.6440   5.4770     0.0600     5.0730     5.9220    
3096.2000  8.5000     8.6250     2.6220     61.8450    113.6390   5.4120     0.0590     5.0990     5.9670    
3096.3000  8.5000     8.6250     2.6250     62.2940    111.8940   5.4410     0.0590     5.1420     5.9920    
3096.4000  8.5000     8.6250     2.6260     62.7700    112.0260   5.6840     0.0590     5.1810     6.0160    
3096.5000  8.5000     8.6250     2.6250     63.0240    112.2840   6.4200     0.0580     5.2230     6.0800    
3096.6000  8.5000     8.6250     2.6220     62.8860    112.3600   7.0210     0.0570     5.2750     6.1350    
3096.7000  8.5000     8.6250     2.6190     62.6150    112.6010   6.8190     0.0550     5.3670     6.1960    
3096.8000  8.5000     8.6720     2.6180     62.4100    112.7850   6.2350     0.0510     5.3870     6.2360    
3096.9000  8.5000     8.6250     2.6180     62.4010    112.7810   5.7950     0.0520     5.4370     6.3090    
3097.0000  8.5000     8.6250     2.6200     62.5910    112.2740   5.7930     0.0510     5.4990     6.4050    
3097.1000  8.5000     8.6250     2.6210     62.8440    112.1910   5.8750     0.0510     5.6080     6.5030    
3097.2000  8.5000     8.6250     2.6230     63.1290    113.5960   6.4190     0.0520     5.6870     6.5830    
3097.3000  8.5000     8.6250     2.6230     63.2630    113.5540   6.2850     0.0520     5.7390     6.6090    
3097.4000  8.5000     8.6480     2.6240     63.3290    112.7510   6.3260     0.0500     5.7800     6.6740    
3097.5000  8.5000     8.6720     2.6260     63.3310    111.0040   6.4610     0.0500     5.8240     6.7160    
3097.6000  8.5000     8.6720     2.6270     63.0190    109.3850   6.1930     0.0510     5.8990     6.7960    
3097.7000  8.5000     8.6880     2.6270     62.5550    108.3120   6.1210     0.0490     5.9540     6.7840    
3097.8000  8.5000     8.7030     2.6270     62.0120    109.5470   6.4570     0.0500     5.9760     6.8040    
3097.9000  8.5000     8.6720     2.6290     61.6060    110.4640   6.1290     0.0520     6.0220     6.8150    
3098.0000  8.5000     8.6720     2.6300     61.3110    111.3140   6.5210     0.0530     6.0220     6.7960    
3098.1000  8.5000     8.6720     2.6310     61.2830    112.8610   7.1620     0.0540     6.0470     6.7860    
3098.2000  8.5000     8.6720     2.6320     61.4450    113.1870   7.3610     0.0580     6.0410     6.7300    
3098.3000  8.5000     8.6250     2.6330     61.7330    112.7900   7.1980     0.0580     6.0600     6.7650    
3098.4000  8.5000     8.6250     2.6340     62.0200    113.3170   6.3670     0.0570     6.0350     6.6890    
3098.5000  8.5000     8.6720     2.6360     62.4840    113.5330   6.3400     0.0530     6.0510     6.6690    
3098.6000  8.5000     8.6720     2.6350     63.0850    113.5130   7.4650     0.0520     5.9980     6.4890    
3098.7000  8.5000     8.6720     2.6340     63.4800    113.8560   7.1460     0.0520     5.9520     6.4310    
3098.8000  8.5000     8.6720     2.6330     63.7250    112.9810   8.1210     0.0520     5.9310     6.3600    
3098.9000  8.5000     8.6440     2.6310     63.8210    110.9260   6.9420     0.0530     5.9090     6.3320    
3099.0000  8.5000     8.6480     2.6300     63.6490    112.0280   6.8340     0.0530     5.8810     6.2680    
3099.1000  8.5000     8.6340     2.6300     63.5740    113.4380   7.7080     0.0580     5.8530     6.2320    
3099.2000  8.5000     8.6250     2.6320     63.6180    115.1470   8.3500     0.0600     5.7890     6.1490    
3099.3000  8.5000     8.6410     2.6310     63.6970    117.5080   7.9400     0.0600     5.7310     6.0650    
3099.4000  8.5000     8.6720     2.6260     63.9410    119.1280   6.9540     0.0630     5.6870     6.0050    
3099.5000  8.5000     8.6720     2.6190     64.4180    119.6220   7.4680     0.0660     5.6910     5.9480    
